$GPFPD,2292,541453.500,110.107,-0.322,1.077,31.42736933,120.62747033,10.230,-0.003,0.027,-0.003,0.810,16,15,04*55
$GTIMU,2292,541453.500,-0.0161,0.0423,-0.0066,-0.0178,-0.0052,1.0005,30.1*6E
14:23::55.514,1702679053482,120.62747033,31.42736933,3478528.44073292,559657.71944857,110.10700000,6.00000000,-0.00300000,0.02700000,-0.00300000,-0.01610000,0.04230000,-0.00660000,-0.01780000,-0.00520000,1.00050000
$GPFPD,2292,541453.600,110.106,-0.322,1.073,31.42736929,120.62747034,10.230,-0.003,0.029,-0.003,0.810,16,15,04*51
$GTIMU,2292,541453.600,-0.0032,-0.0464,0.0099,-0.0208,-0.0061,0.9998,30.1*68
14:23::55.614,1702679053582,120.62747034,31.42736929,3478528.43630315,559657.72042468,110.10600000,6.00000000,-0.00300000,0.02900000,-0.00300000,-0.00320000,-0.04640000,0.00990000,-0.02080000,-0.00610000,0.99980000
$GPFPD,2292,541453.700,110.106,-0.323,1.076,31.42736925,120.62747035,10.231,-0.003,0.027,-0.004,0.802,16,15,04*52
$GTIMU,2292,541453.700,-0.0138,0.0252,-0.0020,-0.0171,-0.0046,0.9989,30.1*6B
14:23::55.713,1702679053682,120.62747035,31.42736925,3478528.43187338,559657.72140079,110.10600000,6.00000000,-0.00300000,0.02700000,-0.00400000,-0.01380000,0.02520000,-0.00200000,-0.01710000,-0.00460000,0.99890000
$GPFPD,2292,541453.800,110.107,-0.323,1.075,31.42736923,120.62747035,10.231,-0.003,0.028,-0.002,0.802,16,15,04*50
$GTIMU,2292,541453.800,-0.0076,-0.0055,-0.0003,-0.0191,-0.0053,1.0015,30.1*48
14:23::55.814,1702679053782,120.62747035,31.42736923,3478528.42965579,559657.72141345,110.10700000,6.00000000,-0.00300000,0.02800000,-0.00200000,-0.00760000,-0.00550000,-0.00030000,-0.01910000,-0.00530000,1.00150000
$GPFPD,2292,541453.900,110.106,-0.324,1.071,31.42736925,120.62747035,10.231,-0.003,0.028,-0.003,0.811,16,15,04*56
$GTIMU,2292,541453.900,-0.0054,-0.0379,0.0082,-0.0194,-0.0045,0.9984,30.1*6B
14:23::55.914,1702679053882,120.62747035,31.42736925,3478528.43187338,559657.72140079,110.10600000,6.00000000,-0.00300000,0.02800000,-0.00300000,-0.00540000,-0.03790000,0.00820000,-0.01940000,-0.00450000,0.99840000
$GPFPD,2292,541454.000,110.107,-0.324,1.076,31.42736928,120.62747034,10.230,-0.004,0.027,-0.003,0.811,16,15,04*5B
$GTIMU,2292,541454.000,-0.0070,0.0423,-0.0083,-0.0171,-0.0054,0.9997,30.1*63
14:23::56.014,1702679053982,120.62747034,31.42736928,3478528.43519435,559657.72043101,110.10700000,6.00000000,-0.00400000,0.02700000,-0.00300000,-0.00700000,0.04230000,-0.00830000,-0.01710000,-0.00540000,0.99970000
$GPGGA,062356.00,3125.6419744,N,12037.6489202,E,1,14,1.3,3.658,M,7.80,M,,*64
$GPFPD,2292,541454.100,110.106,-0.323,1.071,31.42736930,120.62747034,10.230,-0.002,0.030,-0.002,0.811,16,15,04*53
$GTIMU,2292,541454.100,0.0031,-0.0465,0.0139,-0.0217,-0.0046,1.0009,30.1*4E
14:23::56.113,1702679054082,120.62747034,31.42736930,3478528.43741195,559657.72041835,110.10600000,6.00000000,-0.00200000,0.03000000,-0.00200000,0.00310000,-0.04650000,0.01390000,-0.02170000,-0.00460000,1.00090000
$GPFPD,2292,541454.200,110.106,-0.327,1.069,31.42736933,120.62747034,10.230,-0.003,0.028,-0.003,0.810,16,14,04*57
$GTIMU,2292,541454.200,-0.0446,-0.0248,0.0003,-0.0173,-0.0048,0.9985,30.1*6F
14:23::56.213,1702679054182,120.62747034,31.42736933,3478528.44073835,559657.72039935,110.10600000,6.00000000,-0.00300000,0.02800000,-0.00300000,-0.04460000,-0.02480000,0.00030000,-0.01730000,-0.00480000,0.99850000
$GPFPD,2292,541454.300,110.107,-0.327,1.071,31.42736936,120.62747034,10.232,-0.003,0.031,0.002,0.807,16,14,04*7B
$GTIMU,2292,541454.300,0.0003,0.0195,-0.0049,-0.0177,-0.0069,0.9994,30.1*4C
14:23::56.313,1702679054282,120.62747034,31.42736936,3478528.44406474,559657.72038036,110.10700000,6.00000000,-0.00300000,0.03100000,0.00200000,0.00030000,0.01950000,-0.00490000,-0.01770000,-0.00690000,0.99940000
$GPFPD,2292,541454.400,110.106,-0.325,1.067,31.42736941,120.62747036,10.241,-0.002,0.033,0.001,0.807,16,14,04*7E
$GTIMU,2292,541454.400,0.0145,-0.0448,0.0116,-0.0203,-0.0041,0.9993,30.1*4B
14:23::56.413,1702679054382,120.62747036,31.42736941,3478528.44961960,559657.72225026,110.10600000,6.00000000,-0.00200000,0.03300000,0.00100000,0.01450000,-0.04480000,0.01160000,-0.02030000,-0.00410000,0.99930000
$GPFPD,2292,541454.500,110.107,-0.327,1.073,31.42736946,120.62747039,10.250,-0.002,0.030,0.001,0.807,16,14,04*72
$GTIMU,2292,541454.500,-0.0223,0.0599,-0.0100,-0.0163,-0.0038,0.9996,30.1*60
14:23::56.513,1702679054482,120.62747039,31.42736946,3478528.45517988,559657.72507095,110.10700000,6.00000000,-0.00200000,0.03000000,0.00100000,-0.02230000,0.05990000,-0.01000000,-0.01630000,-0.00380000,0.99960000
$GPFPD,2292,541454.600,110.107,-0.328,1.070,31.42736950,120.62747041,10.259,-0.003,0.033,0.002,0.807,16,14,04*7D
$GTIMU,2292,541454.600,-0.0139,-0.0226,0.0065,-0.0212,-0.0071,1.0005,30.1*69
14:23::56.613,1702679054582,120.62747041,31.42736950,3478528.45962594,559657.72694719,110.10700000,6.00000000,-0.00300000,0.03300000,0.00200000,-0.01390000,-0.02260000,0.00650000,-0.02120000,-0.00710000,1.00050000
$GPFPD,2292,541454.700,110.107,-0.329,1.068,31.42736955,120.62747043,10.268,-0.003,0.033,0.002,0.804,16,13,04*75
$GTIMU,2292,541454.700,-0.0156,-0.0260,0.0037,-0.0179,-0.0051,0.9990,30.1*65
14:23::56.713,1702679054682,120.62747043,31.42736955,3478528.46518079,559657.72881710,110.10700000,6.00000000,-0.00300000,0.03300000,0.00200000,-0.01560000,-0.02600000,0.00370000,-0.01790000,-0.00510000,0.99900000
$GPFPD,2292,541454.800,110.107,-0.331,1.074,31.42736960,120.62747045,10.275,-0.003,0.031,0.002,0.804,16,13,04*70
$GTIMU,2292,541454.800,-0.0200,0.0548,-0.0066,-0.0172,-0.0042,0.9999,30.1*63
14:23::56.813,1702679054782,120.62747045,31.42736960,3478528.47073564,559657.73068701,110.10700000,6.00000000,-0.00300000,0.03100000,0.00200000,-0.02000000,0.05480000,-0.00660000,-0.01720000,-0.00420000,0.99990000
$GPFPD,2292,541454.900,110.107,-0.331,1.069,31.42736963,120.62747045,10.275,-0.002,0.033,0.002,0.808,16,14,04*76
$GTIMU,2292,541454.900,0.0008,-0.0476,0.0042,-0.0211,-0.0052,0.9995,30.1*44
14:23::56.913,1702679054882,120.62747045,31.42736963,3478528.47406204,559657.73066801,110.10700000,6.00000000,-0.00200000,0.03300000,0.00200000,0.00080000,-0.04760000,0.00420000,-0.02110000,-0.00520000,0.99950000
$GPFPD,2292,541455.000,110.107,-0.332,1.072,31.42736966,120.62747044,10.275,-0.002,0.032,0.001,0.808,16,14,04*71
$GTIMU,2292,541455.000,-0.0189,0.0246,0.0037,-0.0170,-0.0049,0.9987,30.1*4E
14:23::57.013,1702679054982,120.62747044,31.42736966,3478528.47738301,559657.72969823,110.10700000,6.00000000,-0.00200000,0.03200000,0.00100000,-0.01890000,0.02460000,0.00370000,-0.01700000,-0.00490000,0.99870000
$GPGGA,062357.00,3125.6418908,N,12037.6488942,E,1,14,1.9,3.604,M,7.80,M,,*6F
$GPFPD,2292,541455.100,110.108,-0.332,1.072,31.42736968,120.62747044,10.276,-0.002,0.033,0.002,0.808,16,14,04*70
$GTIMU,2292,541455.100,0.0014,0.0019,-0.0021,-0.0196,-0.0057,1.0007,30.1*4B
14:23::57.113,1702679055082,120.62747044,31.42736968,3478528.47960061,559657.72968557,110.10800000,6.00000000,-0.00200000,0.03300000,0.00200000,0.00140000,0.00190000,-0.00210000,-0.01960000,-0.00570000,1.00070000
$GPFPD,2292,541455.200,110.107,-0.332,1.069,31.42736971,120.62747044,10.276,-0.003,0.033,0.002,0.809,16,14,04*7E
$GTIMU,2292,541455.200,-0.0060,-0.0294,0.0059,-0.0191,-0.0060,0.9990,30.1*62
14:23::57.213,1702679055182,120.62747044,31.42736971,3478528.48292700,559657.72966657,110.10700000,6.00000000,-0.00300000,0.03300000,0.00200000,-0.00600000,-0.02940000,0.00590000,-0.01910000,-0.00600000,0.99900000
$GPFPD,2292,541455.300,110.108,-0.333,1.074,31.42736971,120.62747043,10.276,-0.004,0.026,-0.000,0.807,16,14,04*58
$GTIMU,2292,541455.300,-0.0115,0.0423,-0.0049,-0.0171,-0.0041,0.9999,30.1*6F
14:23::57.313,1702679055282,120.62747043,31.42736971,3478528.48292157,559657.72871579,110.10800000,6.00000000,-0.00400000,0.02600000,0.00000000,-0.01150000,0.04230000,-0.00490000,-0.01710000,-0.00410000,0.99990000
$GPFPD,2292,541455.400,110.108,-0.331,1.069,31.42736963,120.62747041,10.274,-0.003,0.028,0.001,0.807,16,14,04*77
$GTIMU,2292,541455.400,0.0127,-0.0527,0.0053,-0.0208,-0.0055,1.0003,30.1*40
14:23::57.413,1702679055382,120.62747041,31.42736963,3478528.47404032,559657.72686488,110.10800000,6.00000000,-0.00300000,0.02800000,0.00100000,0.01270000,-0.05270000,0.00530000,-0.02080000,-0.00550000,1.00030000
$GPFPD,2292,541455.500,110.108,-0.333,1.069,31.42736954,120.62747040,10.273,-0.003,0.026,-0.001,0.810,16,14,04*53
$GTIMU,2292,541455.500,-0.0224,0.0019,-0.0003,-0.0171,-0.0045,0.9981,30.1*66
14:23::57.513,1702679055482,120.62747040,31.42736954,3478528.46405570,559657.72597108,110.10800000,6.00000000,-0.00300000,0.02600000,-0.00100000,-0.02240000,0.00190000,-0.00030000,-0.01710000,-0.00450000,0.99810000
$GPFPD,2292,541455.600,110.108,-0.332,1.073,31.42736945,120.62747038,10.271,-0.004,0.026,0.000,0.810,16,14,04*7C
$GTIMU,2292,541455.600,0.0049,0.0439,-0.0015,-0.0184,-0.0063,1.0005,30.1*43
14:23::57.613,1702679055582,120.62747038,31.42736945,3478528.45406565,559657.72412650,110.10800000,6.00000000,-0.00400000,0.02600000,0.00000000,0.00490000,0.04390000,-0.00150000,-0.01840000,-0.00630000,1.00050000
$GPFPD,2292,541455.700,110.107,-0.332,1.068,31.42736937,120.62747036,10.270,-0.004,0.029,0.001,0.806,16,14,04*7B
$GTIMU,2292,541455.700,0.0036,-0.0527,0.0105,-0.0208,-0.0056,1.0003,30.1*43
14:23::57.713,1702679055682,120.62747036,31.42736937,3478528.44518440,559657.72227559,110.10700000,6.00000000,-0.00400000,0.02900000,0.00100000,0.00360000,-0.05270000,0.01050000,-0.02080000,-0.00560000,1.00030000
$GPFPD,2292,541455.800,110.108,-0.334,1.070,31.42736931,120.62747034,10.269,-0.004,0.026,-0.001,0.806,16,14,04*5A
$GTIMU,2292,541455.800,-0.0269,0.0201,-0.0020,-0.0164,-0.0042,0.9982,30.1*68
14:23::57.814,1702679055782,120.62747034,31.42736931,3478528.43852075,559657.72041201,110.10800000,6.00000000,-0.00400000,0.02600000,-0.00100000,-0.02690000,0.02010000,-0.00200000,-0.01640000,-0.00420000,0.99820000
$GPFPD,2292,541455.900,110.108,-0.332,1.070,31.42736933,120.62747034,10.269,-0.004,0.027,0.000,0.806,16,13,04*75
$GTIMU,2292,541455.900,0.0145,-0.0027,-0.0004,-0.0194,-0.0056,1.0003,30.1*66
14:23::57.913,1702679055882,120.62747034,31.42736933,3478528.44073835,559657.72039935,110.10800000,6.00000000,-0.00400000,0.02700000,0.00000000,0.01450000,-0.00270000,-0.00040000,-0.01940000,-0.00560000,1.00030000
$GPFPD,2292,541456.000,110.108,-0.332,1.067,31.42736936,120.62747034,10.269,-0.003,0.028,-0.000,0.806,16,13,04*59
$GTIMU,2292,541456.000,-0.0060,-0.0328,0.0059,-0.0197,-0.0041,0.9993,30.1*63
14:23::58.014,1702679055982,120.62747034,31.42736936,3478528.44406474,559657.72038036,110.10800000,6.00000000,-0.00300000,0.02800000,0.00000000,-0.00600000,-0.03280000,0.00590000,-0.01970000,-0.00410000,0.99930000
$GPGGA,062358.00,3125.6419608,N,12037.6489167,E,1,13,2.4,3.615,M,7.80,M,,*69
$GPFPD,2292,541456.100,110.108,-0.334,1.071,31.42736938,120.62747033,10.269,-0.004,0.026,-0.000,0.806,16,13,04*59
$GTIMU,2292,541456.100,-0.0206,0.0417,-0.0043,-0.0170,-0.0055,0.9998,30.1*67
14:23::58.113,1702679056082,120.62747033,31.42736938,3478528.44627691,559657.71941691,110.10800000,6.00000000,-0.00400000,0.02600000,0.00000000,-0.02060000,0.04170000,-0.00430000,-0.01700000,-0.00550000,0.99980000
$GPFPD,2292,541456.200,110.108,-0.332,1.068,31.42736941,120.62747033,10.269,-0.005,0.029,0.001,0.810,16,13,04*7F
$GTIMU,2292,541456.200,0.0213,-0.0379,0.0070,-0.0203,-0.0076,1.0004,30.1*40
14:23::58.213,1702679056182,120.62747033,31.42736941,3478528.44960331,559657.71939791,110.10800000,6.00000000,-0.00500000,0.02900000,0.00100000,0.02130000,-0.03790000,0.00700000,-0.02030000,-0.00760000,1.00040000
$GPFPD,2292,541456.300,110.108,-0.332,1.067,31.42736941,120.62747033,10.270,-0.003,0.022,0.001,0.814,16,13,04*70
$GTIMU,2292,541456.300,-0.0094,-0.0112,0.0020,-0.0180,-0.0036,0.9988,30.1*62
14:23::58.313,1702679056282,120.62747033,31.42736941,3478528.44960331,559657.71939791,110.10800000,6.00000000,-0.00300000,0.02200000,0.00100000,-0.00940000,-0.01120000,0.00200000,-0.01800000,-0.00360000,0.99880000
$GPFPD,2292,541456.400,110.109,-0.334,1.071,31.42736933,120.62747035,10.273,-0.003,0.021,0.001,0.814,16,13,04*74
$GTIMU,2292,541456.400,-0.0150,0.0332,-0.0026,-0.0176,-0.0052,0.9996,30.1*6E
14:23::58.413,1702679056382,120.62747035,31.42736933,3478528.44074378,559657.72135013,110.10900000,6.00000000,-0.00300000,0.02100000,0.00100000,-0.01500000,0.03320000,-0.00260000,-0.01760000,-0.00520000,0.99960000
$GPFPD,2292,541456.500,110.108,-0.333,1.066,31.42736925,120.62747037,10.276,-0.002,0.023,0.001,0.815,16,13,04*77
$GTIMU,2292,541456.500,0.0059,-0.0476,0.0076,-0.0211,-0.0042,0.9996,30.1*4B
14:23::58.513,1702679056482,120.62747037,31.42736925,3478528.43188424,559657.72330235,110.10800000,6.00000000,-0.00200000,0.02300000,0.00100000,0.00590000,-0.04760000,0.00760000,-0.02110000,-0.00420000,0.99960000
$GPFPD,2292,541456.600,110.109,-0.334,1.070,31.42736917,120.62747039,10.280,-0.003,0.021,0.001,0.815,16,13,04*70
$GTIMU,2292,541456.600,-0.0189,0.0354,-0.0072,-0.0162,-0.0052,0.9991,30.1*6B
14:23::58.613,1702679056582,120.62747039,31.42736917,3478528.42302471,559657.72525458,110.10900000,6.00000000,-0.00300000,0.02100000,0.00100000,-0.01890000,0.03540000,-0.00720000,-0.01620000,-0.00520000,0.99910000
$GPFPD,2292,541456.700,110.108,-0.332,1.070,31.42736909,120.62747041,10.283,-0.004,0.022,0.003,0.812,16,13,04*74
$GTIMU,2292,541456.700,0.0157,-0.0010,0.0104,-0.0194,-0.0069,1.0018,30.1*46
14:23::58.713,1702679056682,120.62747041,31.42736909,3478528.41416518,559657.72720680,110.10800000,6.00000000,-0.00400000,0.02200000,0.00300000,0.01570000,-0.00100000,0.01040000,-0.01940000,-0.00690000,1.00180000
$GPFPD,2292,541456.800,110.108,-0.333,1.067,31.42736904,120.62747042,10.286,-0.004,0.023,0.003,0.812,16,13,04*76
$GTIMU,2292,541456.800,-0.0100,-0.0311,0.0042,-0.0195,-0.0052,0.9994,30.1*6B
14:23::58.813,1702679056782,120.62747042,31.42736904,3478528.40862661,559657.72818924,110.10800000,6.00000000,-0.00400000,0.02300000,0.00300000,-0.01000000,-0.03110000,0.00420000,-0.01950000,-0.00520000,0.99940000
$GPFPD,2292,541456.900,110.108,-0.334,1.071,31.42736906,120.62747042,10.286,-0.004,0.021,0.001,0.815,16,13,04*72
$GTIMU,2292,541456.900,-0.0121,0.0417,-0.0043,-0.0166,-0.0049,0.9984,30.1*6E
14:23::58.913,1702679056882,120.62747042,31.42736906,3478528.41084421,559657.72817657,110.10800000,6.00000000,-0.00400000,0.02100000,0.00100000,-0.01210000,0.04170000,-0.00430000,-0.01660000,-0.00490000,0.99840000
$GPFPD,2292,541457.000,110.108,-0.331,1.067,31.42736908,120.62747042,10.286,-0.003,0.024,0.002,0.815,16,13,04*77
$GTIMU,2292,541457.000,0.0235,-0.0425,0.0099,-0.0214,-0.0054,1.0002,30.1*4E
14:23::59.013,1702679056982,120.62747042,31.42736908,3478528.41306181,559657.72816391,110.10800000,6.00000000,-0.00300000,0.02400000,0.00200000,0.02350000,-0.04250000,0.00990000,-0.02140000,-0.00540000,1.00020000
$GPFPD,2292,541457$GPGGA,06.100,110.2359.00,3108,-0.33125.641974,1.068,74,N,120331.427367.6489215910,120.,E,1,13,262747041,.4,3.603,10.286,-0M,7.80,M,.002,0.02,*63
2,0.001,0.815,16,13,04*72
$GTIMU,2292,541457.100,-0.0349,0.0133,-0.0025,-0.0167,-0.0033,0.9988,30.1*68
14:23::59.113,1702679057082,120.62747041,31.42736910,3478528.41527398,559657.72720046,110.10800000,6.00000000,-0.00200000,0.02200000,0.00100000,-0.03490000,0.01330000,-0.00250000,-0.01670000,-0.00330000,0.99880000
$GPFPD,2292,541457.200,110.108,-0.333,1.070,31.42736912,120.62747041,10.286,-0.004,0.023,0.002,0.809,16,13,04*74
$GTIMU,2292,541457.200,0.0077,0.0155,0.0019,-0.0191,-0.0070,1.0006,30.1*63
14:23::59.213,1702679057182,120.62747041,31.42736912,3478528.41749158,559657.72718780,110.10800000,6.00000000,-0.00400000,0.02300000,0.00200000,0.00770000,0.01550000,0.00190000,-0.01910000,-0.00700000,1.00060000
$GPFPD,2292,541457.300,110.107,-0.332,1.065,31.42736913,120.62747042,10.288,-0.002,0.024,0.006,0.815,16,13,04*7B
$GTIMU,2292,541457.300,0.0082,-0.0487,0.0088,-0.0196,-0.0060,0.9990,30.1*4F
14:23::59.313,1702679057282,120.62747042,31.42736913,3478528.41860580,559657.72813225,110.10700000,6.00000000,-0.00200000,0.02400000,0.00600000,0.00820000,-0.04870000,0.00880000,-0.01960000,-0.00600000,0.99900000
$GPFPD,2292,541457.400,110.108,-0.334,1.070,31.42736913,120.62747046,10.297,-0.001,0.021,0.005,0.815,16,13,04*7E
$GTIMU,2292,541457.400,-0.0252,0.0479,-0.0060,-0.0166,-0.0036,0.9992,30.1*63
14:23::59.413,1702679057382,120.62747046,31.42736913,3478528.41862752,559657.73193538,110.10800000,6.00000000,-0.00100000,0.02100000,0.00500000,-0.02520000,0.04790000,-0.00600000,-0.01660000,-0.00360000,0.99920000
$GPFPD,2292,541457.500,110.108,-0.333,1.067,31.42736913,120.62747050,10.305,-0.001,0.024,0.006,0.816,16,13,04*76
$GTIMU,2292,541457.500,0.0093,-0.0368,0.0042,-0.0213,-0.0058,0.9999,30.1*45
14:23::59.513,1702679057482,120.62747050,31.42736913,3478528.41864924,559657.73573852,110.10800000,6.00000000,-0.00100000,0.02400000,0.00600000,0.00930000,-0.03680000,0.00420000,-0.02130000,-0.00580000,0.99990000
$GPFPD,2292,541457.600,110.108,-0.334,1.067,31.42736913,120.62747055,10.313,-0.001,0.022,0.005,0.816,16,13,04*75
$GTIMU,2292,541457.600,-0.0105,0.0059,0.0025,-0.0165,-0.0047,0.9989,30.1*45
14:23::59.613,1702679057582,120.62747055,31.42736913,3478528.41867639,559657.74049243,110.10800000,6.00000000,-0.00100000,0.02200000,0.00500000,-0.01050000,0.00590000,0.00250000,-0.01650000,-0.00470000,0.99890000
$GPFPD,2292,541457.700,110.108,-0.333,1.072,31.42736913,120.62747059,10.322,-0.001,0.022,0.006,0.812,16,13,04*7E
$GTIMU,2292,541457.700,0.0004,0.0445,-0.0026,-0.0185,-0.0053,1.0009,30.1*4C
14:23::59.713,1702679057682,120.62747059,31.42736913,3478528.41869810,559657.74429556,110.10800000,6.00000000,-0.00100000,0.02200000,0.00600000,0.00040000,0.04450000,-0.00260000,-0.01850000,-0.00530000,1.00090000
$GPFPD,2292,541457.800,110.108,-0.333,1.066,31.42736913,120.62747062,10.328,-0.001,0.024,0.007,0.812,16,13,04*71
$GTIMU,2292,541457.800,0.0031,-0.0573,0.0088,-0.0208,-0.0059,1.0004,30.1*44
14:23::59.813,1702679057782,120.62747062,31.42736913,3478528.41871439,559657.74714791,110.10800000,6.00000000,-0.00100000,0.02400000,0.00700000,0.00310000,-0.05730000,0.00880000,-0.02080000,-0.00590000,1.00040000
$GPFPD,2292,541457.900,110.108,-0.334,1.069,31.42736915,120.62747062,10.329,-0.002,0.022,0.006,0.809,16,13,04*71
$GTIMU,2292,541457.900,-0.0224,0.0229,-0.0020,-0.0165,-0.0052,0.9982,30.1*68
14:23::59.913,1702679057882,120.62747062,31.42736915,3478528.42093199,559657.74713525,110.10800000,6.00000000,-0.00200000,0.02200000,0.00600000,-0.02240000,0.02290000,-0.00200000,-0.01650000,-0.00520000,0.99820000
$GPFPD,2292,541458.000,110.109,-0.332,1.067,31.42736917,120.62747062,10.329,-0.001,0.024,0.006,0.809,16,13,04*79
$GTIMU,2292,541458.000,0.0162,-0.0186,-0.0010,-0.0204,-0.0053,1.0001,30.1*65
14:24::00.013,1702679057982,120.62747062,31.42736917,3478528.42314959,559657.74712259,110.10900000,6.00000000,-0.00100000,0.02400000,0.00600000,0.01620000,-0.01860000,-0.00100000,-0.02040000,-0.00530000,1.00010000
$GPFPD,2292,541458$GPGGA,06.100,110.2400.00,3108,-0.33125.64194,1.065,3508,N,1201.427369137.6489409,120.6276,E,1,13,2.4,3.4247062,10.8,M,7.80,330,-0.001,0.023,0M,,*6E
.006,0.809,16,13,04*7C
$GTIMU,2292,541458.100,-0.0139,-0.0220,0.0060,-0.0180,-0.0042,0.9989,30.1*6C
14:24::00.113,1702679058082,120.62747062,31.42736919,3478528.42536718,559657.74710992,110.10800000,6.00000000,-0.00100000,0.02300000,0.00600000,-0.01390000,-0.02200000,0.00600000,-0.01800000,-0.00420000,0.99890000
$GPFPD,2292,541458.200,110.108,-0.335,1.069,31.42736921,120.62747062,10.331,-0.001,0.022,0.006,0.810,16,13,04*71
$GTIMU,2292,541458.200,-0.0189,0.0349,-0.0014,-0.0176,-0.0056,1.0002,30.1*67
14:24::00.213,1702679058182,120.62747062,31.42736921,3478528.42758478,559657.74709726,110.10800000,6.00000000,-0.00100000,0.02200000,0.00600000,-0.01890000,0.03490000,-0.00140000,-0.01760000,-0.00560000,1.00020000
$GPFPD,2292,541458.300,110.109,-0.334,1.064,31.42736922,120.62747062,10.331,-0.001,0.023,0.005,0.811,16,13,04*7D
$GTIMU,2292,541458.300,0.0093,-0.0504,0.0019,-0.0206,-0.0064,0.9996,30.1*4A
14:24::00.313,1702679058282,120.62747062,31.42736922,3478528.42869358,559657.74709093,110.10900000,6.00000000,-0.00100000,0.02300000,0.00500000,0.00930000,-0.05040000,0.00190000,-0.02060000,-0.00640000,0.99960000
$GPFPD,2292,541458.400,110.109,-0.335,1.066,31.42736920,120.62747065,10.328,-0.000,0.021,0.004,0.811,16,13,04*76
$GTIMU,2292,541458.400,-0.0116,0.0229,-0.0032,-0.0167,-0.0039,0.9989,30.1*6F
14:24::00.413,1702679058382,120.62747065,31.42736920,3478528.42649227,559657.74995594,110.10900000,6.00000000,0.00000000,0.02100000,0.00400000,-0.01160000,0.02290000,-0.00320000,-0.01670000,-0.00390000,0.99890000
$GPFPD,2292,541458.500,110.109,-0.335,1.067,31.42736917,120.62747067,10.326,-0.000,0.022,0.005,0.813,16,13,04*7E
$GTIMU,2292,541458.500,-0.0042,0.0030,0.0048,-0.0191,-0.0057,1.0011,30.1*45
14:24::00.513,1702679058482,120.62747067,31.42736917,3478528.42317673,559657.75187650,110.10900000,6.00000000,0.00000000,0.02200000,0.00500000,-0.00420000,0.00300000,0.00480000,-0.01910000,-0.00570000,1.00110000
$GPFPD,2292,541458.600,110.109,-0.335,1.063,31.42736914,120.62747069,10.324,0.000,0.022,0.005,0.813,16,13,04*5B
$GTIMU,2292,541458.600,-0.0037,-0.0379,0.0054,-0.0196,-0.0050,0.9992,30.1*60
$GPFPD,2292,541458.700,110.109,-0.336,1.068,31.42736912,120.62747072,10.322,-0.001,0.020,0.005,0.810,16,13,04*75
$GTIMU,2292,541458.700,-0.0115,0.0536,-0.0072,-0.0162,-0.0054,0.9992,30.1*66
$GPFPD,2292,541458.800,110.109,-0.334,1.065,31.42736910,120.62747073,10.321,-0.000,0.023,0.006,0.810,16,13,04*74
$GTIMU,2292,541458.800,0.0139,-0.0385,0.0104,-0.0217,-0.0057,1.0005,30.1*49
$GPFPD,2292,541458.900,110.109,-0.335,1.063,31.42736912,120.62747073,10.321,0.000,0.022,0.004,0.819,16,13,04*57
$GTIMU,2292,541458.900,-0.0173,-0.0197,-0.0020,-0.0172,-0.0043,0.9979,30.1*4F
$GPFPD,2292,541459.000,110.109,-0.334,1.065,31.42736914,120.62747073,10.321,-0.001,0.021,0.004,0.819,16,13,04*71
$GTIMU,2292,541459.000,0.0066,0.0252,0.0019,-0.0177,-0.0062,1.0003,30.1*65
$GPFPD,2292,541459.100,110.109,-0.333,1.062,31.42736916,120.62747073,10.322,-0.000,0.023,0.005,0.819,16,13,04*73
$GTIMU,2292,541459.100,0.0065,-0.0334,0.0076,-0.0200,-0.0046,1.0004,30.1*40
$GPFPD,2292,541459.200,110.109,-0.336,1.067,31.42736918,120.62747073,10.322,-0.000,0.020,0.004,0.810,16,13,04*75
$GTIMU,2292,541459.200,-0.0280,0.0508,-0.0031,-0.0163,-0.0043,0.9988,30.1*6B
$GPFPD,2292,541459.300,110.109,-0.333,1.065,31.42736921,120.62747074,10.324,-0.001,0.027,0.009,0.807,16,14,04*72
$GTIMU,2292,541459.300,0.0224,-0.0271,0.0047,-0.0213,-0.0077,1.0002,30.1*41
$GPFPD,2292,541459.400,110.109,-0.334,1.062,31.42736925,120.62747075,10.331,0.000,0.026,0.008,0.807,16,14,04*58
$GTIMU,2292,541459.400,-0.0088,-0.0277,0.0031,-0.0181,-0.0040,0.9989,30.1*66
$GPFPD,2292,541459.500,110.110,-0.334,1.065,31.42736929,120.62747077,10.338,-0.000,0.025,0.008,0.807,16,14,04*7F
$GTIMU,2292,541459.500,-0.0030,0.0309,-0.0026,-0.0169,-0.0050,0.9994,30.1*61
$GPGGA,062401.00,3125.6419591,N,12037.6489404,E,1,13,2.4,3.444,M,7.80,M,,*67
$GPFPD,2292,541459.600,110.109,-0.333,1.062,31.42736934,120.62747079,10.345,0.000,0.026,0.009,0.807,16,14,04*53
$GTIMU,2292,541459.600,0.0065,-0.0374,0.0116,-0.0203,-0.0055,1.0003,30.1*42
14:24::01.613,1702679059582,120.62747079,31.42736934,3478528.44209147,559657.76317826,110.10900000,6.00000000,0.00000000,0.02600000,0.00900000,0.00650000,-0.03740000,0.01160000,-0.02030000,-0.00550000,1.00030000
$GPFPD,2292,541459.700,110.110,-0.335,1.067,31.42736938,120.62747081,10.352,0.001,0.024,0.008,0.815,16,14,04*55
$GTIMU,2292,541459.700,-0.0269,0.0485,-0.0071,-0.0166,-0.0037,0.9985,30.1*62
14:24::01.713,1702679059682,120.62747081,31.42736938,3478528.44653752,559657.76505450,110.11000000,6.00000000,0.00100000,0.02400000,0.00800000,-0.02690000,0.04850000,-0.00710000,-0.01660000,-0.00370000,0.99850000
$GPFPD,2292,541459.800,110.109,-0.336,1.066,31.42736942,120.62747082,10.357,-0.000,0.026,0.009,0.815,16,14,04*74
$GTIMU,2292,541459.800,-0.0116,-0.0072,0.0088,-0.0203,-0.0071,1.0005,30.1*67
14:24::01.813,1702679059782,120.62747082,31.42736942,3478528.45097815,559657.76597995,110.10900000,6.00000000,0.00000000,0.02600000,0.00900000,-0.01160000,-0.00720000,0.00880000,-0.02030000,-0.00710000,1.00050000
$GPFPD,2292,541459.900,110.109,-0.337,1.064,31.42736944,120.62747082,10.358,-0.001,0.027,0.009,0.805,16,14,04*7E
$GTIMU,2292,541459.900,-0.0134,-0.0243,0.0003,-0.0192,-0.0059,0.9999,30.1*60
14:24::01.913,1702679059882,120.62747082,31.42736944,3478528.45319575,559657.76596729,110.10900000,6.00000000,-0.00100000,0.02700000,0.00900000,-0.01340000,-0.02430000,0.00030000,-0.01920000,-0.00590000,0.99990000
$GPFPD,2292,541460.000,110.109,-0.338,1.068,31.42736947,120.62747082,10.359,-0.000,0.024,0.009,0.805,16,14,04*7E
$GTIMU,2292,541460.000,-0.0183,0.0411,-0.0014,-0.0161,-0.0035,0.9993,30.1*64
14:24::02.013,1702679059982,120.62747082,31.42736947,3478528.45652215,559657.76594829,110.10900000,6.00000000,0.00000000,0.02400000,0.00900000,-0.01830000,0.04110000,-0.00140000,-0.01610000,-0.00350000,0.99930000
$GPFPD,2292,541460$GPGGA,06.100,110.2402.00,3108,-0.33125.642049,1.065,307,N,12031.42736947.64897819,120.627,E,1,14,147082,10..9,3.438,360,0.001M,7.80,M,0.026,0.,,*6C
009,0.805,16,14,04*58
$GTIMU,2292,541460.100,-0.0128,-0.0317,0.0134,-0.0208,-0.0054,1.0001,30.1*67
14:24::02.113,1702679060082,120.62747082,31.42736949,3478528.45873974,559657.76593563,110.10800000,6.00000000,0.00100000,0.02600000,0.00900000,-0.01280000,-0.03170000,0.01340000,-0.02080000,-0.00540000,1.00010000
$GPFPD,2292,541460.200,110.109,-0.340,1.068,31.42736951,120.62747082,10.361,0.000,0.025,0.008,0.804,16,14,04*53
$GTIMU,2292,541460.200,-0.0070,0.0297,-0.0089,-0.0168,-0.0051,0.9986,30.1*68
14:24::02.213,1702679060182,120.62747082,31.42736951,3478528.46095734,559657.76592297,110.10900000,6.00000000,0.00000000,0.02500000,0.00800000,-0.00700000,0.02970000,-0.00890000,-0.01680000,-0.00510000,0.99860000
$GPFPD,2292,541460.300,110.109,-0.337,1.067,31.42736951,120.62747082,10.361,0.001,0.022,0.007,0.807,16,13,04*50
$GTIMU,2292,541460.300,0.0236,-0.0163,0.0110,-0.0206,-0.0065,1.0011,30.1*4E
14:24::02.313,1702679060282,120.62747082,31.42736951,3478528.46095734,559657.76592297,110.10900000,6.00000000,0.00100000,0.02200000,0.00700000,0.02360000,-0.01630000,0.01100000,-0.02060000,-0.00650000,1.00110000
$GPFPD,2292,541460.400,110.109,-0.338,1.062,31.42736945,120.62747085,10.357,0.001,0.022,0.007,0.807,16,13,04*5A
$GTIMU,2292,541460.400,-0.0140,-0.0476,0.0008,-0.0188,-0.0043,0.9995,30.1*63
14:24::02.413,1702679060382,120.62747085,31.42736945,3478528.45432084,559657.76881331,110.10900000,6.00000000,0.00100000,0.02200000,0.00700000,-0.01400000,-0.04760000,0.00080000,-0.01880000,-0.00430000,0.99950000
$GPFPD,2292,541460.500,110.110,-0.338,1.067,31.42736938,120.62747087,10.353,-0.001,0.020,0.005,0.809,16,13,04*79
$GTIMU,2292,541460.500,0.0010,0.0428,-0.0009,-0.0156,-0.0069,0.9981,30.1*4F
14:24::02.513,1702679060482,120.62747087,31.42736938,3478528.44657010,559657.77075919,110.11000000,6.00000000,-0.00100000,0.02000000,0.00500000,0.00100000,0.04280000,-0.00090000,-0.01560000,-0.00690000,0.99810000
$GPFPD,2292,541460.600,110.109,-0.334,1.063,31.42736931,120.62747090,10.349,0.001,0.022,0.006,0.809,16,13,04*52
$GTIMU,2292,541460.600,0.0309,-0.0357,0.0127,-0.0215,-0.0042,1.0002,30.1*42
14:24::02.613,1702679060582,120.62747090,31.42736931,3478528.43882480,559657.77365587,110.10900000,6.00000000,0.00100000,0.02200000,0.00600000,0.03090000,-0.03570000,0.01270000,-0.02150000,-0.00420000,1.00020000
$GPFPD,2292,541460.700,110.110,-0.336,1.065,31.42736925,120.62747092,10.346,0.002,0.020,0.007,0.815,16,13,04*5A
$GTIMU,2292,541460.700,-0.0230,0.0201,-0.0151,-0.0174,-0.0036,1.0008,30.1*6B
14:24::02.713,1702679060682,120.62747092,31.42736925,3478528.43218286,559657.77559542,110.11000000,6.00000000,0.00200000,0.02000000,0.00700000,-0.02300000,0.02010000,-0.01510000,-0.01740000,-0.00360000,1.00080000
$GPFPD,2292,541460.800,110.109,-0.341,1.066,31.42736920,120.62747094,10.343,0.002,0.021,0.009,0.815,16,13,04*57
$GTIMU,2292,541460.800,-0.0530,0.0064,0.0083,-0.0188,-0.0059,1.0014,30.1*46
14:24::02.813,1702679060782,120.62747094,31.42736920,3478528.42664973,559657.77752865,110.10900000,6.00000000,0.00200000,0.02100000,0.00900000,-0.05300000,0.00640000,0.00830000,-0.01880000,-0.00590000,1.00140000
$GPFPD,2292,541460.900,110.109,-0.341,1.062,31.42736922,120.62747094,10.344,-0.001,0.023,0.004,0.809,16,14,04*7C
$GTIMU,2292,541460.900,-0.0077,-0.0408,0.0048,-0.0193,-0.0084,0.9944,30.1*6B
14:24::02.913,1702679060882,120.62747094,31.42736922,3478528.42886732,559657.77751598,110.10900000,6.00000000,-0.00100000,0.02300000,0.00400000,-0.00770000,-0.04080000,0.00480000,-0.01930000,-0.00840000,0.99440000
$GPFPD,2292,541461.000,110.110,-0.338,1.066,31.42736924,120.62747094,10.344,-0.001,0.020,0.004,0.809,16,14,04*73
$GTIMU,2292,541461.000,0.0293,0.0360,-0.0021,-0.0164,-0.0042,0.9999,30.1*42
14:24::03.013,1702679060982,120.62747094,31.42736924,3478528.43108492,559657.77750332,110.11000000,6.00000000,-0.00100000,0.02000000,0.00400000,0.02930000,0.03600000,-0.00210000,-0.01640000,-0.00420000,0.99990000
$GPGGA,062403.00,3125.6419693,N,12037.6489491,E,1,14,1.3,3.409,M,7.80,M,,*62
$GPFPD,2292,541461.100,110.109,-0.339,1.065,31.42736926,120.62747094,10.345,0.002,0.021,0.009,0.809,16,14,04*59
$GTIMU,2292,541461.100,-0.0099,-0.0089,0.0128,-0.0201,-0.0030,1.0046,30.1*6C
14:24::03.113,1702679061082,120.62747094,31.42736926,3478528.43330252,559657.77749066,110.10900000,6.00000000,0.00200000,0.02100000,0.00900000,-0.00990000,-0.00890000,0.01280000,-0.02010000,-0.00300000,1.00460000
$GPFPD,2292,541461.200,110.109,-0.344,1.069,31.42736927,120.62747094,10.346,0.001,0.020,0.006,0.802,16,14,04*58
$GTIMU,2292,541461.200,-0.0581,0.0326,-0.0053,-0.0179,-0.0057,0.9964,30.1*64
14:24::03.213,1702679061182,120.62747094,31.42736927,3478528.43441132,559657.77748433,110.10900000,6.00000000,0.00100000,0.02000000,0.00600000,-0.05810000,0.03260000,-0.00530000,-0.01790000,-0.00570000,0.99640000
$GPFPD,2292,541461.300,110.109,-0.344,1.068,31.42736927,120.62747093,10.345,-0.003,0.017,0.003,0.806,16,14,04*76
$GTIMU,2292,541461.300,-0.0014,-0.0061,0.0059,-0.0198,-0.0073,0.9988,30.1*6D
14:24::03.313,1702679061282,120.62747093,31.42736927,3478528.43440589,559657.77653354,110.10900000,6.00000000,-0.00300000,0.01700000,0.00300000,-0.00140000,-0.00610000,0.00590000,-0.01980000,-0.00730000,0.99880000
$GPFPD,2292,541461.400,110.110,-0.344,1.064,31.42736919,120.62747090,10.341,-0.002,0.017,0.005,0.806,16,14,04*78
$GTIMU,2292,541461.400,-0.0004,-0.0442,-0.0055,-0.0190,-0.0044,1.0016,30.1*45
14:24::03.413,1702679061382,120.62747090,31.42736919,3478528.42551921,559657.77373185,110.11000000,6.00000000,-0.00200000,0.01700000,0.00500000,-0.00040000,-0.04420000,-0.00550000,-0.01900000,-0.00440000,1.00160000
$GPFPD,2292,541461.500,110.110,-0.346,1.069,31.42736911,120.62747086,10.338,-0.003,0.014,0.004,0.805,16,14,04*77
$GTIMU,2292,541461.500,-0.0297,0.0451,0.0031,-0.0153,-0.0049,0.9990,30.1*41
14:24::03.513,1702679061482,120.62747086,31.42736911,3478528.41662710,559657.76997937,110.11000000,6.00000000,-0.00300000,0.01400000,0.00400000,-0.02970000,0.04510000,0.00310000,-0.01530000,-0.00490000,0.99900000
$GPFPD,2292,541461.600,110.109,-0.344,1.067,31.42736903,120.62747082,10.334,-0.003,0.017,0.003,0.805,16,14,04*7F
$GTIMU,2292,541461.600,0.0162,-0.0215,0.0156,-0.0220,-0.0067,0.9991,30.1*47
14:24::03.613,1702679061582,120.62747082,31.42736903,3478528.40773499,559657.76622689,110.10900000,6.00000000,-0.00300000,0.01700000,0.00300000,0.01620000,-0.02150000,0.01560000,-0.02200000,-0.00670000,0.99910000
$GPFPD,2292,541461.700,110.110,-0.344,1.067,31.42736895,120.62747078,10.330,-0.002,0.016,0.004,0.808,16,14,04*73
$GTIMU,2292,541461.700,-0.0003,0.0030,-0.0129,-0.0178,-0.0039,0.9998,30.1*6C
14:24::03.713,1702679061682,120.62747078,31.42736895,3478528.39884288,559657.76247441,110.11000000,6.00000000,-0.00200000,0.01600000,0.00400000,-0.00030000,0.00300000,-0.01290000,-0.01780000,-0.00390000,0.99980000
$GPFPD,2292,541461.800,110.109,-0.346,1.068,31.42736890,120.62747075,10.328,-0.002,0.015,0.005,0.808,16,14,04*7A
$GTIMU,2292,541461.800,-0.0206,0.0098,0.0094,-0.0177,-0.0058,1.0006,30.1*42
14:24::03.813,1702679061782,120.62747075,31.42736890,3478528.39328260,559657.75965372,110.10900000,6.00000000,-0.00200000,0.01500000,0.00500000,-0.02060000,0.00980000,0.00940000,-0.01770000,-0.00580000,1.00060000
$GPFPD,2292,541461.900,110.108,-0.345,1.065,31.42736891,120.62747075,10.328,-0.003,0.017,0.004,0.807,16,13,04*7F
$GTIMU,2292,541461.900,-0.0008,-0.0300,0.0133,-0.0198,-0.0066,0.9988,30.1*67
14:24::03.913,1702679061882,120.62747075,31.42736891,3478528.39439140,559657.75964739,110.10800000,6.00000000,-0.00300000,0.01700000,0.00400000,-0.00080000,-0.03000000,0.01330000,-0.01980000,-0.00660000,0.99880000
$GPFPD,2292,541462.000,110.110,-0.347,1.072,31.42736893,120.62747074,10.328,-0.003,0.015,0.004,0.807,16,13,04*79
$GTIMU,2292,541462.000,-0.0144,0.0633,-0.0180,-0.0164,-0.0045,0.9999,30.1*6B
14:24::04.013,1702679061982,120.62747074,31.42736893,3478528.39660357,559657.75868395,110.11000000,6.00000000,-0.00300000,0.01500000,0.00400000,-0.01440000,0.06330000,-0.01800000,-0.01640000,-0.00450000,0.99990000
$GPGGA,062404.00,3125.6418954,N,12037.6489142,E,1,14,1.9,3.328,M,7.80,M,,*65
$GPFPD,2292,541462.100,110.108,-0.345,1.069,31.42736894,120.62747074,10.329,-0.003,0.017,0.004,0.807,16,13,04*7D
$GTIMU,2292,541462.100,0.0094,-0.0260,0.0219,-0.0209,-0.0059,0.9995,30.1*43
14:24::04.113,1702679062082,120.62747074,31.42736894,3478528.39771236,559657.75867761,110.10800000,6.00000000,-0.00300000,0.01700000,0.00400000,0.00940000,-0.02600000,0.02190000,-0.02090000,-0.00590000,0.99950000
$GPFPD,2292,541462.200,110.109,-0.343,1.068,31.42736896,120.62747074,10.329,-0.001,0.017,0.003,0.809,16,14,04*76
$GTIMU,2292,541462.200,0.0167,-0.0180,0.0013,-0.0194,-0.0043,0.9988,30.1*48
14:24::04.213,1702679062182,120.62747074,31.42736896,3478528.39992996,559657.75866495,110.10900000,6.00000000,-0.00100000,0.01700000,0.00300000,0.01670000,-0.01800000,0.00130000,-0.01940000,-0.00430000,0.99880000
$GPFPD,2292,541462.300,110.111,-0.345,1.069,31.42736895,120.62747074,10.329,-0.002,0.012,0.005,0.808,16,14,04*7B
$GTIMU,2292,541462.300,-0.0162,0.0110,-0.0203,-0.0172,-0.0059,1.0020,30.1*6B
14:24::04.313,1702679062282,120.62747074,31.42736895,3478528.39882116,559657.75867128,110.11100000,6.00000000,-0.00200000,0.01200000,0.00500000,-0.01620000,0.01100000,-0.02030000,-0.01720000,-0.00590000,1.00200000
$GPFPD,2292,541462.400,110.109,-0.342,1.065,31.42736888,120.62747074,10.328,-0.004,0.013,0.004,0.808,16,14,04*75
$GTIMU,2292,541462.400,0.0236,-0.0385,0.0253,-0.0186,-0.0074,0.9980,30.1*47
14:24::04.413,1702679062382,120.62747074,31.42736888,3478528.39105957,559657.75871560,110.10900000,6.00000000,-0.00400000,0.01300000,0.00400000,0.02360000,-0.03850000,0.02530000,-0.01860000,-0.00740000,0.99800000
$GPFPD,2292,541462.500,110.109,-0.339,1.069,31.42736880,120.62747075,10.327,-0.003,0.012,0.002,0.806,16,14,04*7C
$GTIMU,2292,541462.500,0.0259,0.0383,-0.0044,-0.0184,-0.0037,0.9985,30.1*4D
14:24::04.513,1702679062482,120.62747075,31.42736880,3478528.38219461,559657.75971704,110.10900000,6.00000000,-0.00300000,0.01200000,0.00200000,0.02590000,0.03830000,-0.00440000,-0.01840000,-0.00370000,0.99850000
$GPFPD,2292,541462.600,110.110,-0.335,1.069,31.42736873,120.62747076,10.326,-0.001,0.011,0.005,0.806,16,14,04*73
$GTIMU,2292,541462.600,0.0400,-0.0004,-0.0056,-0.0188,-0.0036,1.0024,30.1*61
14:24::04.613,1702679062582,120.62747076,31.42736873,3478528.37443845,559657.76071215,110.11000000,6.00000000,-0.00100000,0.01100000,0.00500000,0.04000000,-0.00040000,-0.00560000,-0.01880000,-0.00360000,1.00240000
$GPFPD,2292,541462.700,110.109,-0.337,1.067,31.42736866,120.62747077,10.325,-0.001,0.013,0.005,0.803,16,14,04*77
$GTIMU,2292,541462.700,-0.0253,-0.0288,0.0105,-0.0203,-0.0059,0.9989,30.1*6E
14:24::04.713,1702679062682,120.62747077,31.42736866,3478528.36668228,559657.76170725,110.10900000,6.00000000,-0.00100000,0.01300000,0.00500000,-0.02530000,-0.02880000,0.01050000,-0.02030000,-0.00590000,0.99890000
$GPFPD,2292,541462.800,110.110,-0.340,1.069,31.42736861,120.62747077,10.325,-0.003,0.012,0.002,0.803,16,14,04*7D
$GTIMU,2292,541462.800,-0.0377,0.0258,-0.0088,-0.0170,-0.0070,0.9967,30.1*63
14:24::04.813,1702679062782,120.62747077,31.42736861,3478528.36113829,559657.76173891,110.11000000,6.00000000,-0.00300000,0.01200000,0.00200000,-0.03770000,0.02580000,-0.00880000,-0.01700000,-0.00700000,0.99670000
$GPFPD,2292,541462.900,110.109,-0.336,1.064,31.42736862,120.62747077,10.325,-0.004,0.014,0.004,0.804,16,14,04*7B
$GTIMU,2292,541462.900,0.0377,-0.0584,0.0110,-0.0200,-0.0062,1.0017,30.1*48
14:24::04.913,1702679062882,120.62747077,31.42736862,3478528.36224709,559657.76173258,110.10900000,6.00000000,-0.00400000,0.01400000,0.00400000,0.03770000,-0.05840000,0.01100000,-0.02000000,-0.00620000,1.00170000
$GPFPD,2292,541463.000,110.108,-0.341,1.066,31.42736863,120.62747076,10.325,-0.001,0.010,0.006,0.804,16,14,04*73
$GTIMU,2292,541463.000,-0.0501,0.0207,0.0117,-0.0161,-0.0020,1.0018,30.1*41
14:24::05.013,1702679062982,120.62747076,31.42736863,3478528.36335046,559657.76077546,110.10800000,6.00000000,-0.00100000,0.01000000,0.00600000,-0.05010000,0.02070000,0.01170000,-0.01610000,-0.00200000,1.00180000
$GPGGA,062405.00,3125.6418951,N,12037.6489108,E,1,14,1.9,3.362,M,7.80,M,,*61
$GPFPD,2292,541463.100,110.110,-0.342,1.071,31.42736864,120.62747076,10.326,-0.003,0.012,0.004,0.804,16,14,04*78
$GTIMU,2292,541463.100,-0.0184,0.0497,-0.0123,-0.0192,-0.0075,0.9973,30.1*6C
14:24::05.113,1702679063082,120.62747076,31.42736864,3478528.36445926,559657.76076913,110.11000000,6.00000000,-0.00300000,0.01200000,0.00400000,-0.01840000,0.04970000,-0.01230000,-0.01920000,-0.00750000,0.99730000
$GPFPD,2292,541463.200,110.108,-0.341,1.069,31.42736865,120.62747076,10.326,-0.002,0.013,0.003,0.803,16,14,04*79
$GTIMU,2292,541463.200,0.0145,-0.0220,0.0162,-0.0205,-0.0051,0.9987,30.1*40
14:24::05.213,1702679063182,120.62747076,31.42736865,3478528.36556805,559657.76076280,110.10800000,6.00000000,-0.00200000,0.01300000,0.00300000,0.01450000,-0.02200000,0.01620000,-0.02050000,-0.00510000,0.99870000
$GPFPD,2292,541463.300,110.110,-0.341,1.071,31.42736864,120.62747075,10.326,-0.003,0.007,0.005,0.805,16,13,04*79
$GTIMU,2292,541463.300,-0.0065,0.0218,-0.0043,-0.0178,-0.0037,1.0014,30.1*64
14:24::05.313,1702679063282,120.62747075,31.42736864,3478528.36445383,559657.75981835,110.11000000,6.00000000,-0.00300000,0.00700000,0.00500000,-0.00650000,0.02180000,-0.00430000,-0.01780000,-0.00370000,1.00140000
$GPFPD,2292,541463.400,110.110,-0.342,1.068,31.42736855,120.62747072,10.326,-0.005,0.008,0.006,0.805,16,13,04*7A
$GTIMU,2292,541463.400,-0.0157,-0.0385,0.0008,-0.0190,-0.0073,1.0006,30.1*6C
14:24::05.413,1702679063382,120.62747072,31.42736855,3478528.35445835,559657.75702299,110.11000000,6.00000000,-0.00500000,0.00800000,0.00600000,-0.01570000,-0.03850000,0.00080000,-0.01900000,-0.00730000,1.00060000
$GPFPD,2292,541463.500,110.109,-0.341,1.067,31.42736846,120.62747068,10.326,-0.006,0.007,0.003,0.804,16,13,04*7E
$GTIMU,2292,541463.500,0.0049,-0.0078,0.0116,-0.0179,-0.0061,0.9975,30.1*40
14:24::05.513,1702679063482,120.62747068,31.42736846,3478528.34445744,559657.75327684,110.10900000,6.00000000,-0.00600000,0.00700000,0.00300000,0.00490000,-0.00780000,0.01160000,-0.01790000,-0.00610000,0.99750000
$GPFPD,2292,541463.600,110.111,-0.341,1.071,31.42736837,120.62747065,10.326,-0.004,0.007,0.004,0.804,16,13,04*7D
$GTIMU,2292,541463.600,0.0009,0.0417,-0.0152,-0.0188,-0.0036,1.0005,30.1*40
14:24::05.613,1702679063582,120.62747065,31.42736837,3478528.33446196,559657.75048148,110.11100000,6.00000000,-0.00400000,0.00700000,0.00400000,0.00090000,0.04170000,-0.01520000,-0.01880000,-0.00360000,1.00050000
$GPFPD,2292,541463.700,110.109,-0.341,1.065,31.42736828,120.62747062,10.326,-0.004,0.008,0.004,0.808,16,13,04*7A
$GTIMU,2292,541463.700,-0.0043,-0.0612,0.0156,-0.0199,-0.0058,0.9995,30.1*61
14:24::05.713,1702679063682,120.62747062,31.42736828,3478528.32446648,559657.74768611,110.10900000,6.00000000,-0.00400000,0.00800000,0.00400000,-0.00430000,-0.06120000,0.01560000,-0.01990000,-0.00580000,0.99950000
$GPFPD,2292,541463.800,110.109,-0.341,1.067,31.42736821,120.62747059,10.327,-0.005,0.007,0.003,0.808,16,13,04*7E
$GTIMU,2292,541463.800,-0.0099,0.0138,0.0042,-0.0173,-0.0054,0.9985,30.1*46
14:24::05.813,1702679063782,120.62747059,31.42736821,3478528.31668860,559657.74487809,110.10900000,6.00000000,-0.00500000,0.00700000,0.00300000,-0.00990000,0.01380000,0.00420000,-0.01730000,-0.00540000,0.99850000
$GPFPD,2292,541463.900,110.110,-0.340,1.069,31.42736822,120.62747058,10.327,-0.005,0.006,0.004,0.805,16,13,04*71
$GTIMU,2292,541463.900,0.0151,0.0184,-0.0101,-0.0178,-0.0050,1.0009,30.1*49
14:24::05.913,1702679063882,120.62747058,31.42736822,3478528.31779197,559657.74392097,110.11000000,6.00000000,-0.00500000,0.00600000,0.00400000,0.01510000,0.01840000,-0.01010000,-0.01780000,-0.00500000,1.00090000
$GPFPD,2292,541464.000,110.109,-0.340,1.068,31.42736822,120.62747058,10.327,-0.005,0.008,0.006,0.805,16,13,04*7A
$GTIMU,2292,541464.000,-0.0105,-0.0078,0.0105,-0.0202,-0.0060,1.0008,30.1*61
14:24::06.013,1702679063982,120.62747058,31.42736822,3478528.31779197,559657.74392097,110.10900000,6.00000000,-0.00500000,0.00800000,0.00600000,-0.01050000,-0.00780000,0.01050000,-0.02020000,-0.00600000,1.00080000
$GPGGA,062406.00,3125.6420208,N,12037.6489568,E,1,13,2.4,3.359,M,7.80,M,,*6D
$GPFPD,2292,541464.100,110.110,-0.342,1.071,31.42736823,120.62747057,10.328,-0.006,0.008,0.004,0.805,16,13,04*79
$GTIMU,2292,541464.100,-0.0155,0.0292,-0.0037,-0.0180,-0.0058,0.9976,30.1*69
14:24::06.113,1702679064082,120.62747057,31.42736823,3478528.31889534,559657.74296386,110.11000000,6.00000000,-0.00600000,0.00800000,0.00400000,-0.01550000,0.02920000,-0.00370000,-0.01800000,-0.00580000,0.99760000
$GPFPD,2292,541464.200,110.109,-0.338,1.066,31.42736824,120.62747057,10.328,-0.005,0.009,0.004,0.814,16,13,04*7C
$GTIMU,2292,541464.200,0.0331,-0.0573,0.0081,-0.0202,-0.0048,0.9995,30.1*47
14:24::06.213,1702679064182,120.62747057,31.42736824,3478528.32000414,559657.74295753,110.10900000,6.00000000,-0.00500000,0.00900000,0.00400000,0.03310000,-0.05730000,0.00810000,-0.02020000,-0.00480000,0.99950000
$GPFPD,2292,541464.300,110.110,-0.339,1.066,31.42736823,120.62747056,10.328,-0.005,0.002,0.003,0.804,16,13,04*7F
$GTIMU,2292,541464.300,-0.0156,0.0047,-0.0060,-0.0163,-0.0036,1.0013,30.1*67
14:24::06.313,1702679064282,120.62747056,31.42736823,3478528.31888991,559657.74201308,110.11000000,6.00000000,-0.00500000,0.00200000,0.00300000,-0.01560000,0.00470000,-0.00600000,-0.01630000,-0.00360000,1.00130000
$GPFPD,2292,541464.400,110.110,-0.341,1.073,31.42736816,120.62747055,10.324,-0.006,0.001,0.003,0.804,16,13,04*7A
$GTIMU,2292,541464.400,-0.0245,0.0678,0.0071,-0.0179,-0.0064,0.9991,30.1*41
14:24::06.413,1702679064382,120.62747055,31.42736816,3478528.31112289,559657.74110661,110.11000000,6.00000000,-0.00600000,0.00100000,0.00300000,-0.02450000,0.06780000,0.00710000,-0.01790000,-0.00640000,0.99910000
$GPFPD,2292,541464.500,110.109,-0.338,1.068,31.42736809,120.62747054,10.321,-0.006,0.006,0.003,0.810,16,13,04*7F
$GTIMU,2292,541464.500,0.0326,-0.0539,0.0104,-0.0225,-0.0068,0.9994,30.1*42
14:24::06.513,1702679064482,120.62747054,31.42736809,3478528.30335586,559657.74020015,110.10900000,6.00000000,-0.00600000,0.00600000,0.00300000,0.03260000,-0.05390000,0.01040000,-0.02250000,-0.00680000,0.99940000
$GPFPD,2292,541464.600,110.110,-0.339,1.069,31.42736803,120.62747052,10.318,-0.006,0.003,0.002,0.810,16,13,04*76
$GTIMU,2292,541464.600,-0.0179,0.0047,-0.0134,-0.0162,-0.0038,0.9992,30.1*68
14:24::06.613,1702679064582,120.62747052,31.42736803,3478528.29669221,559657.73833658,110.11000000,6.00000000,-0.00600000,0.00300000,0.00200000,-0.01790000,0.00470000,-0.01340000,-0.01620000,-0.00380000,0.99920000
$GPFPD,2292,541464.700,110.109,-0.337,1.067,31.42736796,120.62747051,10.314,-0.007,0.004,0.003,0.804,16,13,04*71
$GTIMU,2292,541464.700,0.0151,-0.0209,0.0161,-0.0191,-0.0060,1.0005,30.1*48
14:24::06.713,1702679064682,120.62747051,31.42736796,3478528.28892519,559657.73743012,110.10900000,6.00000000,-0.00700000,0.00400000,0.00300000,0.01510000,-0.02090000,0.01610000,-0.01910000,-0.00600000,1.00050000
$GPFPD,2292,541464.800,110.109,-0.338,1.066,31.42736791,120.62747050,10.312,-0.006,0.003,0.002,0.804,16,13,04*77
$GTIMU,2292,541464.800,-0.0133,-0.0072,-0.0009,-0.0185,-0.0044,0.9987,30.1*4A
14:24::06.813,1702679064782,120.62747050,31.42736791,3478528.28337577,559657.73651099,110.10900000,6.00000000,-0.00600000,0.00300000,0.00200000,-0.01330000,-0.00720000,-0.00090000,-0.01850000,-0.00440000,0.99870000
$GPFPD,2292,541464.900,110.110,-0.338,1.072,31.42736792,120.62747049,10.312,-0.006,0.002,0.002,0.800,16,13,04*75
$GTIMU,2292,541464.900,-0.0047,0.0553,-0.0066,-0.0173,-0.0053,0.9997,30.1*65
14:24::06.913,1702679064882,120.62747049,31.42736792,3478528.28447913,559657.73555388,110.11000000,6.00000000,-0.00600000,0.00200000,0.00200000,-0.00470000,0.05530000,-0.00660000,-0.01730000,-0.00530000,0.99970000
$GPFPD,2292,541465.000,110.109,-0.338,1.066,31.42736792,120.62747049,10.313,-0.006,0.005,0.003,0.800,16,13,04*77
$GTIMU,2292,541465.000,0.0042,-0.0561,0.0133,-0.0217,-0.0057,1.0003,30.1*4C
14:24::07.013,1702679064982,120.62747049,31.42736792,3478528.28447913,559657.73555388,110.10900000,6.00000000,-0.00600000,0.00500000,0.00300000,0.00420000,-0.05610000,0.01330000,-0.02170000,-0.00570000,1.00030000
$GPFPD,2292,541465$GPGGA,06.100,110.2407.00,3110,-0.34125.642010,1.068,378,N,12031.42736797.64895312,120.627,E,1,13,247048,10..4,3.335,313,-0.00M,7.80,M,6,0.003,0,*6E
.002,0.800,16,13,04*79
$GTIMU,2292,541465.100,-0.0247,0.0173,-0.0094,-0.0162,-0.0050,0.9990,30.1*61
14:24::07.113,1702679065082,120.62747048,31.42736792,3478528.28447371,559657.73460310,110.11000000,6.00000000,-0.00600000,0.00300000,0.00200000,-0.02470000,0.01730000,-0.00940000,-0.01620000,-0.00500000,0.99900000
$GPFPD,2292,541465.200,110.109,-0.337,1.068,31.42736793,120.62747047,10.313,-0.007,0.004,0.002,0.798,16,13,04*74
$GTIMU,2292,541465.200,0.0225,-0.0055,0.0133,-0.0201,-0.0069,0.9991,30.1*4F
14:24::07.213,1702679065182,120.62747047,31.42736793,3478528.28557707,559657.73364598,110.10900000,6.00000000,-0.00700000,0.00400000,0.00200000,0.02250000,-0.00550000,0.01330000,-0.02010000,-0.00690000,0.99910000
$GPFPD,2292,541465.300,110.111,-0.338,1.063,31.42736792,120.62747048,10.315,-0.001,0.002,0.007,0.803,16,13,04*78
$GTIMU,2292,541465.300,-0.0140,-0.0504,-0.0117,-0.0192,-0.0021,1.0009,30.1*4C
14:24::07.313,1702679065282,120.62747048,31.42736792,3478528.28447371,559657.73460310,110.11100000,6.00000000,-0.00100000,0.00200000,0.00700000,-0.01400000,-0.05040000,-0.01170000,-0.01920000,-0.00210000,1.00090000
$GPFPD,2292,541465.400,110.111,-0.341,1.068,31.42736788,120.62747054,10.320,-0.004,-0.001,0.007,0.803,16,13,04*51
$GTIMU,2292,541465.400,-0.0251,0.0462,0.0048,-0.0149,-0.0079,0.9994,30.1*4C
14:24::07.413,1702679065382,120.62747054,31.42736788,3478528.28007109,559657.74033312,110.11100000,6.00000000,-0.00400000,-0.00100000,0.00700000,-0.02510000,0.04620000,0.00480000,-0.01490000,-0.00790000,0.99940000
$GPFPD,2292,541465.500,110.109,-0.336,1.065,31.42736784,120.62747059,10.326,-0.003,0.002,0.005,0.799,16,13,04*74
$GTIMU,2292,541465.500,0.0372,-0.0254,0.0144,-0.0223,-0.0051,0.9983,30.1*40
14:24::07.513,1702679065482,120.62747059,31.42736784,3478528.27566304,559657.74511236,110.10900000,6.00000000,-0.00300000,0.00200000,0.00500000,0.03720000,-0.02540000,0.01440000,-0.02230000,-0.00510000,0.99830000
$GPFPD,2292,541465.600,110.112,-0.338,1.069,31.42736780,120.62747065,10.331,-0.003,-0.000,0.007,0.799,16,13,04*5F
$GTIMU,2292,541465.600,-0.0235,0.0355,-0.0225,-0.0161,-0.0038,1.0012,30.1*6B
14:24::07.613,1702679065582,120.62747065,31.42736780,3478528.27126042,559657.75084239,110.11200000,6.00000000,-0.00300000,0.00000000,0.00700000,-0.02350000,0.03550000,-0.02250000,-0.01610000,-0.00380000,1.00120000
$GPFPD,2292,541465.700,110.109,-0.338,1.067,31.42736776,120.62747071,10.337,-0.003,0.002,0.007,0.798,16,13,04*7E
$GTIMU,2292,541465.700,-0.0019,-0.0243,0.0287,-0.0211,-0.0066,0.9997,30.1*6B
14:24::07.713,1702679065682,120.62747071,31.42736776,3478528.26685780,559657.75657242,110.10900000,6.00000000,-0.00300000,0.00200000,0.00700000,-0.00190000,-0.02430000,0.02870000,-0.02110000,-0.00660000,0.99970000
$GPFPD,2292,541465.800,110.111,-0.339,1.064,31.42736773,120.62747075,10.341,-0.002,0.001,0.005,0.798,16,13,04*7A
$GTIMU,2292,541465.800,-0.0083,-0.0265,-0.0146,-0.0175,-0.0043,0.9975,30.1*4A
14:24::07.813,1702679065782,120.62747075,31.42736773,3478528.26355312,559657.76039454,110.11100000,6.00000000,-0.00200000,0.00100000,0.00500000,-0.00830000,-0.02650000,-0.01460000,-0.01750000,-0.00430000,0.99750000
$GPFPD,2292,541465.900,110.111,-0.331,1.064,31.42736773,120.62747075,10.342,0.000,-0.001,0.004,0.807,16,13,04*7A
$GTIMU,2292,541465.900,0.0701,-0.0021,-0.0022,-0.0182,-0.0019,0.9990,30.1*66
14:24::07.913,1702679065882,120.62747075,31.42736773,3478528.26355312,559657.76039454,110.11100000,6.00000000,0.00000000,-0.00100000,0.00400000,0.07010000,-0.00210000,-0.00220000,-0.01820000,-0.00190000,0.99900000
$GPFPD,2292,541466.000,110.110,-0.331,1.063,31.42736773,120.62747075,10.342,-0.003,0.002,0.007,0.807,16,13,04*75
$GTIMU,2292,541466.000,0.0015,-0.0123,0.0145,-0.0194,-0.0091,1.0021,30.1*4C
14:24::08.013,1702679065982,120.62747075,31.42736773,3478528.26355312,559657.76039454,110.11000000,6.00000000,-0.00300000,0.00200000,0.00700000,0.00150000,-0.01230000,0.01450000,-0.01940000,-0.00910000,1.00210000
$GPGGA,062408.00,3125.6420515,N,12037.6489567,E,1,14,1.3,3.297,M,7.80,M,,*67
$GPFPD,2292,541466.100,110.112,-0.330,1.062,31.42736773,120.62747075,10.343,-0.004,0.002,0.004,0.807,16,13,04*73
$GTIMU,2292,541466.100,0.0037,-0.0100,-0.0140,-0.0183,-0.0064,0.9969,30.1*65
14:24::08.113,1702679066082,120.62747075,31.42736773,3478528.26355312,559657.76039454,110.11200000,6.00000000,-0.00400000,0.00200000,0.00400000,0.00370000,-0.01000000,-0.01400000,-0.01830000,-0.00640000,0.99690000
$GPFPD,2292,541466.200,110.111,-0.322,1.061,31.42736773,120.62747074,10.343,-0.005,0.001,0.006,0.801,16,14,04*73
$GTIMU,2292,541466.200,0.0775,-0.0095,0.0080,-0.0178,-0.0051,1.0014,30.1*43
14:24::08.213,1702679066182,120.62747074,31.42736773,3478528.26354769,559657.75944376,110.11100000,6.00000000,-0.00500000,0.00100000,0.00600000,0.07750000,-0.00950000,0.00800000,-0.01780000,-0.00510000,1.00140000
$GPFPD,2292,541466.300,110.112,-0.322,1.063,31.42736773,120.62747074,10.344,-0.002,-0.001,0.008,0.810,16,14,04*50
$GTIMU,2292,541466.300,-0.0042,0.0132,0.0059,-0.0186,-0.0010,0.9993,30.1*43
14:24::08.313,1702679066282,120.62747074,31.42736773,3478528.26354769,559657.75944376,110.11200000,6.00000000,-0.00200000,-0.00100000,0.00800000,-0.00420000,0.01320000,0.00590000,-0.01860000,-0.00100000,0.99930000
$GPFPD,2292,541466.400,110.112,-0.322,1.062,31.42736772,120.62747073,10.347,-0.005,0.001,0.009,0.810,16,14,04*78
$GTIMU,2292,541466.400,0.0009,-0.0055,-0.0021,-0.0189,-0.0084,1.0008,30.1*68
14:24::08.413,1702679066382,120.62747073,31.42736772,3478528.26243346,559657.75849931,110.11200000,6.00000000,-0.00500000,0.00100000,0.00900000,0.00090000,-0.00550000,-0.00210000,-0.01890000,-0.00840000,1.00080000
$GPFPD,2292,541466.500,110.113,-0.321,1.064,31.42736771,120.62747072,10.350,-0.004,-0.000,0.007,0.806,16,14,04*5D
$GTIMU,2292,541466.500,0.0015,0.0167,-0.0043,-0.0180,-0.0036,0.9981,30.1*4D
14:24::08.513,1702679066482,120.62747072,31.42736771,3478528.26131923,559657.75755486,110.11300000,6.00000000,-0.00400000,0.00000000,0.00700000,0.00150000,0.01670000,-0.00430000,-0.01800000,-0.00360000,0.99810000
$GPFPD,2292,541466.600,110.111,-0.316,1.064,31.42736770,120.62747070,10.353,-0.005,-0.001,0.007,0.806,16,14,04*58
$GTIMU,2292,541466.600,0.0480,-0.0044,0.0155,-0.0178,-0.0059,0.9994,30.1*4A
14:24::08.613,1702679066582,120.62747070,31.42736770,3478528.26019958,559657.75565962,110.11100000,6.00000000,-0.00500000,-0.00100000,0.00700000,0.04800000,-0.00440000,0.01550000,-0.01780000,-0.00590000,0.99940000
$GPFPD,2292,541466.700,110.111,-0.315,1.068,31.42736769,120.62747069,10.356,-0.004,0.000,0.008,0.806,16,13,04*76
$GTIMU,2292,541466.700,0.0038,0.0422,0.0025,-0.0197,-0.0045,1.0008,30.1*6B
14:24::08.712,1702679066682,120.62747069,31.42736769,3478528.25908535,559657.75471517,110.11100000,6.00000000,-0.00400000,0.00000000,0.00800000,0.00380000,0.04220000,0.00250000,-0.01970000,-0.00450000,1.00080000
$GPFPD,2292,541466.800,110.114,-0.315,1.067,31.42736768,120.62747068,10.358,-0.003,0.002,0.008,0.806,16,13,04*78
$GTIMU,2292,541466.800,0.0008,-0.0163,-0.0215,-0.0205,-0.0038,0.9995,30.1*61
14:24::08.813,1702679066782,120.62747068,31.42736768,3478528.25797112,559657.75377072,110.11400000,6.00000000,-0.00300000,0.00200000,0.00800000,0.00080000,-0.01630000,-0.02150000,-0.02050000,-0.00380000,0.99950000
$GPFPD,2292,541466.900,110.112,-0.312,1.062,31.42736768,120.62747068,10.359,-0.005,0.001,0.009,0.807,16,14,04*7E
$GTIMU,2292,541466.900,0.0218,-0.0527,0.0156,-0.0168,-0.0065,1.0008,30.1*4B
14:24::08.913,1702679066882,120.62747068,31.42736768,3478528.25797112,559657.75377072,110.11200000,6.00000000,-0.00500000,0.00100000,0.00900000,0.02180000,-0.05270000,0.01560000,-0.01680000,-0.00650000,1.00080000
$GPFPD,2292,541467.000,110.113,-0.314,1.064,31.42736768,120.62747068,10.360,-0.005,0.000,0.008,0.807,16,14,04*7D
$GTIMU,2292,541467.000,-0.0212,0.0207,-0.0037,-0.0177,-0.0053,0.9978,30.1*6A
14:24::09.013,1702679066982,120.62747068,31.42736768,3478528.25797112,559657.75377072,110.11300000,6.00000000,-0.00500000,0.00000000,0.00800000,-0.02120000,0.02070000,-0.00370000,-0.01770000,-0.00530000,0.99780000
$GPGGA,062409.00,3125.6420697,N,12037.6489572,E,1,14,1.3,3.241,M,7.80,M,,*60
$GPFPD,2292,541467.100,110.113,-0.311,1.066,31.42736768,120.62747067,10.361,-0.005,0.000,0.007,0.807,16,14,04*7A
$GTIMU,2292,541467.100,0.0310,0.0166,0.0030,-0.0189,-0.0040,0.9994,30.1*6A
14:24::09.113,1702679067082,120.62747067,31.42736768,3478528.25796569,559657.75281994,110.11300000,6.00000000,-0.00500000,0.00000000,0.00700000,0.03100000,0.01660000,0.00300000,-0.01890000,-0.00400000,0.99940000
$GPFPD,2292,541467.200,110.112,-0.310,1.064,31.42736768,120.62747066,10.361,-0.005,0.002,0.009,0.806,16,14,04*77
$GTIMU,2292,541467.200,0.0009,-0.0135,0.0111,-0.0201,-0.0055,1.0017,30.1*46
14:24::09.213,1702679067182,120.62747066,31.42736768,3478528.25796026,559657.75186915,110.11200000,6.00000000,-0.00500000,0.00200000,0.00900000,0.00090000,-0.01350000,0.01110000,-0.02010000,-0.00550000,1.00170000
$GPFPD,2292,541467.300,110.113,-0.312,1.063,31.42736770,120.62747066,10.361,-0.004,0.005,0.006,0.802,16,13,04*71
$GTIMU,2292,541467.300,-0.0162,-0.0146,-0.0077,-0.0175,-0.0041,0.9975,30.1*4E
14:24::09.313,1702679067282,120.62747066,31.42736770,3478528.26017786,559657.75185649,110.11300000,6.00000000,-0.00400000,0.00500000,0.00600000,-0.01620000,-0.01460000,-0.00770000,-0.01750000,-0.00410000,0.99750000
$GPFPD,2292,541467.400,110.113,-0.307,1.061,31.42736776,120.62747068,10.358,-0.005,0.005,0.007,0.802,16,13,04*72
$GTIMU,2292,541467.400,0.0383,-0.0220,0.0093,-0.0183,-0.0061,1.0008,30.1*4D
14:24::09.413,1702679067382,120.62747068,31.42736776,3478528.26684151,559657.75372007,110.11300000,6.00000000,-0.00500000,0.00500000,0.00700000,0.03830000,-0.02200000,0.00930000,-0.01830000,-0.00610000,1.00080000
$GPFPD,2292,541467.500,110.113,-0.309,1.066,31.42736782,120.62747069,10.356,-0.004,0.004,0.008,0.803,16,13,04*70
$GTIMU,2292,541467.500,-0.0234,0.0508,-0.0009,-0.0177,-0.0033,1.0004,30.1*62
14:24::09.513,1702679067482,120.62747069,31.42736782,3478528.27349973,559657.75463286,110.11300000,6.00000000,-0.00400000,0.00400000,0.00800000,-0.02340000,0.05080000,-0.00090000,-0.01770000,-0.00330000,1.00040000
$GPFPD,2292,541467.600,110.112,-0.308,1.064,31.42736788,120.62747070,10.353,-0.005,0.006,0.008,0.803,16,13,04*75
$GTIMU,2292,541467.600,0.0139,-0.0243,0.0116,-0.0202,-0.0060,0.9992,30.1*4C
14:24::09.613,1702679067582,120.62747070,31.42736788,3478528.28015796,559657.75554565,110.11200000,6.00000000,-0.00500000,0.00600000,0.00800000,0.01390000,-0.02430000,0.01160000,-0.02020000,-0.00600000,0.99920000
$GPFPD,2292,541467.700,110.113,-0.308,1.067,31.42736794,120.62747072,10.350,-0.005,0.004,0.007,0.809,16,13,04*7D
$GTIMU,2292,541467.700,-0.0115,0.0360,-0.0049,-0.0173,-0.0043,0.9990,30.1*63
14:24::09.713,1702679067682,120.62747072,31.42736794,3478528.28682161,559657.75740923,110.11300000,6.00000000,-0.00500000,0.00400000,0.00700000,-0.01150000,0.03600000,-0.00490000,-0.01730000,-0.00430000,0.99900000
$GPFPD,2292,541467.800,110.112,-0.304,1.063,31.42736799,120.62747073,10.348,-0.004,0.006,0.007,0.809,16,13,04*7D
$GTIMU,2292,541467.800,0.0400,-0.0493,0.0132,-0.0199,-0.0049,0.9997,30.1*4F
14:24::09.813,1702679067782,120.62747073,31.42736799,3478528.29237103,559657.75832835,110.11200000,6.00000000,-0.00400000,0.00600000,0.00700000,0.04000000,-0.04930000,0.01320000,-0.01990000,-0.00490000,0.99970000
$GPFPD,2292,541467.900,110.113,-0.306,1.067,31.42736799,120.62747072,10.349,-0.004,0.004,0.008,0.811,16,13,04*7F
$GTIMU,2292,541467.900,-0.0223,0.0417,-0.0117,-0.0176,-0.0037,1.0005,30.1*6D
14:24::09.913,1702679067882,120.62747072,31.42736799,3478528.29236561,559657.75737757,110.11300000,6.00000000,-0.00400000,0.00400000,0.00800000,-0.02230000,0.04170000,-0.01170000,-0.01760000,-0.00370000,1.00050000
$GPFPD,2292,541468.000,110.112,-0.305,1.063,31.42736800,120.62747072,10.349,-0.005,0.006,0.008,0.811,16,13,04*73
$GTIMU,2292,541468.000,0.0048,-0.0425,0.0082,-0.0197,-0.0059,0.9999,30.1*46
14:24::10.013,1702679067982,120.62747072,31.42736800,3478528.29347440,559657.75737124,110.11200000,6.00000000,-0.00500000,0.00600000,0.00800000,0.00480000,-0.04250000,0.00820000,-0.01970000,-0.00590000,0.99990000
$GPGGA,062410.00,3125.6420229,N,12037.6489434,E,1,13,2.4,3.197,M,7.80,M,,*61
$GPFPD,2292,541468.100,110.113,-0.306,1.066,31.42736800,120.62747071,10.350,-0.005,0.004,0.007,0.811,16,13,04*73
$GTIMU,2292,541468.100,-0.0144,0.0292,-0.0015,-0.0171,-0.0042,0.9979,30.1*6F
14:24::10.113,1702679068082,120.62747071,31.42736800,3478528.29346897,559657.75642045,110.11300000,6.00000000,-0.00500000,0.00400000,0.00700000,-0.01440000,0.02920000,-0.00150000,-0.01710000,-0.00420000,0.99790000
$GPFPD,2292,541468.200,110.113,-0.303,1.062,31.42736801,120.62747071,10.351,-0.004,0.006,0.008,0.805,16,13,04*78
$GTIMU,2292,541468.200,0.0246,-0.0425,0.0013,-0.0206,-0.0050,1.0009,30.1*4A
14:24::10.213,1702679068182,120.62747071,31.42736801,3478528.29457777,559657.75641412,110.11300000,6.00000000,-0.00400000,0.00600000,0.00800000,0.02460000,-0.04250000,0.00130000,-0.02060000,-0.00500000,1.00090000
$GPFPD,2292,541468.300,110.114,-0.307,1.064,31.42736801,120.62747071,10.351,-0.002,0.005,0.006,0.809,16,14,04*7C
$GTIMU,2292,541468.300,-0.0348,0.0195,-0.0025,-0.0162,-0.0041,1.0003,30.1*69
14:24::10.313,1702679068282,120.62747071,31.42736801,3478528.29457777,559657.75641412,110.11400000,6.00000000,-0.00200000,0.00500000,0.00600000,-0.03480000,0.01950000,-0.00250000,-0.01620000,-0.00410000,1.00030000
$GPFPD,2292,541468.400,110.112,-0.305,1.062,31.42736802,120.62747076,10.346,-0.002,0.006,0.005,0.809,16,14,04*7B
$GTIMU,2292,541468.400,0.0162,-0.0232,0.0144,-0.0198,-0.0058,0.9984,30.1*42
14:24::10.413,1702679068382,120.62747076,31.42736802,3478528.29571372,559657.76116170,110.11200000,6.00000000,-0.00200000,0.00600000,0.00500000,0.01620000,-0.02320000,0.01440000,-0.01980000,-0.00580000,0.99840000
$GPFPD,2292,541468.500,110.113,-0.306,1.066,31.42736802,120.62747080,10.342,-0.003,0.005,0.006,0.801,16,14,04*78
$GTIMU,2292,541468.500,-0.0138,0.0394,-0.0077,-0.0175,-0.0045,0.9999,30.1*6E
