$GPFPD,2292,466498.200,112.800,-0.245,0.955,31.42730521,120.62760229,16.589,-0.005,0.005,0.008,0.798,18,15,04*72
$GTIMU,2292,466498.200,-0.0048,-0.0214,0.0048,-0.0168,-0.0032,0.9989,39.7*63
17:34::40.181,1702604098182,120.62760229,31.42730521,3478521.40276836,559670.30658984,112.80000000,6.00000000,-0.00500000,0.00500000,0.00800000,-0.00480000,-0.02140000,0.00480000,-0.01680000,-0.00320000,0.99890000
$GPFPD,2292,466498.300,112.800,-0.246,0.959,31.42730522,120.62760228,16.591,-0.007,0.004,0.012,0.800,18,15,04*71
$GTIMU,2292,466498.300,-0.0161,0.0349,-0.0026,-0.0159,-0.0033,0.9999,39.7*6B
17:34::40.281,1702604098282,120.62760228,31.42730522,3478521.40387173,559670.30563272,112.80000000,6.00000000,-0.00700000,0.00400000,0.01200000,-0.01610000,0.03490000,-0.00260000,-0.01590000,-0.00330000,0.99990000
$GPFPD,2292,466498.400,112.800,-0.244,0.954,31.42730524,120.62760224,16.596,-0.008,0.006,0.013,0.800,18,15,04*78
$GTIMU,2292,466498.400,0.0184,-0.0516,0.0059,-0.0184,-0.0051,1.0010,39.7*4A
17:34::40.380,1702604098382,120.62760224,31.42730524,3478521.40606760,559670.30181692,112.80000000,6.00000000,-0.00800000,0.00600000,0.01300000,0.01840000,-0.05160000,0.00590000,-0.01840000,-0.00510000,1.00100000
$GPFPD,2292,466498.500,112.800,-0.246,0.953,31.42730526,120.62760219,16.601,-0.007,0.004,0.011,0.800,18,15,04*72
$GTIMU,2292,466498.500,-0.0207,-0.0066,0.0020,-0.0155,-0.0023,0.9976,39.7*6A
17:34::40.481,1702604098482,120.62760219,31.42730526,3478521.40825805,559670.29705033,112.80000000,6.00000000,-0.00700000,0.00400000,0.01100000,-0.02070000,-0.00660000,0.00200000,-0.01550000,-0.00230000,0.99760000
$GPFPD,2292,466498.600,112.800,-0.247,0.960,31.42730529,120.62760215,16.605,-0.008,0.003,0.012,0.800,18,15,04*7C
$GTIMU,2292,466498.600,-0.0104,0.0610,-0.0032,-0.0154,-0.0037,1.0003,39.7*6A
17:34::40.581,1702604098582,120.62760215,31.42730529,3478521.41156272,559670.29322820,112.80000000,6.00000000,-0.00800000,0.00300000,0.01200000,-0.01040000,0.06100000,-0.00320000,-0.01540000,-0.00370000,1.00030000
$GPFPD,2292,466498.700,112.799,-0.245,0.956,31.42730531,120.62760211,16.610,-0.007,0.006,0.013,0.803,18,15,04*74
$GTIMU,2292,466498.700,0.0167,-0.0357,0.0121,-0.0196,-0.0041,1.0006,39.7*4C
17:34::40.681,1702604098682,120.62760211,31.42730531,3478521.41375860,559670.28941240,112.79900000,6.00000000,-0.00700000,0.00600000,0.01300000,0.01670000,-0.03570000,0.01210000,-0.01960000,-0.00410000,1.00060000
$GPFPD,2292,466498.800,112.800,-0.248,0.956,31.42730533,120.62760207,16.614,-0.007,0.005,0.011,0.803,18,15,04*79
$GTIMU,2292,466498.800,-0.0321,-0.0044,-0.0083,-0.0161,-0.0027,0.9984,39.7*48
17:34::40.781,1702604098782,120.62760207,31.42730533,3478521.41595447,559670.28559660,112.80000000,6.00000000,-0.00700000,0.00500000,0.01100000,-0.03210000,-0.00440000,-0.00830000,-0.01610000,-0.00270000,0.99840000
$GPFPD,2292,466498.900,112.800,-0.246,0.956,31.42730533,120.62760206,16.615,-0.009,0.005,0.012,0.798,18,15,04*76
$GTIMU,2292,466498.900,0.0145,-0.0044,0.0008,-0.0161,-0.0052,1.0002,39.7*47
17:34::40.881,1702604098882,120.62760206,31.42730533,3478521.41594904,559670.28464581,112.80000000,6.00000000,-0.00900000,0.00500000,0.01200000,0.01450000,-0.00440000,0.00080000,-0.01610000,-0.00520000,1.00020000
$GPFPD,2292,466499.000,112.799,-0.246,0.953,31.42730534,120.62760206,16.616,-0.008,0.005,0.012,0.798,18,15,04*71
$GTIMU,2292,466499.000,-0.0026,-0.0266,0.0116,-0.0170,-0.0030,0.9996,39.7*62
17:34::40.981,1702604098982,120.62760206,31.42730534,3478521.41705784,559670.28463948,112.79900000,6.00000000,-0.00800000,0.00500000,0.01200000,-0.00260000,-0.02660000,0.01160000,-0.01700000,-0.00300000,0.99960000
$GPGGA,093441.00,3125.6383431,N,12037.6568674,E,1,15,1.0,9.769,M,7.80,M,,*6E
$GPFPD,2292,466499.100,112.800,-0.248,0.960,31.42730534,120.62760205,16.617,-0.008,0.003,0.011,0.798,18,15,04*76
$GTIMU,2292,466499.100,-0.0234,0.0644,-0.0043,-0.0158,-0.0029,0.9983,39.7*61
17:34::41.081,1702604099082,120.62760205,31.42730534,3478521.41705241,559670.28368870,112.80000000,6.00000000,-0.00800000,0.00300000,0.01100000,-0.02340000,0.06440000,-0.00430000,-0.01580000,-0.00290000,0.99830000
$GPFPD,2292,466499.200,112.800,-0.245,0.957,31.42730535,120.62760204,16.618,-0.008,0.006,0.013,0.799,18,15,04*75
$GTIMU,2292,466499.200,0.0247,-0.0288,0.0030,-0.0189,-0.0047,1.0021,39.7*46
17:34::41.181,1702604099182,120.62760204,31.42730535,3478521.41815578,559670.28273158,112.80000000,6.00000000,-0.00800000,0.00600000,0.01300000,0.02470000,-0.02880000,0.00300000,-0.01890000,-0.00470000,1.00210000
$GPFPD,2292,466499.300,112.799,-0.247,0.953,31.42730534,120.62760204,16.621,-0.007,0.000,0.014,0.797,19,15,04*77
$GTIMU,2292,466499.300,-0.0202,-0.0368,0.0071,-0.0159,-0.0021,0.9977,39.7*6E
17:34::41.281,1702604099282,120.62760204,31.42730534,3478521.41704698,559670.28273791,112.79900000,6.00000000,-0.00700000,0.00000000,0.01400000,-0.02020000,-0.03680000,0.00710000,-0.01590000,-0.00210000,0.99770000
$GPFPD,2292,466499.400,112.800,-0.247,0.959,31.42730529,120.62760204,16.626,-0.008,-0.001,0.015,0.797,19,15,04*5C
$GTIMU,2292,466499.400,-0.0019,0.0508,-0.0066,-0.0153,-0.0048,1.0008,39.7*6B
17:34::41.381,1702604099382,120.62760204,31.42730529,3478521.41150299,559670.28276958,112.80000000,6.00000000,-0.00800000,-0.00100000,0.01500000,-0.00190000,0.05080000,-0.00660000,-0.01530000,-0.00480000,1.00080000
$GPFPD,2292,466499.500,112.799,-0.246,0.956,31.42730524,120.62760205,16.631,-0.008,0.001,0.015,0.796,19,15,04*7A
$GTIMU,2292,466499.500,0.0059,-0.0322,0.0082,-0.0188,-0.0040,0.9999,39.7*40
17:34::41.481,1702604099482,120.62760205,31.42730524,3478521.40596442,559670.28375203,112.79900000,6.00000000,-0.00800000,0.00100000,0.01500000,0.00590000,-0.03220000,0.00820000,-0.01880000,-0.00400000,0.99990000
$GPFPD,2292,466499.600,112.799,-0.247,0.957,31.42730519,120.62760206,16.637,-0.008,0.000,0.013,0.796,19,15,04*75
$GTIMU,2292,466499.600,-0.0178,0.0132,0.0071,-0.0161,-0.0034,0.9977,39.7*4A
17:34::41.581,1702604099582,120.62760206,31.42730519,3478521.40042586,559670.28473448,112.79900000,6.00000000,-0.00800000,0.00000000,0.01300000,-0.01780000,0.01320000,0.00710000,-0.01610000,-0.00340000,0.99770000
$GPFPD,2292,466499.700,112.800,-0.246,0.959,31.42730514,120.62760206,16.642,-0.008,0.000,0.015,0.798,19,15,04*73
$GTIMU,2292,466499.700,0.0071,0.0132,-0.0066,-0.0168,-0.0042,1.0013,39.7*4E
17:34::41.681,1702604099682,120.62760206,31.42730514,3478521.39488186,559670.28476614,112.80000000,6.00000000,-0.00800000,0.00000000,0.01500000,0.00710000,0.01320000,-0.00660000,-0.01680000,-0.00420000,1.00130000
$GPFPD,2292,466499.800,112.799,-0.246,0.954,31.42730510,120.62760206,16.646,-0.007,0.000,0.015,0.798,19,15,04*71
$GTIMU,2292,466499.800,0.0008,-0.0442,0.0099,-0.0172,-0.0023,1.0003,39.7*40
17:34::41.781,1702604099782,120.62760206,31.42730510,3478521.39044667,559670.28479147,112.79900000,6.00000000,-0.00700000,0.00000000,0.01500000,0.00080000,-0.04420000,0.00990000,-0.01720000,-0.00230000,1.00030000
$GPFPD,2292,466499.900,112.799,-0.248,0.959,31.42730510,120.62760206,16.648,-0.007,-0.002,0.014,0.797,19,15,04*5C
$GTIMU,2292,466499.900,-0.0302,0.0496,0.0009,-0.0148,-0.0029,0.9984,39.7*45
17:34::41.881,1702604099882,120.62760206,31.42730510,3478521.39044667,559670.28479147,112.79900000,6.00000000,-0.00700000,-0.00200000,0.01400000,-0.03020000,0.04960000,0.00090000,-0.01480000,-0.00290000,0.99840000
$GPFPD,2292,466500.000,112.799,-0.245,0.958,31.42730510,120.62760205,16.649,-0.009,0.002,0.015,0.797,19,15,04*78
$GTIMU,2292,466500.000,0.0281,-0.0163,-0.0021,-0.0196,-0.0063,1.0002,39.7*6D
17:34::41.981,1702604099982,120.62760205,31.42730510,3478521.39044124,559670.28384069,112.79900000,6.00000000,-0.00900000,0.00200000,0.01500000,0.02810000,-0.01630000,-0.00210000,-0.01960000,-0.00630000,1.00020000
$GPFPD,2292,466500.100,112.799,-0.245,0.955,31.4273051$GPGGA,091,120.6273442.00,360204,16.125.63838650,-0.016,N,120308,0.001,7.65685510.014,0.7,E,1,15,197,19,15.0,9.809,,04*7F
M,7.80,M,$GTIMU,2292,4665,*69
00.100,-0.0043,-0.0294,0.0048,-0.0166,-0.0029,0.9989,39.7*67
17:34::42.081,1702604100082,120.62760204,31.42730511,3478521.39154460,559670.28288357,112.79900000,6.00000000,-0.00800000,0.00100000,0.01400000,-0.00430000,-0.02940000,0.00480000,-0.01660000,-0.00290000,0.99890000
$GPFPD,2292,466500.200,112.800,-0.247,0.958,31.42730511,120.62760203,16.652,-0.009,0.000,0.015,0.794,19,15,04*7B
$GTIMU,2292,466500.200,-0.0224,0.0258,-0.0020,-0.0155,-0.0038,1.0003,39.7*6A
17:34::42.181,1702604100182,120.62760203,31.42730511,3478521.39153917,559670.28193279,112.80000000,6.00000000,-0.00900000,0.00000000,0.01500000,-0.02240000,0.02580000,-0.00200000,-0.01550000,-0.00380000,1.00030000
$GPFPD,2292,466500.300,112.799,-0.245,0.953,31.42730510,120.62760203,16.654,-0.007,-0.001,0.017,0.797,19,15,04*58
$GTIMU,2292,466500.300,0.0201,-0.0510,0.0047,-0.0180,-0.0035,1.0000,39.7*4D
17:34::42.281,1702604100282,120.62760203,31.42730510,3478521.39043037,559670.28193912,112.79900000,6.00000000,-0.00700000,-0.00100000,0.01700000,0.02010000,-0.05100000,0.00470000,-0.01800000,-0.00350000,1.00000000
$GPFPD,2292,466500.400,112.799,-0.247,0.955,31.42730508,120.62760205,16.660,-0.006,-0.003,0.016,0.797,19,15,04*51
$GTIMU,2292,466500.400,-0.0286,0.0172,0.0020,-0.0151,-0.0020,0.9984,39.7*41
17:34::42.381,1702604100382,120.62760205,31.42730508,3478521.38822364,559670.28385336,112.79900000,6.00000000,-0.00600000,-0.00300000,0.01600000,-0.02860000,0.01720000,0.00200000,-0.01510000,-0.00200000,0.99840000
$GPFPD,2292,466500.500,112.799,-0.247,0.959,31.42730506,120.62760208,16.666,-0.006,-0.003,0.017,0.794,19,15,04*5B
$GTIMU,2292,466500.500,-0.0030,0.0371,-0.0009,-0.0168,-0.0044,1.0006,39.7*6B
17:34::42.481,1702604100482,120.62760208,31.42730506,3478521.38602233,559670.28671837,112.79900000,6.00000000,-0.00600000,-0.00300000,0.01700000,-0.00300000,0.03710000,-0.00090000,-0.01680000,-0.00440000,1.00060000
$GPFPD,2292,466500.600,112.799,-0.246,0.955,31.42730505,120.62760210,16.671,-0.007,-0.001,0.017,0.794,19,15,04*5A
$GTIMU,2292,466500.600,0.0150,-0.0334,0.0053,-0.0186,-0.0053,0.9993,39.7*47
17:34::42.581,1702604100582,120.62760210,31.42730505,3478521.38492439,559670.28862627,112.79900000,6.00000000,-0.00700000,-0.00100000,0.01700000,0.01500000,-0.03340000,0.00530000,-0.01860000,-0.00530000,0.99930000
$GPFPD,2292,466500.700,112.799,-0.247,0.959,31.42730503,120.62760213,16.677,-0.007,-0.002,0.016,0.796,19,15,04*55
$GTIMU,2292,466500.700,-0.0184,0.0309,-0.0009,-0.0154,-0.0028,0.9991,39.7*62
17:34::42.681,1702604100682,120.62760213,31.42730503,3478521.38272309,559670.29149129,112.79900000,6.00000000,-0.00700000,-0.00200000,0.01600000,-0.01840000,0.03090000,-0.00090000,-0.01540000,-0.00280000,0.99910000
$GPFPD,2292,466500.800,112.799,-0.246,0.957,31.42730501,120.62760215,16.682,-0.007,-0.002,0.018,0.796,19,15,04*55
$GTIMU,2292,466500.800,0.0099,-0.0140,0.0008,-0.0175,-0.0039,1.0010,39.7*48
17:34::42.781,1702604100782,120.62760215,31.42730501,3478521.38051635,559670.29340553,112.79900000,6.00000000,-0.00700000,-0.00200000,0.01800000,0.00990000,-0.01400000,0.00080000,-0.01750000,-0.00390000,1.00100000
$GPFPD,2292,466500.900,112.799,-0.246,0.954,31.42730501,120.62760214,16.684,-0.006,-0.002,0.016,0.796,19,15,04*5F
$GTIMU,2292,466500.900,-0.0037,-0.0317,0.0065,-0.0169,-0.0028,0.9983,39.7*6D
17:34::42.881,1702604100882,120.62760214,31.42730501,3478521.38051092,559670.29245474,112.79900000,6.00000000,-0.00600000,-0.00200000,0.01600000,-0.00370000,-0.03170000,0.00650000,-0.01690000,-0.00280000,0.99830000
$GPFPD,2292,466501.000,112.799,-0.248,0.959,31.42730501,120.62760213,16.685,-0.006,-0.004,0.016,0.796,19,15,04*54
$GTIMU,2292,466501.000,-0.0200,0.0474,-0.0037,-0.0152,-0.0032,0.9996,39.7*61
17:34::42.981,1702604100982,120.62760213,31.42730501,3478521.38050549,559670.29150396,112.79900000,6.00000000,-0.00600000,-0.00400000,0.01600000,-0.02000000,0.04740000,-0.00370000,-0.01520000,-0.00320000,0.99960000
$GPGGA,093443.00,3125.6383884,N,12037.6568570,E,1,15,1.0,9.846,M,7.80,M,,*6B
$GPFPD,2292,466501.100,112.799,-0.245,0.957,31.42730501,120.62760212,16.687,-0.006,-0.001,0.017,0.796,19,15,04*51
$GTIMU,2292,466501.100,0.0201,-0.0266,0.0099,-0.0191,-0.0044,1.0006,39.7*4B
17:34::43.081,1702604101082,120.62760212,31.42730501,3478521.38050006,559670.29055317,112.79900000,6.00000000,-0.00600000,-0.00100000,0.01700000,0.02010000,-0.02660000,0.00990000,-0.01910000,-0.00440000,1.00060000
$GPFPD,2292,466501.200,112.799,-0.247,0.956,31.42730500,120.62760212,16.689,-0.006,-0.002,0.017,0.794,19,15,04*5F
$GTIMU,2292,466501.200,-0.0258,-0.0123,-0.0003,-0.0164,-0.0036,0.9990,39.7*44
17:34::43.181,1702604101182,120.62760212,31.42730500,3478521.37939126,559670.29055951,112.79900000,6.00000000,-0.00600000,-0.00200000,0.01700000,-0.02580000,-0.01230000,-0.00030000,-0.01640000,-0.00360000,0.99900000
$GPFPD,2292,466501.300,112.799,-0.247,0.958,31.42730500,120.62760211,16.691,-0.008,-0.003,0.019,0.796,19,15,04*59
$GTIMU,2292,466501.300,0.0015,0.0201,-0.0032,-0.0154,-0.0047,0.9997,39.7*4D
17:34::43.281,1702604101282,120.62760211,31.42730500,3478521.37938583,559670.28960872,112.79900000,6.00000000,-0.00800000,-0.00300000,0.01900000,0.00150000,0.02010000,-0.00320000,-0.01540000,-0.00470000,0.99970000
$GPFPD,2292,466501.400,112.798,-0.245,0.955,31.42730500,120.62760211,16.697,-0.007,-0.002,0.019,0.796,19,15,04*58
$GTIMU,2292,466501.400,0.0201,-0.0328,0.0087,-0.0179,-0.0028,0.9998,39.7*40
17:34::43.381,1702604101382,120.62760211,31.42730500,3478521.37938583,559670.28960872,112.79800000,6.00000000,-0.00700000,-0.00200000,0.01900000,0.02010000,-0.03280000,0.00870000,-0.01790000,-0.00280000,0.99980000
$GPFPD,2292,466501.500,112.799,-0.248,0.959,31.42730500,120.62760210,16.703,-0.006,-0.004,0.019,0.797,19,15,04*52
$GTIMU,2292,466501.500,-0.0326,0.0383,-0.0054,-0.0155,-0.0022,0.9996,39.7*6D
17:34::43.481,1702604101482,120.62760210,31.42730500,3478521.37938040,559670.28865794,112.79900000,6.00000000,-0.00600000,-0.00400000,0.01900000,-0.03260000,0.03830000,-0.00540000,-0.01550000,-0.00220000,0.99960000
$GPFPD,2292,466501.600,112.798,-0.247,0.958,31.42730500,120.62760210,16.709,-0.008,-0.002,0.020,0.797,19,15,04*56
$GTIMU,2292,466501.600,0.0043,-0.0038,0.0065,-0.0182,-0.0056,1.0000,39.7*45
17:34::43.581,1702604101582,120.62760210,31.42730500,3478521.37938040,559670.28865794,112.79800000,6.00000000,-0.00800000,-0.00200000,0.02000000,0.00430000,-0.00380000,0.00650000,-0.01820000,-0.00560000,1.00000000
$GPFPD,2292,466501.700,112.798,-0.246,0.954,31.42730501,120.62760210,16.714,-0.007,-0.002,0.018,0.797,19,15,04*53
$GTIMU,2292,466501.700,0.0065,-0.0459,0.0059,-0.0174,-0.0028,0.9982,39.7*47
17:34::43.681,1702604101682,120.62760210,31.42730501,3478521.38048920,559670.28865161,112.79800000,6.00000000,-0.00700000,-0.00200000,0.01800000,0.00650000,-0.04590000,0.00590000,-0.01740000,-0.00280000,0.99820000
$GPFPD,2292,466501.800,112.799,-0.247,0.959,31.42730500,120.62760209,16.719,-0.007,-0.005,0.019,0.797,19,15,04*53
$GTIMU,2292,466501.800,-0.0184,0.0451,-0.0089,-0.0141,-0.0030,1.0008,39.7*62
17:34::43.781,1702604101782,120.62760209,31.42730500,3478521.37937497,559670.28770716,112.79900000,6.00000000,-0.00700000,-0.00500000,0.01900000,-0.01840000,0.04510000,-0.00890000,-0.01410000,-0.00300000,1.00080000
$GPFPD,2292,466501.900,112.798,-0.245,0.958,31.42730500,120.62760208,16.721,-0.008,-0.003,0.020,0.798,19,15,04*56
$GTIMU,2292,466501.900,0.0185,-0.0038,0.0116,-0.0182,-0.0053,1.0005,39.7*44
17:34::43.881,1702604101882,120.62760208,31.42730500,3478521.37936954,559670.28675637,112.79800000,6.00000000,-0.00800000,-0.00300000,0.02000000,0.01850000,-0.00380000,0.01160000,-0.01820000,-0.00530000,1.00050000
$GPFPD,2292,466502.000,112.798,-0.246,0.958,31.42730500,120.62760208,16.723,-0.007,-0.003,0.019,0.798,19,15,04*58
$GTIMU,2292,466502.000,-0.0128,-0.0066,0.0014,-0.0176,-0.0028,0.9982,39.7*65
17:34::43.981,1702604101982,120.62760208,31.42730500,3478521.37936954,559670.28675637,112.79800000,6.00000000,-0.00700000,-0.00300000,0.01900000,-0.01280000,-0.00660000,0.00140000,-0.01760000,-0.00280000,0.99820000
$GPGGA,093444.00,3125.6383655,N,12037.6568814,E,1,14,1.0,9.812,M,7.80,M,,*61
$GPFPD,2292,466502.100,112.799,-0.246,0.960,31.42730500,120.62760207,16.725,-0.008,-0.004,0.019,0.798,19,15,04*52
$GTIMU,2292,466502.100,-0.0053,0.0235,-0.0049,-0.0158,-0.0037,1.0002,39.7*6E
17:34::44.081,1702604102082,120.62760207,31.42730500,3478521.37936411,559670.28580559,112.79900000,6.00000000,-0.00800000,-0.00400000,0.01900000,-0.00530000,0.02350000,-0.00490000,-0.01580000,-0.00370000,1.00020000
$GPFPD,2292,466502.200,112.798,-0.245,0.956,31.42730499,120.62760206,16.727,-0.007,-0.002,0.020,0.797,19,14,04*59
$GTIMU,2292,466502.200,0.0082,-0.0476,0.0099,-0.0185,-0.0034,0.9998,39.7*41
17:34::44.181,1702604102182,120.62760206,31.42730499,3478521.37824988,559670.28486114,112.79800000,6.00000000,-0.00700000,-0.00200000,0.02000000,0.00820000,-0.04760000,0.00990000,-0.01850000,-0.00340000,0.99980000
$GPFPD,2292,466502.300,112.798,-0.247,0.957,31.42730501,120.62760206,16.727,-0.007,0.001,0.014,0.801,19,15,04*73
$GTIMU,2292,466502.300,-0.0212,0.0178,-0.0020,-0.0153,-0.0032,0.9979,39.7*6D
17:34::44.281,1702604102282,120.62760206,31.42730501,3478521.38046748,559670.28484847,112.79800000,6.00000000,-0.00700000,0.00100000,0.01400000,-0.02120000,0.01780000,-0.00200000,-0.01530000,-0.00320000,0.99790000
$GPFPD,2292,466502.400,112.799,-0.244,0.958,31.42730507,120.62760206,16.722,-0.008,0.001,0.016,0.801,19,15,04*77
$GTIMU,2292,466502.400,0.0202,0.0053,-0.0033,-0.0165,-0.0046,1.0018,39.7*4C
17:34::44.381,1702604102382,120.62760206,31.42730507,3478521.38712027,559670.28481047,112.79900000,6.00000000,-0.00800000,0.00100000,0.01600000,0.02020000,0.00530000,-0.00330000,-0.01650000,-0.00460000,1.00180000
$GPFPD,2292,466502.500,112.798,-0.245,0.956,31.42730514,120.62760207,16.717,-0.006,0.001,0.016,0.798,19,15,04*7C
$GTIMU,2292,466502.500,-0.0071,-0.0237,0.0116,-0.0178,-0.0024,0.9996,39.7*6F
17:34::44.481,1702604102482,120.62760207,31.42730514,3478521.39488729,559670.28571692,112.79800000,6.00000000,-0.00600000,0.00100000,0.01600000,-0.00710000,-0.02370000,0.01160000,-0.01780000,-0.00240000,0.99960000
$GPFPD,2292,466502.600,112.798,-0.248,0.960,31.42730521,120.62760208,16.712,-0.007,-0.000,0.015,0.798,19,15,04*55
$GTIMU,2292,466502.600,-0.0325,0.0440,-0.0014,-0.0154,-0.0039,0.9984,39.7*6A
17:34::44.581,1702604102582,120.62760208,31.42730521,3478521.40265432,559670.28662338,112.79800000,6.00000000,-0.00700000,0.00000000,0.01500000,-0.03250000,0.04400000,-0.00140000,-0.01540000,-0.00390000,0.99840000
$GPFPD,2292,466502.700,112.798,-0.245,0.957,31.42730527,120.62760208,16.707,-0.007,0.003,0.015,0.796,19,15,04*7F
$GTIMU,2292,466502.700,0.0275,-0.0396,0.0041,-0.0194,-0.0049,1.0001,39.7*49
17:34::44.681,1702604102682,120.62760208,31.42730527,3478521.40930711,559670.28658538,112.79800000,6.00000000,-0.00700000,0.00300000,0.01500000,0.02750000,-0.03960000,0.00410000,-0.01940000,-0.00490000,1.00010000
$GPFPD,2292,466502.800,112.798,-0.246,0.956,31.42730532,120.62760209,16.704,-0.007,0.000,0.014,0.796,19,15,04*76
$GTIMU,2292,466502.800,-0.0162,-0.0095,0.0008,-0.0150,-0.0020,0.9987,39.7*6B
17:34::44.781,1702604102782,120.62760209,31.42730532,3478521.41485653,559670.28750450,112.79800000,6.00000000,-0.00700000,0.00000000,0.01400000,-0.01620000,-0.00950000,0.00080000,-0.01500000,-0.00200000,0.99870000
$GPFPD,2292,466502.900,112.798,-0.246,0.959,31.42730532,120.62760208,16.705,-0.007,-0.000,0.016,0.799,19,14,04*59
$GTIMU,2292,466502.900,-0.0013,0.0286,-0.0009,-0.0161,-0.0041,1.0009,39.7*6E
17:34::44.881,1702604102882,120.62760208,31.42730532,3478521.41485110,559670.28655371,112.79800000,6.00000000,-0.00700000,0.00000000,0.01600000,-0.00130000,0.02860000,-0.00090000,-0.01610000,-0.00410000,1.00090000
$GPFPD,2292,466503.000,112.798,-0.245,0.955,31.42730533,120.62760207,16.707,-0.007,0.001,0.015,0.799,19,14,04*7D
$GTIMU,2292,466503.000,0.0059,-0.0351,0.0070,-0.0186,-0.0037,0.9994,39.7*4D
17:34::44.981,1702604102982,120.62760207,31.42730533,3478521.41595447,559670.28559660,112.79800000,6.00000000,-0.00700000,0.00100000,0.01500000,0.00590000,-0.03510000,0.00700000,-0.01860000,-0.00370000,0.99940000
$GPGGA,093445.00,3125.6383413,N,12037.6568850,E,1,14,1.0,9.863,M,7.80,M,,*66
$GPFPD,2292,466503.100,112.798,-0.247,0.960,31.42730533,120.62760207,16.708,-0.007,-0.000,0.014,0.799,19,14,04*5A
$GTIMU,2292,466503.100,-0.0201,0.0400,-0.0026,-0.0153,-0.0029,0.9985,39.7*69
17:34::45.081,1702604103082,120.62760207,31.42730533,3478521.41595447,559670.28559660,112.79800000,6.00000000,-0.00700000,0.00000000,0.01400000,-0.02010000,0.04000000,-0.00260000,-0.01530000,-0.00290000,0.99850000
$GPFPD,2292,466503.200,112.798,-0.244,0.958,31.42730533,120.62760206,16.710,-0.008,0.002,0.016,0.799,19,14,04*7B
$GTIMU,2292,466503.200,0.0184,-0.0158,0.0030,-0.0183,-0.0055,1.0014,39.7*49
17:34::45.180,1702604103182,120.62760206,31.42730533,3478521.41594904,559670.28464581,112.79800000,6.00000000,-0.00800000,0.00200000,0.01600000,0.01840000,-0.01580000,0.00300000,-0.01830000,-0.00550000,1.00140000
$GPFPD,2292,466503.300,112.797,-0.245,0.955,31.42730533,120.62760206,16.711,-0.006,0.002,0.014,0.797,20,14,04*70
$GTIMU,2292,466503.300,-0.0117,-0.0311,0.0054,-0.0167,-0.0029,0.9982,39.7*6D
17:34::45.281,1702604103282,120.62760206,31.42730533,3478521.41594904,559670.28464581,112.79700000,6.00000000,-0.00600000,0.00200000,0.01400000,-0.01170000,-0.03110000,0.00540000,-0.01670000,-0.00290000,0.99820000
$GPFPD,2292,466503.400,112.798,-0.246,0.960,31.42730535,120.62760208,16.713,-0.007,0.000,0.015,0.797,20,14,04*75
$GTIMU,2292,466503.400,-0.0104,0.0491,-0.0043,-0.0148,-0.0034,0.9998,39.7*6B
17:34::45.381,1702604103382,120.62760208,31.42730535,3478521.41817750,559670.28653471,112.79800000,6.00000000,-0.00700000,0.00000000,0.01500000,-0.01040000,0.04910000,-0.00430000,-0.01480000,-0.00340000,0.99980000
$GPFPD,2292,466503.500,112.797,-0.244,0.957,31.42730537,120.62760210,16.715,-0.006,0.002,0.016,0.800,20,14,04*71
$GTIMU,2292,466503.500,0.0156,-0.0328,0.0076,-0.0190,-0.0031,1.0009,39.7*4A
17:34::45.481,1702604103482,120.62760210,31.42730537,3478521.42040596,559670.28842362,112.79700000,6.00000000,-0.00600000,0.00200000,0.01600000,0.01560000,-0.03280000,0.00760000,-0.01900000,-0.00310000,1.00090000
$GPFPD,2292,466503.600,112.797,-0.247,0.957,31.42730539,120.62760212,16.716,-0.005,0.001,0.013,0.800,20,14,04*7B
$GTIMU,2292,466503.600,-0.0292,-0.0032,0.0031,-0.0164,-0.0024,0.9971,39.7*65
17:34::45.580,1702604103582,120.62760212,31.42730539,3478521.42263442,559670.29031252,112.79700000,6.00000000,-0.00500000,0.00100000,0.01300000,-0.02920000,-0.00320000,0.00310000,-0.01640000,-0.00240000,0.99710000
$GPFPD,2292,466503.700,112.798,-0.247,0.959,31.42730540,120.62760215,16.718,-0.007,0.001,0.015,0.798,20,14,04*76
$GTIMU,2292,466503.700,-0.0019,0.0235,-0.0021,-0.0159,-0.0054,1.0014,39.7*6A
17:34::45.681,1702604103682,120.62760215,31.42730540,3478521.42375951,559670.29315853,112.79800000,6.00000000,-0.00700000,0.00100000,0.01500000,-0.00190000,0.02350000,-0.00210000,-0.01590000,-0.00540000,1.00140000
$GPFPD,2292,466503.800,112.797,-0.245,0.955,31.42730542,120.62760216,16.719,-0.006,0.003,0.015,0.798,20,14,04*7B
$GTIMU,2292,466503.800,0.0105,-0.0442,0.0087,-0.0183,-0.0041,0.9999,39.7*49
17:34::45.781,1702604103782,120.62760216,31.42730542,3478521.42598254,559670.29409665,112.79700000,6.00000000,-0.00600000,0.00300000,0.01500000,0.01050000,-0.04420000,0.00870000,-0.01830000,-0.00410000,0.99990000
$GPFPD,2292,466503.900,112.797,-0.248,0.958,31.42730542,120.62760216,16.721,-0.006,0.000,0.014,0.799,20,14,04*72
$GTIMU,2292,466503.900,-0.0275,0.0297,-0.0009,-0.0148,-0.0026,0.9985,39.7*62
17:34::45.881,1702604103882,120.62760216,31.42730542,3478521.42598254,559670.29409665,112.79700000,6.00000000,-0.00600000,0.00000000,0.01400000,-0.02750000,0.02970000,-0.00090000,-0.01480000,-0.00260000,0.99850000
$GPFPD,2292,466504.000,112.797,-0.246,0.957,31.42730542,120.62760215,16.722,-0.007,0.002,0.016,0.799,20,14,04*7C
$GTIMU,2292,466504.000,0.0139,-0.0180,0.0030,-0.0184,-0.0047,1.0012,39.7*4D
17:34::45.981,1702604103982,120.62760215,31.42730542,3478521.42597711,559670.29314587,112.79700000,6.00000000,-0.00700000,0.00200000,0.01600000,0.01390000,-0.01800000,0.00300000,-0.01840000,-0.00470000,1.00120000
$GPGGA,093446.00,3125.6383848,N,12037.6568696,E,1,14,1.0,9.844,M,7.80,M,,*66
$GPFPD,2292,466504.100,112.797,-0.247,0.954,31.42730542,120.62760214,16.724,-0.005,0.001,0.014,0.799,20,14,04*7B
$GTIMU,2292,466504.100,-0.0179,-0.0231,0.0037,-0.0165,-0.0021,0.9975,39.7*64
17:34::46.081,1702604104082,120.62760214,31.42730542,3478521.42597168,559670.29219508,112.79700000,6.00000000,-0.00500000,0.00100000,0.01400000,-0.01790000,-0.02310000,0.00370000,-0.01650000,-0.00210000,0.99750000
$GPFPD,2292,466504.200,112.798,-0.247,0.960,31.42730542,120.62760214,16.725,-0.006,0.000,0.015,0.799,20,14,04*72
$GTIMU,2292,466504.200,-0.0007,0.0502,-0.0043,-0.0155,-0.0040,1.0008,39.7*64
17:34::46.181,1702604104182,120.62760214,31.42730542,3478521.42597168,559670.29219508,112.79800000,6.00000000,-0.00600000,0.00000000,0.01500000,-0.00070000,0.05020000,-0.00430000,-0.01550000,-0.00400000,1.00080000
$GPFPD,2292,466504.300,112.797,-0.245,0.956,31.42730543,120.62760213,16.725,-0.006,0.003,0.012,0.800,19,14,04*7C
$GTIMU,2292,466504.300,0.0201,-0.0345,0.0076,-0.0184,-0.0050,1.0007,39.7*4D
17:34::46.281,1702604104282,120.62760213,31.42730543,3478521.42707505,559670.29123797,112.79700000,6.00000000,-0.00600000,0.00300000,0.01200000,0.02010000,-0.03450000,0.00760000,-0.01840000,-0.00500000,1.00070000
$GPFPD,2292,466504.400,112.796,-0.247,0.956,31.42730545,120.62760215,16.720,-0.006,0.002,0.010,0.800,19,14,04*7E
$GTIMU,2292,466504.400,-0.0241,-0.0004,0.0031,-0.0163,-0.0024,0.9979,39.7*64
17:34::46.381,1702604104382,120.62760215,31.42730545,3478521.42930350,559670.29312687,112.79600000,6.00000000,-0.00600000,0.00200000,0.01000000,-0.02410000,-0.00040000,0.00310000,-0.01630000,-0.00240000,0.99790000
$GPFPD,2292,466504.500,112.797,-0.246,0.959,31.42730547,120.62760216,16.715,-0.007,0.002,0.011,0.800,19,14,04*77
$GTIMU,2292,466504.500,0.0009,0.0286,-0.0043,-0.0161,-0.0046,1.0004,39.7*46
17:34::46.481,1702604104482,120.62760216,31.42730547,3478521.43152653,559670.29406499,112.79700000,6.00000000,-0.00700000,0.00200000,0.01100000,0.00090000,0.02860000,-0.00430000,-0.01610000,-0.00460000,1.00040000
$GPFPD,2292,466504.600,112.797,-0.245,0.955,31.42730549,120.62760217,16.710,-0.005,0.003,0.010,0.800,19,14,04*73
$GTIMU,2292,466504.600,0.0104,-0.0447,0.0048,-0.0190,-0.0026,0.9991,39.7*4C
17:34::46.581,1702604104582,120.62760217,31.42730549,3478521.43374956,559670.29500310,112.79700000,6.00000000,-0.00500000,0.00300000,0.01000000,0.01040000,-0.04470000,0.00480000,-0.01900000,-0.00260000,0.99910000
$GPFPD,2292,466504.700,112.797,-0.247,0.957,31.42730552,120.62760218,16.704,-0.005,0.001,0.010,0.799,19,14,04*7F
$GTIMU,2292,466504.700,-0.0241,0.0184,-0.0020,-0.0148,-0.0027,0.9995,39.7*66
17:34::46.681,1702604104682,120.62760218,31.42730552,3478521.43708139,559670.29593489,112.79700000,6.00000000,-0.00500000,0.00100000,0.01000000,-0.02410000,0.01840000,-0.00200000,-0.01480000,-0.00270000,0.99950000
$GPFPD,2292,466504.800,112.797,-0.245,0.955,31.42730553,120.62760219,16.701,-0.006,0.003,0.012,0.799,19,14,04*76
$GTIMU,2292,466504.800,0.0162,-0.0237,0.0053,-0.0177,-0.0053,1.0013,39.7*49
17:34::46.781,1702604104782,120.62760219,31.42730553,3478521.43819562,559670.29687934,112.79700000,6.00000000,-0.00600000,0.00300000,0.01200000,0.01620000,-0.02370000,0.00530000,-0.01770000,-0.00530000,1.00130000
$GPFPD,2292,466504.900,112.797,-0.247,0.954,31.42730553,120.62760218,16.702,-0.005,0.001,0.010,0.796,18,14,04*7B
$GTIMU,2292,466504.900,-0.0201,-0.0118,0.0037,-0.0160,-0.0024,0.9981,39.7*63
17:34::46.881,1702604104882,120.62760218,31.42730553,3478521.43819019,559670.29592855,112.79700000,6.00000000,-0.00500000,0.00100000,0.01000000,-0.02010000,-0.01180000,0.00370000,-0.01600000,-0.00240000,0.99810000
$GPFPD,2292,466505.000,112.797,-0.246,0.958,31.42730554,120.62760217,16.703,-0.007,0.001,0.011,0.796,18,14,04*74
$GTIMU,2292,466505.000,0.0021,0.0462,0.0008,-0.0160,-0.0049,1.0004,39.7*68
17:34::46.981,1702604104982,120.62760217,31.42730554,3478521.43929356,559670.29497144,112.79700000,6.00000000,-0.00700000,0.00100000,0.01100000,0.00210000,0.04620000,0.00080000,-0.01600000,-0.00490000,1.00040000
$GPGGA,093447.00,3125.6383735,N,12037.6568694,E,1,14,1.0,9.820,M,7.80,M,,*62
$GPFPD,2292,466505.100,112.797,-0.245,0.956,31.42730554,120.62760217,16.704,-0.006,0.003,0.012,0.796,18,14,04*7F
$GTIMU,2292,466505.100,0.0082,-0.0300,0.0053,-0.0192,-0.0039,1.0010,39.7*4F
17:34::47.080,1702604105082,120.62760217,31.42730554,3478521.43929356,559670.29497144,112.79700000,6.00000000,-0.00600000,0.00300000,0.01200000,0.00820000,-0.03000000,0.00530000,-0.01920000,-0.00390000,1.00100000
$GPFPD,2292,466505.200,112.797,-0.248,0.958,31.42730554,120.62760216,16.705,-0.006,0.001,0.010,0.795,18,14,04*7C
$GTIMU,2292,466505.200,-0.0331,0.0195,0.0020,-0.0149,-0.0029,0.9971,39.7*4C
17:34::47.181,1702604105182,120.62760216,31.42730554,3478521.43928813,559670.29402065,112.79700000,6.00000000,-0.00600000,0.00100000,0.01000000,-0.03310000,0.01950000,0.00200000,-0.01490000,-0.00290000,0.99710000
$GPFPD,2292,466505.300,112.796,-0.245,0.957,31.42730553,120.62760217,16.706,-0.003,-0.000,0.011,0.799,18,14,04*5F
$GTIMU,2292,466505.300,0.0298,-0.0129,-0.0004,-0.0179,-0.0040,1.0009,39.7*61
17:34::47.281,1702604105282,120.62760217,31.42730553,3478521.43818476,559670.29497777,112.79600000,6.00000000,-0.00300000,0.00000000,0.01100000,0.02980000,-0.01290000,-0.00040000,-0.01790000,-0.00400000,1.00090000
$GPFPD,2292,466505.400,112.796,-0.246,0.954,31.42730551,120.62760222,16.707,-0.003,-0.001,0.011,0.799,18,14,04*5C
$GTIMU,2292,466505.400,-0.0179,-0.0237,0.0071,-0.0166,-0.0025,0.9997,39.7*6F
17:34::47.381,1702604105382,120.62760222,31.42730551,3478521.43599431,559670.29974436,112.79600000,6.00000000,-0.00300000,-0.00100000,0.01100000,-0.01790000,-0.02370000,0.00710000,-0.01660000,-0.00250000,0.99970000
$GPFPD,2292,466505.500,112.797,-0.248,0.959,31.42730548,120.62760227,16.708,-0.004,-0.002,0.010,0.801,18,14,04*56
$GTIMU,2292,466505.500,-0.0167,0.0440,-0.0060,-0.0156,-0.0042,0.9983,39.7*60
17:34::47.481,1702604105482,120.62760227,31.42730548,3478521.43269507,559670.30451727,112.79700000,6.00000000,-0.00400000,-0.00200000,0.01000000,-0.01670000,0.04400000,-0.00600000,-0.01560000,-0.00420000,0.99830000
$GPFPD,2292,466505.600,112.796,-0.245,0.956,31.42730545,120.62760231,16.709,-0.003,0.000,0.011,0.801,18,14,04*74
$GTIMU,2292,466505.600,0.0252,-0.0328,0.0064,-0.0188,-0.0042,1.0007,39.7*48
17:34::47.581,1702604105582,120.62760231,31.42730545,3478521.42939039,559670.30833941,112.79600000,6.00000000,-0.00300000,0.00000000,0.01100000,0.02520000,-0.03280000,0.00640000,-0.01880000,-0.00420000,1.00070000
$GPFPD,2292,466505.700,112.796,-0.247,0.956,31.42730542,120.62760236,16.710,-0.003,-0.001,0.010,0.798,18,14,04*5D
$GTIMU,2292,466505.700,-0.0241,0.0042,0.0031,-0.0153,-0.0026,0.9994,39.7*4B
17:34::47.681,1702604105682,120.62760236,31.42730542,3478521.42609115,559670.31311233,112.79600000,6.00000000,-0.00300000,-0.00100000,0.01000000,-0.02410000,0.00420000,0.00310000,-0.01530000,-0.00260000,0.99940000
$GPFPD,2292,466505.800,112.796,-0.247,0.959,31.42730540,120.62760240,16.711,-0.004,-0.001,0.011,0.798,18,14,04*59
$GTIMU,2292,466505.800,-0.0002,0.0212,-0.0015,-0.0166,-0.0050,1.0000,39.7*66
17:34::47.781,1702604105782,120.62760240,31.42730540,3478521.42389527,559670.31692813,112.79600000,6.00000000,-0.00400000,-0.00100000,0.01100000,-0.00020000,0.02120000,-0.00150000,-0.01660000,-0.00500000,1.00000000
$GPFPD,2292,466505.900,112.796,-0.245,0.955,31.42730540,120.62760239,16.712,-0.003,-0.000,0.010,0.798,18,14,04*5C
$GTIMU,2292,466505.900,0.0127,-0.0396,0.0093,-0.0182,-0.0030,0.9991,39.7*4A
17:34::47.881,1702604105882,120.62760239,31.42730540,3478521.42388984,559670.31597734,112.79600000,6.00000000,-0.00300000,0.00000000,0.01000000,0.01270000,-0.03960000,0.00930000,-0.01820000,-0.00300000,0.99910000
$GPFPD,2292,466506.000,112.796,-0.248,0.958,31.42730540,120.62760239,16.713,-0.003,-0.002,0.010,0.798,18,14,04*55
$GTIMU,2292,466506.000,-0.0297,0.0320,-0.0026,-0.0152,-0.0027,0.9992,39.7*6E
17:34::47.981,1702604105982,120.62760239,31.42730540,3478521.42388984,559670.31597734,112.79600000,6.00000000,-0.00300000,-0.00200000,0.01000000,-0.02970000,0.03200000,-0.00260000,-0.01520000,-0.00270000,0.99920000
$GPGGA,093448.00,3125.6384313,N,12037.6568570,E,1,14,1.0,9.806,M,7.80,M,,*67
$GPFPD,2292,466506.100,112.796,-0.245,0.957,31.42730540,120.62760239,16.714,-0.004,-0.000,0.011,0.798,18,14,04*55
$GTIMU,2292,466506.100,0.0184,-0.0135,0.0030,-0.0182,-0.0051,1.0008,39.7*4C
17:34::48.081,1702604106082,120.62760239,31.42730540,3478521.42388984,559670.31597734,112.79600000,6.00000000,-0.00400000,0.00000000,0.01100000,0.01840000,-0.01350000,0.00300000,-0.01820000,-0.00510000,1.00080000
$GPFPD,2292,466506.200,112.796,-0.246,0.956,31.42730540,120.62760238,16.715,-0.003,-0.001,0.010,0.801,18,14,04*5C
$GTIMU,2292,466506.200,-0.0139,-0.0152,0.0042,-0.0166,-0.0030,0.9983,39.7*6F
17:34::48.181,1702604106182,120.62760238,31.42730540,3478521.42388441,559670.31502656,112.79600000,6.00000000,-0.00300000,-0.00100000,0.01000000,-0.01390000,-0.01520000,0.00420000,-0.01660000,-0.00300000,0.99830000
$GPFPD,2292,466506.300,112.796,-0.247,0.959,31.42730540,120.62760238,16.717,-0.003,-0.001,0.014,0.801,19,14,04*54
$GTIMU,2292,466506.300,-0.0047,0.0366,-0.0015,-0.0157,-0.0039,1.0005,39.7*65
17:34::48.281,1702604106282,120.62760238,31.42730540,3478521.42388441,559670.31502656,112.79600000,6.00000000,-0.00300000,-0.00100000,0.01400000,-0.00470000,0.03660000,-0.00150000,-0.01570000,-0.00390000,1.00050000
$GPFPD,2292,466506.400,112.796,-0.245,0.955,31.42730542,120.62760239,16.724,-0.003,0.000,0.014,0.801,19,14,04*72
$GTIMU,2292,466506.400,0.0087,-0.0453,0.0048,-0.0187,-0.0038,0.9998,39.7*43
17:34::48.381,1702604106382,120.62760239,31.42730542,3478521.42610744,559670.31596468,112.79600000,6.00000000,-0.00300000,0.00000000,0.01400000,0.00870000,-0.04530000,0.00480000,-0.01870000,-0.00380000,0.99980000
$GPFPD,2292,466506.500,112.796,-0.247,0.957,31.42730544,120.62760240,16.731,-0.003,-0.002,0.013,0.799,19,14,04*59
$GTIMU,2292,466506.500,-0.0229,0.0218,0.0026,-0.0147,-0.0024,0.9979,39.7*4B
17:34::48.481,1702604106482,120.62760240,31.42730544,3478521.42833047,559670.31690279,112.79600000,6.00000000,-0.00300000,-0.00200000,0.01300000,-0.02290000,0.02180000,0.00260000,-0.01470000,-0.00240000,0.99790000
$GPFPD,2292,466506.600,112.795,-0.246,0.958,31.42730546,120.62760241,16.738,-0.004,-0.001,0.015,0.799,19,14,04*5F
$GTIMU,2292,466506.600,0.0083,0.0075,0.0105,-0.0174,-0.0053,1.0017,39.7*67
17:34::48.580,1702604106582,120.62760241,31.42730546,3478521.43055350,559670.31784091,112.79500000,6.00000000,-0.00400000,-0.00100000,0.01500000,0.00830000,0.00750000,0.01050000,-0.01740000,-0.00530000,1.00170000
$GPFPD,2292,466506.700,112.795,-0.247,0.955,31.42730547,120.62760242,16.744,-0.002,0.000,0.014,0.798,19,14,04*71
$GTIMU,2292,466506.700,-0.0094,-0.0322,0.0008,-0.0185,-0.0026,0.9985,39.7*6B
17:34::48.681,1702604106682,120.62760242,31.42730547,3478521.43166773,559670.31878536,112.79500000,6.00000000,-0.00200000,0.00000000,0.01400000,-0.00940000,-0.03220000,0.00080000,-0.01850000,-0.00260000,0.99850000
$GPFPD,2292,466506.800,112.796,-0.248,0.959,31.42730549,120.62760243,16.750,-0.003,-0.002,0.014,0.798,19,14,04*5A
$GTIMU,2292,466506.800,-0.0178,0.0360,-0.0049,-0.0142,-0.0037,1.0002,39.7*61
17:34::48.781,1702604106782,120.62760243,31.42730549,3478521.43389076,559670.31972348,112.79600000,6.00000000,-0.00300000,-0.00200000,0.01400000,-0.01780000,0.03600000,-0.00490000,-0.01420000,-0.00370000,1.00020000
$GPFPD,2292,466506.900,112.795,-0.246,0.956,31.42730549,120.62760243,16.751,-0.004,0.000,0.014,0.798,19,14,04*70
$GTIMU,2292,466506.900,0.0173,-0.0311,0.0082,-0.0187,-0.0048,0.9999,39.7*45
17:34::48.881,1702604106882,120.62760243,31.42730549,3478521.43389076,559670.31972348,112.79500000,6.00000000,-0.00400000,0.00000000,0.01400000,0.01730000,-0.03110000,0.00820000,-0.01870000,-0.00480000,0.99990000
$GPFPD,2292,466507.000,112.795,-0.247,0.954,31.42730549,120.62760242,16.753,-0.003,-0.000,0.013,0.798,19,14,04*55
$GTIMU,2292,466507.000,-0.0094,-0.0203,-0.0015,-0.0169,-0.0030,0.9979,39.7*48
17:34::48.981,1702604106982,120.62760242,31.42730549,3478521.43388533,559670.31877270,112.79500000,6.00000000,-0.00300000,0.00000000,0.01300000,-0.00940000,-0.02030000,-0.00150000,-0.01690000,-0.00300000,0.99790000
$GPGGA,093449.00,3125.6384738,N,12037.6568535,E,1,14,1.0,9.755,M,7.80,M,,*63
$GPFPD,2292,466507.100,112.795,-0.248,0.959,31.42730549,120.62760242,16.754,-0.003,-0.002,0.013,0.798,19,14,04*53
$GTIMU,2292,466507.100,-0.0138,0.0456,0.0002,-0.0150,-0.0033,1.0003,39.7*4B
17:34::49.081,1702604107082,120.62760242,31.42730549,3478521.43388533,559670.31877270,112.79500000,6.00000000,-0.00300000,-0.00200000,0.01300000,-0.01380000,0.04560000,0.00020000,-0.01500000,-0.00330000,1.00030000
$GPFPD,2292,466507.200,112.795,-0.246,0.955,31.42730548,120.62760242,16.755,-0.002,0.000,0.014,0.800,19,14,04*75
$GTIMU,2292,466507.200,0.0161,-0.0408,0.0087,-0.0196,-0.0034,1.0002,39.7*4E
17:34::49.181,1702604107182,120.62760242,31.42730548,3478521.43277653,559670.31877903,112.79500000,6.00000000,-0.00200000,0.00000000,0.01400000,0.01610000,-0.04080000,0.00870000,-0.01960000,-0.00340000,1.00020000
$GPFPD,2292,466507.300,112.795,-0.248,0.955,31.42730550,120.62760242,16.755,-0.002,0.003,0.008,0.798,19,14,04*73
$GTIMU,2292,466507.300,-0.0207,-0.0004,-0.0089,-0.0152,-0.0030,0.9981,39.7*4C
17:34::49.281,1702604107282,120.62760242,31.42730550,3478521.43499413,559670.31876636,112.79500000,6.00000000,-0.00200000,0.00300000,0.00800000,-0.02070000,-0.00040000,-0.00890000,-0.01520000,-0.00300000,0.99810000
$GPFPD,2292,466507.400,112.795,-0.247,0.958,31.42730557,120.62760242,16.748,-0.004,0.002,0.010,0.798,19,14,04*73
$GTIMU,2292,466507.400,0.0049,0.0309,0.0065,-0.0154,-0.0048,1.0018,39.7*6A
17:34::49.380,1702604107382,120.62760242,31.42730557,3478521.44275572,559670.31872203,112.79500000,6.00000000,-0.00400000,0.00200000,0.01000000,0.00490000,0.03090000,0.00650000,-0.01540000,-0.00480000,1.00180000
$GPFPD,2292,466507.500,112.794,-0.245,0.953,31.42730565,120.62760242,16.742,-0.003,0.005,0.010,0.800,19,14,04*7F
$GTIMU,2292,466507.500,0.0104,-0.0476,0.0082,-0.0196,-0.0046,0.9992,39.7*4B
17:34::49.481,1702604107482,120.62760242,31.42730565,3478521.45162611,559670.31867137,112.79400000,6.00000000,-0.00300000,0.00500000,0.01000000,0.01040000,-0.04760000,0.00820000,-0.01960000,-0.00460000,0.99920000
$GPFPD,2292,466507.600,112.795,-0.248,0.956,31.42730572,120.62760243,16.736,-0.003,0.002,0.008,0.800,19,14,04*7F
$GTIMU,2292,466507.600,-0.0309,0.0269,-0.0009,-0.0142,-0.0022,0.9983,39.7*6A
17:34::49.581,1702604107582,120.62760243,31.42730572,3478521.45939313,559670.31957782,112.79500000,6.00000000,-0.00300000,0.00200000,0.00800000,-0.03090000,0.02690000,-0.00090000,-0.01420000,-0.00220000,0.99830000
$GPFPD,2292,466507.700,112.794,-0.246,0.957,31.42730579,120.62760243,16.729,-0.004,0.003,0.010,0.797,19,14,04*7B
$GTIMU,2292,466507.700,0.0145,0.0047,0.0093,-0.0179,-0.0047,1.0012,39.7*6E
17:34::49.680,1702604107682,120.62760243,31.42730579,3478521.46715473,559670.31953349,112.79400000,6.00000000,-0.00400000,0.00300000,0.01000000,0.01450000,0.00470000,0.00930000,-0.01790000,-0.00470000,1.00120000
$GPFPD,2292,466507.800,112.794,-0.247,0.955,31.42730585,120.62760243,16.725,-0.002,0.003,0.009,0.797,19,14,04*76
$GTIMU,2292,466507.800,-0.0088,-0.0231,-0.0003,-0.0174,-0.0023,0.9984,39.7*47
17:34::49.781,1702604107782,120.62760243,31.42730585,3478521.47380752,559670.31949549,112.79400000,6.00000000,-0.00200000,0.00300000,0.00900000,-0.00880000,-0.02310000,-0.00030000,-0.01740000,-0.00230000,0.99840000
$GPFPD,2292,466507.900,112.794,-0.248,0.958,31.42730585,120.62760243,16.726,-0.003,0.002,0.009,0.798,19,14,04*79
$GTIMU,2292,466507.900,-0.0144,0.0366,0.0014,-0.0149,-0.0037,1.0002,39.7*46
17:34::49.881,1702604107882,120.62760243,31.42730585,3478521.47380752,559670.31949549,112.79400000,6.00000000,-0.00300000,0.00200000,0.00900000,-0.01440000,0.03660000,0.00140000,-0.01490000,-0.00370000,1.00020000
$GPFPD,2292,466508.000,112.794,-0.246,0.955,31.42730585,120.62760243,16.727,-0.003,0.004,0.010,0.798,19,14,04*73
$GTIMU,2292,466508.000,0.0190,-0.0385,0.0064,-0.0195,-0.0052,1.0005,39.7*46
17:34::49.981,1702604107982,120.62760243,31.42730585,3478521.47380752,559670.31949549,112.79400000,6.00000000,-0.00300000,0.00400000,0.01000000,0.01900000,-0.03850000,0.00640000,-0.01950000,-0.00520000,1.00050000
$GPFPD,2292,466508$GPGGA,0.100,112.93450.00,795,-0.243125.63848,0.956,3720,N,1201.427305837.6568526,120.6274,E,1,14,60242,16.1.0,9.75728,-0.004,M,7.80,3,0.003,0M,,*63
.008,0.798,19,14,04*7D
$GTIMU,2292,466508.100,-0.0264,0.0121,-0.0071,-0.0153,-0.0026,0.9974,39.7*64
17:34::50.080,1702604108082,120.62760242,31.42730586,3478521.47491089,559670.31853837,112.79500000,6.00000000,-0.00300000,0.00300000,0.00800000,-0.02640000,0.01210000,-0.00710000,-0.01530000,-0.00260000,0.99740000
$GPFPD,2292,466508.200,112.794,-0.247,0.957,31.42730586,120.62760242,16.729,-0.004,0.003,0.009,0.800,19,14,04*78
$GTIMU,2292,466508.200,0.0077,0.0098,0.0059,-0.0167,-0.0048,1.0012,39.7*60
$GPFPD,2292,466508.300,112.794,-0.247,0.954,31.42730587,120.62760242,16.729,-0.001,0.006,0.009,0.796,19,14,04*7B
$GTIMU,2292,466508.300,0.0002,-0.0351,0.0031,-0.0186,-0.0022,0.9993,39.7*4D
$GPFPD,2292,466508.400,112.795,-0.249,0.958,31.42730592,120.62760245,16.730,-0.001,0.004,0.009,0.796,19,14,04*76
$GTIMU,2292,466508.400,-0.0241,0.0394,-0.0157,-0.0143,-0.0034,0.9997,39.7*60
$GPFPD,2292,466508.500,112.795,-0.247,0.955,31.42730596,120.62760247,16.730,-0.002,0.006,0.009,0.800,19,14,04*73
$GTIMU,2292,466508.500,0.0196,-0.0277,0.0053,-0.0188,-0.0051,0.9997,39.7*48
$GPFPD,2292,466508.600,112.796,-0.248,0.956,31.42730601,120.62760250,16.730,-0.002,0.005,0.009,0.800,19,14,04*77
$GTIMU,2292,466508.600,-0.0207,0.0053,-0.0049,-0.0161,-0.0031,0.9992,39.7*66
$GPFPD,2292,466508.700,112.797,-0.248,0.959,31.42730605,120.62760252,16.731,-0.003,0.005,0.010,0.799,19,14,04*79
$GTIMU,2292,466508.700,0.0020,0.0258,-0.0066,-0.0158,-0.0046,1.0003,39.7*4A
$GPFPD,2292,466508.800,112.796,-0.247,0.955,31.42730609,120.62760254,16.731,-0.001,0.005,0.008,0.799,19,14,04*75
$GTIMU,2292,466508.800,0.0059,-0.0391,0.0099,-0.0181,-0.0023,0.9985,39.7*47
$GPFPD,2292,466508.900,112.797,-0.249,0.959,31.42730609,120.62760253,16.732,-0.001,0.003,0.009,0.799,19,14,04*74
$GTIMU,2292,466508.900,-0.0240,0.0383,-0.0071,-0.0151,-0.0028,1.0000,39.7*6E
$GPFPD,2292,466509.000,112.797,-0.247,0.958,31.42730610,120.62760253,16.733,-0.002,0.005,0.010,0.799,19,14,04*77
$GTIMU,2292,466509.000,0.0179,-0.0123,0.0019,-0.0183,-0.0057,1.0006,39.7*45
$GPFPD,2292,466509.100,112.797,-0.248,0.956,31.42730610,120.62760253,16.734,-0.001,0.005,0.008,0.799,19,14,04*7A
$GTIMU,2292,466509.100,-0.0150,-0.0152,0.0054,-0.0173,-0.0020,0.9976,39.7*64
$GPGGA,093451.00,3125.6384984,N,12037.6568532,E,1,14,1.0,9.749,M,7.80,M,,*69
$GPFPD,2292,466509.200,112.797,-0.247,0.959,31.42730610,120.62760253,16.735,-0.003,0.005,0.010,0.798,19,14,04*72
$GTIMU,2292,466509.200,0.0038,0.0303,-0.0055,-0.0152,-0.0059,1.0016,39.7*48
17:34::51.180,1702604109182,120.62760253,31.42730610,3478521.50158180,559670.32884500,112.79700000,6.00000000,-0.00300000,0.00500000,0.01000000,0.00380000,0.03030000,-0.00550000,-0.01520000,-0.00590000,1.00160000
$GPFPD,2292,466509.300,112.796,-0.248,0.958,31.42730611,120.62760253,16.734,-0.001,0.005,0.006,0.800,20,14,04*7D
$GTIMU,2292,466509.300,-0.0071,-0.0175,0.0094,-0.0179,-0.0014,0.9985,39.7*6C
17:34::51.281,1702604109282,120.62760253,31.42730611,3478521.50269060,559670.32883867,112.79600000,6.00000000,-0.00100000,0.00500000,0.00600000,-0.00710000,-0.01750000,0.00940000,-0.01790000,-0.00140000,0.99850000
$GPFPD,2292,466509.400,112.796,-0.246,0.960,31.42730613,120.62760253,16.731,-0.003,0.004,0.007,0.800,20,14,04*7A
$GTIMU,2292,466509.400,0.0094,0.0223,0.0048,-0.0158,-0.0055,1.0002,39.7*69
17:34::51.381,1702604109382,120.62760253,31.42730613,3478521.50490820,559670.32882600,112.79600000,6.00000000,-0.00300000,0.00400000,0.00700000,0.00940000,0.02230000,0.00480000,-0.01580000,-0.00550000,1.00020000
$GPFPD,2292,466509.500,112.796,-0.248,0.959,31.42730616,120.62760254,16.728,-0.002,0.005,0.007,0.797,20,14,04*74
$GTIMU,2292,466509.500,-0.0224,-0.0112,-0.0014,-0.0175,-0.0026,0.9998,39.7*4D
17:34::51.481,1702604109482,120.62760254,31.42730616,3478521.50824002,559670.32975778,112.79600000,6.00000000,-0.00200000,0.00500000,0.00700000,-0.02240000,-0.01120000,-0.00140000,-0.01750000,-0.00260000,0.99980000
$GPFPD,2292,466509.600,112.796,-0.247,0.959,31.42730618,120.62760254,16.725,-0.002,0.005,0.007,0.797,20,14,04*7B
$GTIMU,2292,466509.600,0.0048,-0.0078,0.0059,-0.0169,-0.0036,0.9996,39.7*40
17:34::51.580,1702604109582,120.62760254,31.42730618,3478521.51045762,559670.32974512,112.79600000,6.00000000,-0.00200000,0.00500000,0.00700000,0.00480000,-0.00780000,0.00590000,-0.01690000,-0.00360000,0.99960000
$GPFPD,2292,466509.700,112.796,-0.247,0.959,31.42730620,120.62760255,16.722,-0.002,0.004,0.006,0.798,20,14,04*78
$GTIMU,2292,466509.700,0.0015,0.0041,0.0053,-0.0165,-0.0038,0.9989,39.7*68
17:34::51.680,1702604109682,120.62760255,31.42730620,3478521.51268065,559670.33068323,112.79600000,6.00000000,-0.00200000,0.00400000,0.00600000,0.00150000,0.00410000,0.00530000,-0.01650000,-0.00380000,0.99890000
$GPFPD,2292,466509.800,112.796,-0.247,0.959,31.42730622,120.62760255,16.719,-0.001,0.005,0.007,0.798,20,14,04*7E
$GTIMU,2292,466509.800,-0.0003,-0.0027,-0.0004,-0.0176,-0.0032,1.0004,39.7*43
17:34::51.781,1702604109782,120.62760255,31.42730622,3478521.51489825,559670.33067057,112.79600000,6.00000000,-0.00100000,0.00500000,0.00700000,-0.00030000,-0.00270000,-0.00040000,-0.01760000,-0.00320000,1.00040000
$GPFPD,2292,466509.900,112.796,-0.247,0.959,31.42730622,120.62760255,16.720,-0.002,0.004,0.006,0.798,20,14,04*76
$GTIMU,2292,466509.900,-0.0071,-0.0032,0.0031,-0.0164,-0.0038,0.9990,39.7*6D
17:34::51.881,1702604109882,120.62760255,31.42730622,3478521.51489825,559670.33067057,112.79600000,6.00000000,-0.00200000,0.00400000,0.00600000,-0.00710000,-0.00320000,0.00310000,-0.01640000,-0.00380000,0.99900000
$GPFPD,2292,466510.000,112.795,-0.247,0.959,31.42730623,120.62760255,16.721,-0.002,0.004,0.007,0.798,20,14,04*75
$GTIMU,2292,466510.000,0.0020,0.0007,0.0048,-0.0170,-0.0036,1.0000,39.7*63
17:34::51.980,1702604109982,120.62760255,31.42730623,3478521.51600705,559670.33066424,112.79500000,6.00000000,-0.00200000,0.00400000,0.00700000,0.00200000,0.00070000,0.00480000,-0.01700000,-0.00360000,1.00000000
$GPGGA,093452.00,3125.6385105,N,12037.6568502,E,1,14,1.0,9.770,M,7.80,M,,*63
$GPFPD,2292,466510.100,112.795,-0.247,0.959,31.42730623,120.62760255,16.721,-0.002,0.004,0.007,0.798,20,14,04*74
$GTIMU,2292,466510.100,-0.0105,-0.0061,0.0031,-0.0167,-0.0038,0.9997,39.7*6D
17:34::52.080,1702604110082,120.62760255,31.42730623,3478521.51600705,559670.33066424,112.79500000,6.00000000,-0.00200000,0.00400000,0.00700000,-0.01050000,-0.00610000,0.00310000,-0.01670000,-0.00380000,0.99970000
$GPFPD,2292,466510.200,112.795,-0.247,0.959,31.42730624,120.62760255,16.722,-0.002,0.004,0.006,0.798,20,14,04*72
$GTIMU,2292,466510.200,-0.0014,0.0053,0.0025,-0.0165,-0.0038,0.9993,39.7*40
17:34::52.181,1702604110182,120.62760255,31.42730624,3478521.51711585,559670.33065790,112.79500000,6.00000000,-0.00200000,0.00400000,0.00600000,-0.00140000,0.00530000,0.00250000,-0.01650000,-0.00380000,0.99930000
$GPFPD,2292,466510.300,112.795,-0.249,0.959,31.42730625,120.62760254,16.722,-0.001,0.006,0.006,0.798,20,14,04*7C
$GTIMU,2292,466510.300,-0.0201,-0.0061,0.0025,-0.0177,-0.0025,1.0000,39.7*6F
17:34::52.281,1702604110282,120.62760254,31.42730625,3478521.51821921,559670.32970078,112.79500000,6.00000000,-0.00100000,0.00600000,0.00600000,-0.02010000,-0.00610000,0.00250000,-0.01770000,-0.00250000,1.00000000
$GPFPD,2292,466510.400,112.795,-0.248,0.958,31.42730629,120.62760254,16.722,-0.002,0.006,0.006,0.798,20,14,04*74
$GTIMU,2292,466510.400,-0.0003,-0.0072,-0.0004,-0.0169,-0.0046,0.9996,39.7*40
17:34::52.381,1702604110382,120.62760254,31.42730629,3478521.52265441,559670.32967545,112.79500000,6.00000000,-0.00200000,0.00600000,0.00600000,-0.00030000,-0.00720000,-0.00040000,-0.01690000,-0.00460000,0.99960000
$GPFPD,2292,466510.500,112.795,-0.248,0.959,31.42730633,120.62760254,16.721,-0.004,0.006,0.006,0.799,20,14,04*7B
$GTIMU,2292,466510.500,-0.0025,0.0036,0.0019,-0.0159,-0.0054,0.9999,39.7*46
17:34::52.481,1702604110482,120.62760254,31.42730633,3478521.52708961,559670.32965012,112.79500000,6.00000000,-0.00400000,0.00600000,0.00600000,-0.00250000,0.00360000,0.00190000,-0.01590000,-0.00540000,0.99990000
$GPFPD,2292,466510.600,112.794,-0.248,0.960,31.42730637,120.62760253,16.720,-0.002,0.005,0.005,0.799,20,14,04*77
$GTIMU,2292,466510.600,-0.0036,0.0155,0.0076,-0.0168,-0.0021,0.9985,39.7*47
17:34::52.581,1702604110582,120.62760253,31.42730637,3478521.53151937,559670.32867400,112.79400000,6.00000000,-0.00200000,0.00500000,0.00500000,-0.00360000,0.01550000,0.00760000,-0.01680000,-0.00210000,0.99850000
$GPFPD,2292,466510.700,112.795,-0.248,0.960,31.42730641,120.62760253,16.720,-0.001,0.006,0.006,0.800,20,14,04*7A
$GTIMU,2292,466510.700,-0.0020,-0.0078,-0.0026,-0.0181,-0.0025,1.0002,39.7*47
17:34::52.681,1702604110682,120.62760253,31.42730641,3478521.53595457,559670.32864867,112.79500000,6.00000000,-0.00100000,0.00600000,0.00600000,-0.00200000,-0.00780000,-0.00260000,-0.01810000,-0.00250000,1.00020000
$GPFPD,2292,466510.800,112.795,-0.248,0.958,31.42730644,120.62760253,16.719,-0.002,0.006,0.006,0.800,20,14,04*72
$GTIMU,2292,466510.800,-0.0043,-0.0197,0.0042,-0.0162,-0.0044,1.0001,39.6*6A
17:34::52.781,1702604110782,120.62760253,31.42730644,3478521.53928096,559670.32862967,112.79500000,6.00000000,-0.00200000,0.00600000,0.00600000,-0.00430000,-0.01970000,0.00420000,-0.01620000,-0.00440000,1.00010000
$GPFPD,2292,466510.900,112.795,-0.248,0.958,31.42730645,120.62760253,16.720,-0.003,0.005,0.006,0.797,20,14,04*7B
$GTIMU,2292,466510.900,0.0020,0.0002,0.0019,-0.0163,-0.0045,0.9994,39.6*60
17:34::52.881,1702604110882,120.62760253,31.42730645,3478521.54038976,559670.32862334,112.79500000,6.00000000,-0.00300000,0.00500000,0.00600000,0.00200000,0.00020000,0.00190000,-0.01630000,-0.00450000,0.99940000
$GPFPD,2292,466511.000,112.795,-0.248,0.960,31.42730645,120.62760252,16.720,-0.003,0.005,0.006,0.797,20,14,04*79
$GTIMU,2292,466511.000,-0.0042,0.0184,0.0014,-0.0168,-0.0035,1.0000,39.6*43
17:34::52.981,1702604110982,120.62760252,31.42730645,3478521.54038433,559670.32767255,112.79500000,6.00000000,-0.00300000,0.00500000,0.00600000,-0.00420000,0.01840000,0.00140000,-0.01680000,-0.00350000,1.00000000
$GPGGA,093453.00,3125.6385260,N,12037.6568554,E,1,14,1.0,9.744,M,7.80,M,,*66
$GPFPD,2292,466511.100,112.795,-0.248,0.960,31.42730646,120.62760252,16.721,-0.002,0.006,0.006,0.797,20,14,04*78
$GTIMU,2292,466511.100,-0.0031,-0.0061,0.0042,-0.0178,-0.0032,0.9994,39.6*68
17:34::53.081,1702604111082,120.62760252,31.42730646,3478521.54149313,559670.32766622,112.79500000,6.00000000,-0.00200000,0.00600000,0.00600000,-0.00310000,-0.00610000,0.00420000,-0.01780000,-0.00320000,0.99940000
$GPFPD,2292,466511.200,112.795,-0.248,0.958,31.42730646,120.62760252,16.721,-0.002,0.005,0.006,0.800,20,14,04*72
$GTIMU,2292,466511.200,-0.0065,-0.0152,-0.0009,-0.0167,-0.0032,0.9997,39.6*44
17:34::53.181,1702604111182,120.62760252,31.42730646,3478521.54149313,559670.32766622,112.79500000,6.00000000,-0.00200000,0.00500000,0.00600000,-0.00650000,-0.01520000,-0.00090000,-0.01670000,-0.00320000,0.99970000
$GPFPD,2292,466511.300,112.794,-0.247,0.959,31.42730647,120.62760253,16.720,-0.001,0.006,0.001,0.798,20,14,04*74
$GTIMU,2292,466511.300,0.0060,0.0036,0.0008,-0.0161,-0.0041,0.9992,39.6*68
17:34::53.281,1702604111282,120.62760253,31.42730647,3478521.54260736,559670.32861067,112.79400000,6.00000000,-0.00100000,0.00600000,0.00100000,0.00600000,0.00360000,0.00080000,-0.01610000,-0.00410000,0.99920000
$GPFPD,2292,466511.400,112.795,-0.247,0.960,31.42730650,120.62760255,16.714,-0.001,0.006,0.001,0.798,20,14,04*7F
$GTIMU,2292,466511.400,-0.0020,0.0093,-0.0021,-0.0170,-0.0035,0.9997,39.6*69
17:34::53.381,1702604111382,120.62760255,31.42730650,3478521.54594462,559670.33049324,112.79500000,6.00000000,-0.00100000,0.00600000,0.00100000,-0.00200000,0.00930000,-0.00210000,-0.01700000,-0.00350000,0.99970000
$GPFPD,2292,466511.500,112.795,-0.245,0.960,31.42730654,120.62760258,16.707,0.003,0.005,-0.001,0.797,20,14,04*79
$GTIMU,2292,466511.500,0.0185,-0.0027,-0.0027,-0.0172,-0.0004,0.9970,39.6*66
17:34::53.481,1702604111482,120.62760258,31.42730654,3478521.55039611,559670.33332026,112.79500000,6.00000000,0.00300000,0.00500000,-0.00100000,0.01850000,-0.00270000,-0.00270000,-0.01720000,-0.00040000,0.99700000
$GPFPD,2292,466511.600,112.796,-0.215,0.961,31.42730656,120.62760263,16.699,0.035,-0.009,-0.017,0.797,20,14,04*52
$GTIMU,2292,466511.600,0.3000,0.0165,0.0006,-0.0168,0.0326,0.9836,39.6*48
17:34::53.581,1702604111582,120.62760263,31.42730656,3478521.55264086,559670.33806151,112.79600000,6.00000000,0.03500000,-0.00900000,-0.01700000,0.30000000,0.01650000,0.00060000,-0.01680000,0.03260000,0.98360000
$GPFPD,2292,466511.700,112.794,-0.146,0.961,31.42730657,120.62760273,16.690,0.091,-0.032,-0.026,0.799,20,14,04*57
$GTIMU,2292,466511.700,0.6820,-0.0042,0.0305,-0.0170,0.0595,0.9906,39.6*6A
17:34::53.681,1702604111682,120.62760273,31.42730657,3478521.55380396,559670.34756302,112.79400000,6.00000000,0.09100000,-0.03200000,-0.02600000,0.68200000,-0.00420000,0.03050000,-0.01700000,0.05950000,0.99060000
$GPFPD,2292,466511.800,112.789,-0.072,0.958,31.42730655,120.62760288,16.683,0.161,-0.063,-0.019,0.799,20,14,04*5A
$GTIMU,2292,466511.800,0.7388,-0.0276,0.0640,-0.0158,0.0769,1.0071,39.6*66
17:34::53.781,1702604111782,120.62760288,31.42730655,3478521.55166782,559670.36183744,112.78900000,6.00000000,0.16100000,-0.06300000,-0.01900000,0.73880000,-0.02760000,0.06400000,-0.01580000,0.07690000,1.00710000
$GPFPD,2292,466511.900,112.776,-0.049,0.953,31.42730648,120.62760308,16.682,0.212,-0.087,0.014,0.799,20,14,04*71
$GTIMU,2292,466511.900,0.2236,-0.0581,0.1394,-0.0145,0.0576,1.0338,39.6*6A
17:34::53.881,1702604111882,120.62760308,31.42730648,3478521.54401484,559670.38089744,112.77600000,6.00000000,0.21200000,-0.08700000,0.01400000,0.22360000,-0.05810000,0.13940000,-0.01450000,0.05760000,1.03380000
$GPFPD,2292,466512.000,112.759,-0.081,0.955,31.42730639,120.62760334,16.684,0.261,-0.107,0.016,0.799,20,14,04*74
$GTIMU,2292,466512.000,-0.3295,0.0189,0.1704,-0.0176,0.0534,1.0010,39.6*66
17:34::53.980,1702604111982,120.62760334,31.42730639,3478521.53417685,559670.40567482,112.75900000,6.00000000,0.26100000,-0.10700000,0.01600000,-0.32950000,0.01890000,0.17040000,-0.01760000,0.05340000,1.00100000
$GPGGA,093454.00,3125.6385243,N,12037.6568905,E,1,14,1.0,9.737,M,7.80,M,,*6C
$GPFPD,2292,466512.100,112.742,-0.080,0.959,31.42730628,120.62760364,16.685,0.313,-0.129,-0.002,0.799,20,14,04*56
$GTIMU,2292,466512.100,0.0031,0.0352,0.1713,-0.0160,0.0560,0.9819,39.6*48
17:34::54.080,1702604112082,120.62760364,31.42730628,3478521.52214298,559670.43426799,112.74200000,6.00000000,0.31300000,-0.12900000,-0.00200000,0.00310000,0.03520000,0.17130000,-0.01600000,0.05600000,0.98190000
$GPFPD,2292,466512.200,112.719,-0.046,0.961,31.42730616,120.62760400,16.684,0.384,-0.158,-0.014,0.797,20,14,04*52
$GTIMU,2292,466512.200,0.3347,0.0242,0.2355,-0.0172,0.0780,0.9878,39.6*47
17:34::54.180,1702604112182,120.62760400,31.42730616,3478521.50903289,559670.46857220,112.71900000,6.00000000,0.38400000,-0.15800000,-0.01400000,0.33470000,0.02420000,0.23550000,-0.01720000,0.07800000,0.98780000
$GPFPD,2292,466512.300,112.689,0.023,0.959,31.42730599,120.62760446,16.683,0.485,-0.201,-0.020,0.797,20,14,04*71
$GTIMU,2292,466512.300,0.6804,-0.0250,0.3179,-0.0185,0.1132,0.9897,39.6*6B
17:34::54.280,1702604112282,120.62760446,31.42730599,3478521.49043311,559670.51241592,112.68900000,6.00000000,0.48500000,-0.20100000,-0.02000000,0.68040000,-0.02500000,0.31790000,-0.01850000,0.11320000,0.98970000
$GPFPD,2292,466512.400,112.652,0.090,0.940,31.42730579,120.62760501,16.687,0.596,-0.246,-0.002,0.797,20,14,04*78
$GTIMU,2292,466512.400,0.6627,-0.1944,0.3801,-0.0180,0.1238,1.0172,39.6*6C
17:34::54.381,1702604112382,120.62760501,31.42730579,3478521.46855582,559670.56483568,112.65200000,6.00000000,0.59600000,-0.24600000,-0.00200000,0.66270000,-0.19440000,0.38010000,-0.01800000,0.12380000,1.01720000
$GPFPD,2292,466512.500,112.605,0.089,0.914,31.42730554,120.62760568,16.693,0.700,-0.291,0.022,0.795,20,14,04*5D
$GTIMU,2292,466512.500,-0.0233,-0.2527,0.4701,-0.0149,0.1182,1.0241,39.6*41
17:34::54.481,1702604112482,120.62760568,31.42730554,3478521.44119969,559670.62869652,112.60500000,6.00000000,0.70000000,-0.29100000,0.02200000,-0.02330000,-0.25270000,0.47010000,-0.01490000,0.11820000,1.02410000
$GPFPD,2292,466512.600,112.542,0.061,0.897,31.42730525,120.62760645,16.700,0.807,-0.339,0.016,0.795,20,14,04*5F
$GTIMU,2292,466512.600,-0.2963,-0.1783,0.6293,-0.0127,0.1216,0.9940,39.6*49
17:34::54.581,1702604112582,120.62760645,31.42730525,3478521.40946268,559670.70209053,112.54200000,6.00000000,0.80700000,-0.33900000,0.01600000,-0.29630000,-0.17830000,0.62930000,-0.01270000,0.12160000,0.99400000
$GPFPD,2292,466512.700,112.478,0.047,0.895,31.42730492,120.62760734,16.706,0.912,-0.382,0.006,0.797,18,14,04*51
$GTIMU,2292,466512.700,-0.1444,-0.0187,0.6404,-0.0167,0.1168,0.9892,39.6*48
17:34::54.681,1702604112682,120.62760734,31.42730492,3478521.37335564,559670.78691927,112.47800000,6.00000000,0.91200000,-0.38200000,0.00600000,-0.14440000,-0.01870000,0.64040000,-0.01670000,0.11680000,0.98920000
$GPFPD,2292,466512.800,112.419,0.040,0.916,31.42730455,120.62760833,16.711,1.007,-0.425,0.005,0.797,18,14,04*54
$GTIMU,2292,466512.800,-0.0874,0.2126,0.5901,-0.0124,0.1079,0.9984,39.6*66
17:34::54.780,1702604112782,120.62760833,31.42730455,3478521.33286771,559670.88128119,112.41900000,6.00000000,1.00700000,-0.42500000,0.00500000,-0.08740000,0.21260000,0.59010000,-0.01240000,0.10790000,0.99840000
$GPFPD,2292,466512.900,112.345,0.024,0.946,31.42730415,120.62760944,16.712,1.096,-0.465,0.013,0.789,18,14,04*5E
$GTIMU,2292,466512.900,-0.1771,0.2938,0.7368,-0.0127,0.1012,1.0074,39.6*6C
17:34::54.880,1702604112882,120.62760944,31.42730415,3478521.28911855,559670.98707151,112.34500000,6.00000000,1.09600000,-0.46500000,0.01300000,-0.17710000,0.29380000,0.73680000,-0.01270000,0.10120000,1.00740000
$GPFPD,2292,466513.000,112.257,-0.015,0.975,31.42730371,120.62761064,16.713,1.182,-0.495,0.021,0.789,18,14,04*7F
$GTIMU,2292,466513.000,-0.4088,0.2903,0.8805,-0.0227,0.0938,1.0077,39.6*67
17:34::54.980,1702604112982,120.62761064,31.42730371,3478521.24098307,559671.10144422,112.25700000,6.00000000,1.18200000,-0.49500000,0.02100000,-0.40880000,0.29030000,0.88050000,-0.02270000,0.09380000,1.00770000
$GPGGA,093455.00,3125.6384076,N,12037.6573336,E,1,14,1.0,9.712,M,7.80,M,,*6F
$GPFPD,2292,466513.100,112.171,-0.062,0.981,31.42730325,120.62761193,16.715,1.256,-0.519,0.018,0.789,18,14,04*79
$GTIMU,2292,466513.100,-0.4819,0.0653,0.8545,-0.0230,0.0783,0.9970,39.6*69
17:34::55.081,1702604113082,120.62761193,31.42730325,3478521.19067888,559671.22438665,112.17100000,6.00000000,1.25600000,-0.51900000,0.01800000,-0.48190000,0.06530000,0.85450000,-0.02300000,0.07830000,0.99700000
$GPFPD,2292,466513.200,112.079,-0.094,0.970,31.42730277,120.62761329,16.717,1.325,-0.542,0.010,0.802,20,14,04*77
$GTIMU,2292,466513.200,-0.3374,-0.1173,0.9146,-0.0217,0.0735,0.9915,39.6*49
17:34::55.181,1702604113182,120.62761329,31.42730277,3478521.13819510,559671.35399723,112.07900000,6.00000000,1.32500000,-0.54200000,0.01000000,-0.33740000,-0.11730000,0.91460000,-0.02170000,0.07350000,0.99150000
