$GPFPD,2292,529548.600,113.044,-0.646,1.101,31.42738155,120.62738785,12.447,0.001,0.002,-0.006,0.801,18,16,04*71
$GTIMU,2292,529548.600,-0.0184,0.0161,-0.0117,-0.0171,-0.0092,0.9990,26.9*60
11:05::30.589,1702667148582,120.62738785,31.42738155,3478529.75090616,559649.86965348,113.04400000,6.00000000,0.00100000,0.00200000,-0.00600000,-0.01840000,0.01610000,-0.01170000,-0.01710000,-0.00920000,0.99900000
$GPFPD,2292,529548.700,113.043,-0.644,1.100,31.42738158,120.62738786,12.443,-0.000,0.005,-0.005,0.800,18,16,04*57
$GTIMU,2292,529548.700,0.0122,-0.0141,0.0099,-0.0211,-0.0129,1.0009,26.9*40
11:05::30.689,1702667148682,120.62738786,31.42738158,3478529.75423799,559649.87058527,113.04300000,6.00000000,0.00000000,0.00500000,-0.00500000,0.01220000,-0.01410000,0.00990000,-0.02110000,-0.01290000,1.00090000
$GPFPD,2292,529548.800,113.043,-0.645,1.100,31.42738160,120.62738787,12.439,-0.001,0.004,-0.006,0.800,18,16,04*5D
$GTIMU,2292,529548.800,-0.0127,-0.0021,-0.0003,-0.0174,-0.0109,0.9985,26.9*49
11:05::30.789,1702667148782,120.62738787,31.42738160,3478529.75646102,559649.87152340,113.04300000,6.00000000,-0.00100000,0.00400000,-0.00600000,-0.01270000,-0.00210000,-0.00030000,-0.01740000,-0.01090000,0.99850000
$GPFPD,2292,529548.900,113.043,-0.644,1.098,31.42738160,120.62738787,12.439,-0.000,0.004,-0.006,0.800,18,16,04*5C
$GTIMU,2292,529548.900,0.0128,-0.0180,0.0013,-0.0200,-0.0104,0.9998,26.9*4D
11:05::30.889,1702667148882,120.62738787,31.42738160,3478529.75646102,559649.87152340,113.04300000,6.00000000,0.00000000,0.00400000,-0.00600000,0.01280000,-0.01800000,0.00130000,-0.02000000,-0.01040000,0.99980000
$GPFPD,2292,529549.000,113.043,-0.645,1.101,31.42738161,120.62738787,12.438,0.000,0.002,-0.006,0.800,18,16,04*7F
$GTIMU,2292,529549.000,-0.0223,0.0320,0.0031,-0.0168,-0.0091,0.9993,26.9*4E
11:05::30.988,1702667148982,120.62738787,31.42738161,3478529.75756982,559649.87151706,113.04300000,6.00000000,0.00000000,0.00200000,-0.00600000,-0.02230000,0.03200000,0.00310000,-0.01680000,-0.00910000,0.99930000
$GPGGA,030531.00,3125.6428753,N,12037.6439601,E,1,16,1.0,5.009,M,7.80,M,,*69
$GPFPD,2292,529549.100,113.043,-0.645,1.098,31.42738161,120.62738787,12.438,0.000,0.006,-0.005,0.800,18,16,04*78
$GTIMU,2292,529549.100,0.0054,-0.0294,0.0031,-0.0226,-0.0124,1.0008,26.9*46
11:05::31.089,1702667149082,120.62738787,31.42738161,3478529.75756982,559649.87151706,113.04300000,6.00000000,0.00000000,0.00600000,-0.00500000,0.00540000,-0.02940000,0.00310000,-0.02260000,-0.01240000,1.00080000
$GPFPD,2292,529549.200,113.043,-0.645,1.101,31.42738162,120.62738787,12.437,-0.002,0.003,-0.006,0.802,18,16,04*5D
$GTIMU,2292,529549.200,-0.0087,0.0195,0.0002,-0.0155,-0.0115,0.9984,26.9*49
11:05::31.189,1702667149182,120.62738787,31.42738162,3478529.75867862,559649.87151073,113.04300000,6.00000000,-0.00200000,0.00300000,-0.00600000,-0.00870000,0.01950000,0.00020000,-0.01550000,-0.01150000,0.99840000
$GPFPD,2292,529549.300,113.042,-0.644,1.098,31.42738162,120.62738787,12.436,0.001,0.005,-0.004,0.800,18,16,04*74
$GTIMU,2292,529549.300,0.0122,-0.0311,0.0065,-0.0217,-0.0094,0.9995,26.9*44
11:05::31.289,1702667149282,120.62738787,31.42738162,3478529.75867862,559649.87151073,113.04200000,6.00000000,0.00100000,0.00500000,-0.00400000,0.01220000,-0.03110000,0.00650000,-0.02170000,-0.00940000,0.99950000
$GPFPD,2292,529549.400,113.043,-0.646,1.102,31.42738162,120.62738787,12.435,0.000,0.002,-0.004,0.800,18,16,04*77
$GTIMU,2292,529549.400,-0.0252,0.0417,-0.0054,-0.0163,-0.0098,0.9996,26.9*66
11:05::31.389,1702667149382,120.62738787,31.42738162,3478529.75867862,559649.87151073,113.04300000,6.00000000,0.00000000,0.00200000,-0.00400000,-0.02520000,0.04170000,-0.00540000,-0.01630000,-0.00980000,0.99960000
$GPFPD,2292,529549.500,113.042,-0.644,1.099,31.42738162,120.62738787,12.433,0.000,0.005,-0.003,0.801,18,16,04*71
$GTIMU,2292,529549.500,0.0099,-0.0334,0.0105,-0.0220,-0.0125,1.0004,26.9*45
11:05::31.489,1702667149482,120.62738787,31.42738162,3478529.75867862,559649.87151073,113.04200000,6.00000000,0.00000000,0.00500000,-0.00300000,0.00990000,-0.03340000,0.01050000,-0.02200000,-0.01250000,1.00040000
$GPFPD,2292,529549.600,113.042,-0.646,1.099,31.42738163,120.62738788,12.432,-0.001,0.003,-0.004,0.801,18,16,04*52
$GTIMU,2292,529549.600,-0.0156,0.0047,-0.0037,-0.0167,-0.0106,0.9986,26.9*64
11:05::31.589,1702667149582,120.62738788,31.42738163,3478529.75979284,559649.87245518,113.04200000,6.00000000,-0.00100000,0.00300000,-0.00400000,-0.01560000,0.00470000,-0.00370000,-0.01670000,-0.01060000,0.99860000
$GPFPD,2292,529549.700,113.042,-0.644,1.100,31.42738163,120.62738788,12.431,-0.001,0.005,-0.003,0.798,18,16,04*5D
$GTIMU,2292,529549.700,0.0174,0.0002,0.0030,-0.0203,-0.0114,1.0002,26.9*6C
11:05::31.689,1702667149682,120.62738788,31.42738163,3478529.75979284,559649.87245518,113.04200000,6.00000000,-0.00100000,0.00500000,-0.00300000,0.01740000,0.00020000,0.00300000,-0.02030000,-0.01140000,1.00020000
$GPFPD,2292,529549.800,113.042,-0.645,1.101,31.42738163,120.62738788,12.429,0.001,0.003,-0.004,0.798,18,16,04*77
$GTIMU,2292,529549.800,-0.0207,0.0098,0.0037,-0.0176,-0.0084,0.9987,26.9*48
11:05::31.789,1702667149782,120.62738788,31.42738163,3478529.75979284,559649.87245518,113.04200000,6.00000000,0.00100000,0.00300000,-0.00400000,-0.02070000,0.00980000,0.00370000,-0.01760000,-0.00840000,0.99870000
$GPFPD,2292,529549.900,113.042,-0.644,1.101,31.42738164,120.62738788,12.429,-0.000,0.005,-0.003,0.801,18,16,04*52
$GTIMU,2292,529549.900,0.0054,-0.0004,0.0025,-0.0206,-0.0128,1.0011,26.9*46
11:05::31.889,1702667149882,120.62738788,31.42738164,3478529.76090164,559649.87244885,113.04200000,6.00000000,0.00000000,0.00500000,-0.00300000,0.00540000,-0.00040000,0.00250000,-0.02060000,-0.01280000,1.00110000
$GPFPD,2292,529550.000,113.042,-0.645,1.099,31.42738164,120.62738788,12.429,-0.000,0.004,-0.004,0.801,18,16,04*54
$GTIMU,2292,529550.000,-0.0122,-0.0186,0.0037,-0.0181,-0.0102,0.9980,26.9*6F
11:05::31.989,1702667149982,120.62738788,31.42738164,3478529.76090164,559649.87244885,113.04200000,6.00000000,0.00000000,0.00400000,-0.00400000,-0.01220000,-0.01860000,0.00370000,-0.01810000,-0.01020000,0.99800000
$GPGGA,030532.00,3125.6428776,N,12037.6439577,E,1,16,1.0,4.996,M,7.80,M,,*61
$GPFPD,2292,529550.100,113.042,-0.644,1.098,31.42738165,120.62738788,12.428,0.000,0.005,-0.003,0.801,18,16,04*7E
$GTIMU,2292,529550.100,0.0100,-0.0101,0.0019,-0.0202,-0.0110,1.0005,26.9*47
11:05::32.089,1702667150082,120.62738788,31.42738165,3478529.76201044,559649.87244252,113.04200000,6.00000000,0.00000000,0.00500000,-0.00300000,0.01000000,-0.01010000,0.00190000,-0.02020000,-0.01100000,1.00050000
$GPFPD,2292,529550.200,113.042,-0.646,1.099,31.42738165,120.62738788,12.428,0.000,0.003,-0.004,0.799,18,16,04*71
$GTIMU,2292,529550.200,-0.0246,0.0076,0.0009,-0.0167,-0.0097,0.9992,26.9*44
11:05::32.189,1702667150182,120.62738788,31.42738165,3478529.76201044,559649.87244252,113.04200000,6.00000000,0.00000000,0.00300000,-0.00400000,-0.02460000,0.00760000,0.00090000,-0.01670000,-0.00970000,0.99920000
$GPFPD,2292,529550.300,113.041,-0.645,1.097,31.42738166,120.62738788,12.427,-0.001,0.008,-0.004,0.802,18,16,04*58
$GTIMU,2292,529550.300,0.0111,-0.0192,0.0048,-0.0218,-0.0122,0.9993,26.9*4F
11:05::32.289,1702667150282,120.62738788,31.42738166,3478529.76311924,559649.87243619,113.04100000,6.00000000,-0.00100000,0.00800000,-0.00400000,0.01110000,-0.01920000,0.00480000,-0.02180000,-0.01220000,0.99930000
$GPFPD,2292,529550.400,113.042,-0.645,1.099,31.42738169,120.62738786,12.422,-0.002,0.004,-0.004,0.802,18,16,04*59
$GTIMU,2292,529550.400,-0.0076,0.0184,-0.0032,-0.0158,-0.0102,0.9999,26.9*60
11:05::32.389,1702667150382,120.62738786,31.42738169,3478529.76643478,559649.87051563,113.04200000,6.00000000,-0.00200000,0.00400000,-0.00400000,-0.00760000,0.01840000,-0.00320000,-0.01580000,-0.01020000,0.99990000
$GPFPD,2292,529550.500,113.041,-0.645,1.097,31.42738172,120.62738785,12.418,0.000,0.007,-0.003,0.800,18,16,04*7C
$GTIMU,2292,529550.500,-0.0025,-0.0266,0.0088,-0.0221,-0.0099,1.0003,26.9*65
11:05::32.489,1702667150482,120.62738785,31.42738172,3478529.76975575,559649.86954586,113.04100000,6.00000000,0.00000000,0.00700000,-0.00300000,-0.00250000,-0.02660000,0.00880000,-0.02210000,-0.00990000,1.00030000
$GPFPD,2292,529550.600,113.042,-0.646,1.099,31.42738175,120.62738783,12.414,-0.002,0.005,-0.004,0.800,18,16,04*56
$GTIMU,2292,529550.600,-0.0099,0.0218,-0.0049,-0.0165,-0.0119,0.9990,26.9*64
11:05::32.589,1702667150582,120.62738783,31.42738175,3478529.77307129,559649.86762530,113.04200000,6.00000000,-0.00200000,0.00500000,-0.00400000,-0.00990000,0.02180000,-0.00490000,-0.01650000,-0.01190000,0.99900000
$GPFPD,2292,529550.700,113.041,-0.645,1.095,31.42738178,120.62738782,12.409,-0.001,0.007,-0.004,0.802,18,16,04*58
$GTIMU,2292,529550.700,0.0003,-0.0374,0.0099,-0.0208,-0.0107,0.9998,26.9*42
11:05::32.689,1702667150682,120.62738782,31.42738178,3478529.77639226,559649.86665552,113.04100000,6.00000000,-0.00100000,0.00700000,-0.00400000,0.00030000,-0.03740000,0.00990000,-0.02080000,-0.01070000,0.99980000
$GPFPD,2292,529550.800,113.042,-0.646,1.098,31.42738180,120.62738781,12.406,-0.001,0.006,-0.003,0.802,18,16,04*57
$GTIMU,2292,529550.800,-0.0059,0.0241,-0.0072,-0.0181,-0.0106,0.9998,26.9*6E
11:05::32.789,1702667150782,120.62738781,31.42738180,3478529.77860442,559649.86569208,113.04200000,6.00000000,-0.00100000,0.00600000,-0.00300000,-0.00590000,0.02410000,-0.00720000,-0.01810000,-0.01060000,0.99980000
$GPFPD,2292,529550.900,113.041,-0.645,1.093,31.42738181,120.62738780,12.406,0.000,0.006,-0.004,0.800,18,16,04*74
$GTIMU,2292,529550.900,-0.0003,-0.0470,0.0036,-0.0196,-0.0096,0.9986,26.9*65
11:05::32.889,1702667150882,120.62738780,31.42738181,3478529.77970779,559649.86473496,113.04100000,6.00000000,0.00000000,0.00600000,-0.00400000,-0.00030000,-0.04700000,0.00360000,-0.01960000,-0.00960000,0.99860000
$GPFPD,2292,529551.000,113.041,-0.644,1.096,31.42738182,120.62738780,12.405,-0.002,0.006,-0.003,0.800,18,16,04*50
$GTIMU,2292,529551.000,0.0112,0.0274,0.0082,-0.0174,-0.0124,1.0011,26.9*6A
11:05::32.989,1702667150982,120.62738780,31.42738182,3478529.78081659,559649.86472863,113.04100000,6.00000000,-0.00200000,0.00600000,-0.00300000,0.01120000,0.02740000,0.00820000,-0.01740000,-0.01240000,1.00110000
$GPFPD,2292,529551.100,113.041,-0.645,1.095,31.42738182,120.62738780,12.405,-0.001,0.006,-0.004,0.800,18,16,04*57
$GTIMU,2292,529551.100,-0.0162,-0.0135,0.0037,-0.0198,-0.0101,0.9981,26.9*69
$GPFPD,2292,529551.200,113.040,-0.644,1.100,31.42738183,120.62738780,12.405,-0.001,0.006,-0.004,0.801,18,16,04*59
$GTIMU,2292,529551.200,0.0044,0.0462,0.0036,-0.0183,-0.0112,0.9997,26.9*66
$GPFPD,2292,529551.300,113.039,-0.644,1.096,31.42738184,120.62738779,12.404,-0.002,0.008,-0.003,0.802,18,16,04*51
$GTIMU,2292,529551.300,0.0014,-0.0447,0.0059,-0.0211,-0.0096,0.9997,26.9*44
$GPFPD,2292,529551.400,113.040,-0.645,1.099,31.42738185,120.62738776,12.401,-0.004,0.006,-0.003,0.802,18,16,04*55
$GTIMU,2292,529551.400,-0.0116,0.0360,-0.0077,-0.0162,-0.0118,1.0000,26.9*6C
$GPFPD,2292,529551.500,113.039,-0.643,1.095,31.42738187,120.62738774,12.399,-0.003,0.009,-0.004,0.801,18,16,04*5A
$GTIMU,2292,529551.500,0.0128,-0.0465,0.0144,-0.0223,-0.0115,0.9984,26.9*48
$GPFPD,2292,529551.600,113.041,-0.644,1.098,31.42738189,120.62738771,12.396,-0.003,0.006,-0.003,0.801,18,16,04*50
$GTIMU,2292,529551.600,-0.0104,0.0326,-0.0163,-0.0157,-0.0098,1.0006,26.9*62
$GPFPD,2292,529551.700,113.040,-0.645,1.095,31.42738191,120.62738768,12.393,-0.001,0.008,-0.003,0.801,18,16,04*54
$GTIMU,2292,529551.700,-0.0128,-0.0328,0.0122,-0.0211,-0.0092,0.9998,26.9*6B
$GPFPD,2292,529551.800,113.040,-0.644,1.100,31.42738192,120.62738765,12.391,-0.004,0.006,-0.003,0.801,18,16,04*50
$GTIMU,2292,529551.800,0.0033,0.0479,0.0048,-0.0163,-0.0125,0.9993,26.9*61
$GPFPD,2292,529551.900,113.040,-0.644,1.097,31.42738193,120.62738765,12.391,-0.003,0.009,-0.003,0.801,18,16,04*57
$GTIMU,2292,529551.900,-0.0066,-0.0322,-0.0026,-0.0228,-0.0112,0.9998,26.9*4F
$GPFPD,2292,529552.000,113.039,-0.644,1.097,31.42738194,120.62738765,12.391,-0.004,0.007,-0.003,0.801,18,16,04*5D
$GTIMU,2292,529552.000,0.0026,0.0002,0.0088,-0.0160,-0.0109,0.9991,26.9*65
$GPGGA,030533.00,3125.6428828,N,12037.6439589,E,1,16,1.0,4.999,M,7.80,M,,*6A
$GPFPD,2292,529552$GPGGA,03.100,113.0534.00,3040,-0.64125.642884,1.098,342,N,12031.42738197.64396455,120.627,E,1,16,138765,12..0,5.025,391,-0.00M,7.80,M,1,0.007,-,*6D
0.003,0.801,18,16,04*59
$GTIMU,2292,529552.100,-0.0042,0.0064,0.0002,-0.0196,-0.0084,0.9995,26.9*40
11:05::34.089,1702667152082,120.62738765,31.42738195,3478529.79514955,559649.85038459,113.04000000,6.00000000,-0.00100000,0.00700000,-0.00300000,-0.00420000,0.00640000,0.00020000,-0.01960000,-0.00840000,0.99950000
$GPFPD,2292,529552.200,113.041,-0.642,1.099,31.42738195,120.62738764,12.390,-0.003,0.008,-0.002,0.799,18,16,04*5E
$GTIMU,2292,529552.200,0.0145,0.0144,-0.0095,-0.0201,-0.0127,1.0007,26.9*47
11:05::34.189,1702667152182,120.62738764,31.42738195,3478529.79514412,559649.84943380,113.04100000,6.00000000,-0.00300000,0.00800000,-0.00200000,0.01450000,0.01440000,-0.00950000,-0.02010000,-0.01270000,1.00070000
$GPFPD,2292,529552.300,113.039,-0.643,1.096,31.42738195,120.62738765,12.387,-0.001,0.005,-0.008,0.803,18,16,04*50
$GTIMU,2292,529552.300,-0.0133,-0.0351,0.0151,-0.0181,-0.0110,0.9985,26.9*61
11:05::34.289,1702667152282,120.62738765,31.42738195,3478529.79514955,559649.85038459,113.03900000,6.00000000,-0.00100000,0.00500000,-0.00800000,-0.01330000,-0.03510000,0.01510000,-0.01810000,-0.01100000,0.99850000
$GPFPD,2292,529552.400,113.039,-0.643,1.096,31.42738191,120.62738769,12.376,0.000,0.005,-0.007,0.803,18,16,04*72
$GTIMU,2292,529552.400,0.0003,-0.0061,0.0008,-0.0195,-0.0099,0.9999,26.9*4C
11:05::34.389,1702667152382,120.62738769,31.42738191,3478529.79073607,559649.85421304,113.03900000,6.00000000,0.00000000,0.00500000,-0.00700000,0.00030000,-0.00610000,0.00080000,-0.01950000,-0.00990000,0.99990000
$GPFPD,2292,529552.500,113.040,-0.645,1.101,31.42738188,120.62738773,12.365,-0.000,0.002,-0.008,0.798,18,16,04*5D
$GTIMU,2292,529552.500,-0.0263,0.0514,-0.0060,-0.0161,-0.0099,0.9994,26.9*6B
11:05::34.489,1702667152482,120.62738773,31.42738188,3478529.78743139,559649.85803517,113.04000000,6.00000000,0.00000000,0.00200000,-0.00800000,-0.02630000,0.05140000,-0.00600000,-0.01610000,-0.00990000,0.99940000
$GPFPD,2292,529552.600,113.039,-0.643,1.099,31.42738184,120.62738778,12.354,-0.000,0.007,-0.007,0.798,18,16,04*59
$GTIMU,2292,529552.600,0.0151,-0.0203,0.0093,-0.0237,-0.0125,1.0001,26.9*41
11:05::34.589,1702667152582,120.62738778,31.42738184,3478529.78302333,559649.86281441,113.03900000,6.00000000,0.00000000,0.00700000,-0.00700000,0.01510000,-0.02030000,0.00930000,-0.02370000,-0.01250000,1.00010000
$GPFPD,2292,529552.700,113.040,-0.645,1.099,31.42738181,120.62738782,12.343,-0.001,0.005,-0.007,0.800,18,16,04*5B
$GTIMU,2292,529552.700,-0.0241,-0.0049,-0.0066,-0.0163,-0.0107,0.9995,26.9*4A
11:05::34.689,1702667152682,120.62738782,31.42738181,3478529.77971865,559649.86663653,113.04000000,6.00000000,-0.00100000,0.00500000,-0.00700000,-0.02410000,-0.00490000,-0.00660000,-0.01630000,-0.01070000,0.99950000
$GPFPD,2292,529552.800,113.039,-0.644,1.095,31.42738179,120.62738785,12.335,0.000,0.005,-0.007,0.800,18,16,04*7A
$GTIMU,2292,529552.800,0.0099,-0.0357,0.0122,-0.0194,-0.0095,0.9992,26.9*4A
11:05::34.789,1702667152782,120.62738785,31.42738179,3478529.77751734,559649.86950154,113.03900000,6.00000000,0.00000000,0.00500000,-0.00700000,0.00990000,-0.03570000,0.01220000,-0.01940000,-0.00950000,0.99920000
$GPFPD,2292,529552.900,113.039,-0.644,1.102,31.42738179,120.62738785,12.334,-0.000,0.003,-0.008,0.799,18,16,04*5E
$GTIMU,2292,529552.900,-0.0052,0.0690,-0.0009,-0.0172,-0.0107,0.9993,26.9*64
11:05::34.889,1702667152882,120.62738785,31.42738179,3478529.77751734,559649.86950154,113.03900000,6.00000000,0.00000000,0.00300000,-0.00800000,-0.00520000,0.06900000,-0.00090000,-0.01720000,-0.01070000,0.99930000
$GPFPD,2292,529553.000,113.039,-0.642,1.098,31.42738179,120.62738785,12.333,0.000,0.007,-0.007,0.799,18,16,04*73
$GTIMU,2292,529553.000,0.0207,-0.0459,0.0025,-0.0227,-0.0118,1.0007,26.9*4B
11:05::34.989,1702667152982,120.62738785,31.42738179,3478529.77751734,559649.86950154,113.03900000,6.00000000,0.00000000,0.00700000,-0.00700000,0.02070000,-0.04590000,0.00250000,-0.02270000,-0.01180000,1.00070000
$GPGGA,030535.00,3125.6428842,N,12037.6439613,E,1,16,1.0,5.139,M,7.80,M,,*63
$GPFPD,2292,529553.100,113.039,-0.643,1.099,31.42738180,120.62738785,12.333,-0.001,0.004,-0.007,0.799,18,16,04*5B
$GTIMU,2292,529553.100,-0.0184,0.0127,0.0048,-0.0161,-0.0109,0.9989,26.9*43
11:05::35.088,1702667153082,120.62738785,31.42738180,3478529.77862614,559649.86949521,113.03900000,6.00000000,-0.00100000,0.00400000,-0.00700000,-0.01840000,0.01270000,0.00480000,-0.01610000,-0.01090000,0.99890000
$GPFPD,2292,529553.200,113.039,-0.642,1.096,31.42738180,120.62738785,12.332,-0.000,0.006,-0.008,0.798,18,16,04*5A
$GTIMU,2292,529553.200,0.0139,-0.0317,-0.0032,-0.0211,-0.0107,0.9992,26.9*67
11:05::35.189,1702667153182,120.62738785,31.42738180,3478529.77862614,559649.86949521,113.03900000,6.00000000,0.00000000,0.00600000,-0.00800000,0.01390000,-0.03170000,-0.00320000,-0.02110000,-0.01070000,0.99920000
$GPFPD,2292,529553.300,113.038,-0.645,1.100,31.42738181,120.62738784,12.330,-0.002,0.003,-0.008,0.801,18,16,04*59
$GTIMU,2292,529553.300,-0.0336,0.0383,0.0083,-0.0155,-0.0093,1.0008,26.9*4C
11:05::35.289,1702667153282,120.62738784,31.42738181,3478529.77972951,559649.86853810,113.03800000,6.00000000,-0.00200000,0.00300000,-0.00800000,-0.03360000,0.03830000,0.00830000,-0.01550000,-0.00930000,1.00080000
$GPFPD,2292,529553.400,113.038,-0.645,1.098,31.42738182,120.62738782,12.326,-0.001,0.007,-0.008,0.801,18,16,04*5B
$GTIMU,2292,529553.400,-0.0088,-0.0209,0.0025,-0.0235,-0.0119,0.9990,26.9*69
11:05::35.389,1702667153382,120.62738782,31.42738182,3478529.78082745,559649.86663020,113.03800000,6.00000000,-0.00100000,0.00700000,-0.00800000,-0.00880000,-0.02090000,0.00250000,-0.02350000,-0.01190000,0.99900000
$GPFPD,2292,529553.500,113.039,-0.647,1.100,31.42738183,120.62738780,12.321,-0.003,0.004,-0.008,0.799,18,16,04*52
$GTIMU,2292,529553.500,-0.0196,0.0116,-0.0117,-0.0154,-0.0115,0.9996,26.9*65
11:05::35.489,1702667153482,120.62738780,31.42738183,3478529.78192539,559649.86472230,113.03900000,6.00000000,-0.00300000,0.00400000,-0.00800000,-0.01960000,0.01160000,-0.01170000,-0.01540000,-0.01150000,0.99960000
$GPFPD,2292,529553.600,113.037,-0.648,1.098,31.42738184,120.62738777,12.316,-0.001,0.006,-0.009,0.799,18,16,04*5A
$GTIMU,2292,529553.600,-0.0133,-0.0180,0.0202,-0.0209,-0.0091,0.9990,26.9*61
11:05::35.589,1702667153582,120.62738777,31.42738184,3478529.78301790,559649.86186362,113.03700000,6.00000000,-0.00100000,0.00600000,-0.00900000,-0.01330000,-0.01800000,0.02020000,-0.02090000,-0.00910000,0.99900000
$GPFPD,2292,529553.700,113.038,-0.647,1.101,31.42738185,120.62738775,12.311,-0.002,0.004,-0.009,0.798,18,16,04*5E
$GTIMU,2292,529553.700,0.0026,0.0320,-0.0049,-0.0174,-0.0117,0.9999,26.9*42
11:05::35.689,1702667153682,120.62738775,31.42738185,3478529.78411585,559649.85995573,113.03800000,6.00000000,-0.00200000,0.00400000,-0.00900000,0.00260000,0.03200000,-0.00490000,-0.01740000,-0.01170000,0.99990000
$GPFPD,2292,529553.800,113.038,-0.649,1.099,31.42738186,120.62738773,12.307,-0.001,0.006,-0.008,0.798,18,16,04*5D
$GTIMU,2292,529553.800,-0.0190,-0.0260,0.0026,-0.0210,-0.0108,1.0001,26.9*6F
11:05::35.789,1702667153782,120.62738773,31.42738186,3478529.78521379,559649.85804783,113.03800000,6.00000000,-0.00100000,0.00600000,-0.00800000,-0.01900000,-0.02600000,0.00260000,-0.02100000,-0.01080000,1.00010000
$GPFPD,2292,529553.900,113.037,-0.648,1.099,31.42738187,120.62738773,12.307,-0.002,0.006,-0.008,0.800,18,16,04*5E
$GTIMU,2292,529553.900,0.0032,0.0007,0.0071,-0.0182,-0.0112,0.9991,26.9*6D
11:05::35.889,1702667153882,120.62738773,31.42738187,3478529.78632259,559649.85804150,113.03700000,6.00000000,-0.00200000,0.00600000,-0.00800000,0.00320000,0.00070000,0.00710000,-0.01820000,-0.01120000,0.99910000
$GPFPD,2292,529554.000,113.038,-0.650,1.099,31.42738188,120.62738773,12.306,-0.001,0.005,-0.009,0.800,18,16,04*59
$GTIMU,2292,529554.000,-0.0179,-0.0072,-0.0043,-0.0185,-0.0094,0.9989,26.9*42
11:05::35.989,1702667153982,120.62738773,31.42738188,3478529.78743139,559649.85803517,113.03800000,6.00000000,-0.00100000,0.00500000,-0.00900000,-0.01790000,-0.00720000,-0.00430000,-0.01850000,-0.00940000,0.99890000
$GPFPD,2292,529554$GPGGA,03.100,113.0536.00,3038,-0.64125.642889,1.099,343,N,12031.42738187.64395568,120.627,E,1,16,138773,12..0,5.148,305,-0.00M,7.80,M,2,0.006,-,*65
0.007,0.800,18,16,04*5D
$GTIMU,2292,529554.100,-0.0008,0.0042,0.0042,-0.0196,-0.0124,1.0013,26.9*4C
11:05::36.089,1702667154082,120.62738773,31.42738188,3478529.78743139,559649.85803517,113.03800000,6.00000000,-0.00200000,0.00600000,-0.00700000,-0.00080000,0.00420000,0.00420000,-0.01960000,-0.01240000,1.00130000
$GPFPD,2292,529554.200,113.037,-0.651,1.099,31.42738189,120.62738773,12.304,-0.002,0.005,-0.009,0.800,18,16,04*55
$GTIMU,2292,529554.200,-0.0195,0.0002,0.0077,-0.0182,-0.0105,0.9980,26.9*45
11:05::36.189,1702667154182,120.62738773,31.42738189,3478529.78854018,559649.85802884,113.03700000,6.00000000,-0.00200000,0.00500000,-0.00900000,-0.01950000,0.00020000,0.00770000,-0.01820000,-0.01050000,0.99800000
$GPFPD,2292,529554.300,113.037,-0.649,1.100,31.42738190,120.62738772,12.304,-0.003,0.008,-0.004,0.800,18,16,04*54
$GTIMU,2292,529554.300,0.0139,0.0025,-0.0061,-0.0201,-0.0116,1.0003,26.9*40
11:05::36.289,1702667154282,120.62738772,31.42738190,3478529.78964355,559649.85707172,113.03700000,6.00000000,-0.00300000,0.00800000,-0.00400000,0.01390000,0.00250000,-0.00610000,-0.02010000,-0.01160000,1.00030000
$GPFPD,2292,529554.400,113.037,-0.651,1.099,31.42738192,120.62738771,12.308,-0.002,0.007,-0.005,0.800,18,16,04*59
$GTIMU,2292,529554.400,-0.0207,-0.0112,0.0065,-0.0181,-0.0090,0.9991,26.9*6B
11:05::36.389,1702667154382,120.62738771,31.42738192,3478529.79185572,559649.85610828,113.03700000,6.00000000,-0.00200000,0.00700000,-0.00500000,-0.02070000,-0.01120000,0.00650000,-0.01810000,-0.00900000,0.99910000
$GPFPD,2292,529554.500,113.037,-0.651,1.101,31.42738195,120.62738769,12.311,-0.003,0.007,-0.004,0.801,18,16,04*5F
$GTIMU,2292,529554.500,-0.0042,0.0206,-0.0009,-0.0193,-0.0125,1.0003,26.9*63
11:05::36.489,1702667154482,120.62738769,31.42738195,3478529.79517126,559649.85418772,113.03700000,6.00000000,-0.00300000,0.00700000,-0.00400000,-0.00420000,0.02060000,-0.00090000,-0.01930000,-0.01250000,1.00030000
$GPFPD,2292,529554.600,113.036,-0.652,1.099,31.42738198,120.62738768,12.315,-0.003,0.007,-0.005,0.801,18,16,04*57
$GTIMU,2292,529554.600,-0.0093,-0.0157,0.0094,-0.0189,-0.0102,0.9984,26.9*6F
11:05::36.589,1702667154582,120.62738768,31.42738198,3478529.79849223,559649.85321794,113.03600000,6.00000000,-0.00300000,0.00700000,-0.00500000,-0.00930000,-0.01570000,0.00940000,-0.01890000,-0.01020000,0.99840000
$GPFPD,2292,529554.700,113.037,-0.650,1.102,31.42738200,120.62738766,12.318,-0.003,0.008,-0.004,0.801,18,16,04*59
$GTIMU,2292,529554.700,0.0083,0.0195,-0.0026,-0.0195,-0.0114,1.0006,26.9*44
11:05::36.689,1702667154682,120.62738766,31.42738200,3478529.80069897,559649.85130371,113.03700000,6.00000000,-0.00300000,0.00800000,-0.00400000,0.00830000,0.01950000,-0.00260000,-0.01950000,-0.01140000,1.00060000
$GPFPD,2292,529554.800,113.037,-0.650,1.099,31.42738202,120.62738765,12.320,-0.002,0.007,-0.005,0.801,18,16,04*50
$GTIMU,2292,529554.800,-0.0026,-0.0294,0.0048,-0.0189,-0.0095,0.9985,26.9*6C
11:05::36.789,1702667154782,120.62738765,31.42738202,3478529.80291114,559649.85034027,113.03700000,6.00000000,-0.00200000,0.00700000,-0.00500000,-0.00260000,-0.02940000,0.00480000,-0.01890000,-0.00950000,0.99850000
$GPFPD,2292,529554.900,113.037,-0.650,1.102,31.42738203,120.62738765,12.320,-0.004,0.007,-0.004,0.800,18,16,04*55
$GTIMU,2292,529554.900,0.0021,0.0343,0.0019,-0.0183,-0.0129,1.0010,26.9*64
11:05::36.889,1702667154882,120.62738765,31.42738203,3478529.80401994,559649.85033394,113.03700000,6.00000000,-0.00400000,0.00700000,-0.00400000,0.00210000,0.03430000,0.00190000,-0.01830000,-0.01290000,1.00100000
$GPFPD,2292,529555.000,113.036,-0.650,1.100,31.42738204,120.62738765,12.319,-0.002,0.008,-0.005,0.800,18,16,04*5B
$GTIMU,2292,529555.000,-0.0043,-0.0254,0.0031,-0.0203,-0.0098,0.9987,26.9*6A
11:05::36.989,1702667154982,120.62738765,31.42738204,3478529.80512874,559649.85032761,113.03600000,6.00000000,-0.00200000,0.00800000,-0.00500000,-0.00430000,-0.02540000,0.00310000,-0.02030000,-0.00980000,0.99870000
$GPGGA,030537.00,3125.6428772,N,12037.6439618,E,1,16,1.0,5.175,M,7.80,M,,*6E
$GPFPD,2292,529555.100,113.036,-0.650,1.101,31.42738205,120.62738764,12.319,-0.002,0.008,-0.005,0.800,18,16,04*5B
$GTIMU,2292,529555.100,-0.0008,0.0070,0.0036,-0.0187,-0.0109,0.9998,26.9*42
11:05::37.089,1702667155082,120.62738764,31.42738205,3478529.80623211,559649.84937049,113.03600000,6.00000000,-0.00200000,0.00800000,-0.00500000,-0.00080000,0.00700000,0.00360000,-0.01870000,-0.01090000,0.99980000
$GPFPD,2292,529555.200,113.037,-0.651,1.099,31.42738205,120.62738764,12.318,-0.002,0.007,-0.004,0.799,18,16,04*58
$GTIMU,2292,529555.200,-0.0117,-0.0203,-0.0049,-0.0182,-0.0102,0.9999,26.9*4F
11:05::37.189,1702667155182,120.62738764,31.42738205,3478529.80623211,559649.84937049,113.03700000,6.00000000,-0.00200000,0.00700000,-0.00400000,-0.01170000,-0.02030000,-0.00490000,-0.01820000,-0.01020000,0.99990000
$GPFPD,2292,529555.300,113.035,-0.649,1.099,31.42738206,120.62738764,12.316,-0.004,0.009,-0.009,0.800,18,16,04*55
$GTIMU,2292,529555.300,0.0089,-0.0033,0.0122,-0.0201,-0.0131,0.9990,26.9*44
11:05::37.289,1702667155282,120.62738764,31.42738206,3478529.80734091,559649.84936416,113.03500000,6.00000000,-0.00400000,0.00900000,-0.00900000,0.00890000,-0.00330000,0.01220000,-0.02010000,-0.01310000,0.99900000
$GPFPD,2292,529555.400,113.035,-0.650,1.102,31.42738206,120.62738764,12.307,-0.004,0.006,-0.009,0.800,18,16,04*56
$GTIMU,2292,529555.400,-0.0093,0.0263,0.0020,-0.0166,-0.0096,0.9999,26.9*4B
11:05::37.389,1702667155382,120.62738764,31.42738206,3478529.80734091,559649.84936416,113.03500000,6.00000000,-0.00400000,0.00600000,-0.00900000,-0.00930000,0.02630000,0.00200000,-0.01660000,-0.00960000,0.99990000
$GPFPD,2292,529555.500,113.035,-0.650,1.100,31.42738206,120.62738764,12.298,-0.001,0.009,-0.009,0.801,18,16,04*59
$GTIMU,2292,529555.500,-0.0043,-0.0214,0.0048,-0.0222,-0.0098,0.9996,26.9*66
11:05::37.489,1702667155482,120.62738764,31.42738206,3478529.80734091,559649.84936416,113.03500000,6.00000000,-0.00100000,0.00900000,-0.00900000,-0.00430000,-0.02140000,0.00480000,-0.02220000,-0.00980000,0.99960000
$GPFPD,2292,529555.600,113.035,-0.650,1.104,31.42738207,120.62738763,12.288,-0.004,0.006,-0.008,0.801,18,16,04*52
$GTIMU,2292,529555.600,-0.0007,0.0417,-0.0003,-0.0160,-0.0120,0.9998,26.9*66
11:05::37.589,1702667155582,120.62738763,31.42738207,3478529.80844428,559649.84840705,113.03500000,6.00000000,-0.00400000,0.00600000,-0.00800000,-0.00070000,0.04170000,-0.00030000,-0.01600000,-0.01200000,0.99980000
$GPFPD,2292,529555.700,113.035,-0.650,1.101,31.42738207,120.62738763,12.279,-0.003,0.010,-0.009,0.802,18,16,04*5A
$GTIMU,2292,529555.700,-0.0043,-0.0334,0.0025,-0.0226,-0.0113,0.9994,26.9*68
11:05::37.689,1702667155682,120.62738763,31.42738207,3478529.80844428,559649.84840705,113.03500000,6.00000000,-0.00300000,0.01000000,-0.00900000,-0.00430000,-0.03340000,0.00250000,-0.02260000,-0.01130000,0.99940000
$GPFPD,2292,529555.800,113.036,-0.649,1.102,31.42738207,120.62738763,12.272,-0.003,0.008,-0.009,0.802,18,16,04*5F
$GTIMU,2292,529555.800,0.0003,0.0155,-0.0049,-0.0169,-0.0105,0.9989,26.9*42
11:05::37.789,1702667155782,120.62738763,31.42738207,3478529.80844428,559649.84840705,113.03600000,6.00000000,-0.00300000,0.00800000,-0.00900000,0.00030000,0.01550000,-0.00490000,-0.01690000,-0.01050000,0.99890000
$GPFPD,2292,529555.900,113.037,-0.650,1.103,31.42738208,120.62738763,12.271,-0.001,0.008,-0.008,0.802,18,16,04*59
$GTIMU,2292,529555.900,-0.0116,0.0008,-0.0100,-0.0198,-0.0091,1.0006,26.9*6A
11:05::37.889,1702667155882,120.62738763,31.42738208,3478529.80955308,559649.84840072,113.03700000,6.00000000,-0.00100000,0.00800000,-0.00800000,-0.01160000,0.00080000,-0.01000000,-0.01980000,-0.00910000,1.00060000
$GPFPD,2292,529556.000,113.037,-0.650,1.106,31.42738209,120.62738762,12.271,-0.003,0.009,-0.008,0.802,18,16,04*55
$GTIMU,2292,529556.000,-0.0030,0.0320,0.0002,-0.0193,-0.0125,0.9999,26.9*40
11:05::37.989,1702667155982,120.62738762,31.42738209,3478529.81065645,559649.84744360,113.03700000,6.00000000,-0.00300000,0.00900000,-0.00800000,-0.00300000,0.03200000,0.00020000,-0.01930000,-0.01250000,0.99990000
$GPFPD,2292,52955$GPGGA,06.100,1130538.00,3.038,-0.3125.642651,1.1058786,N,12,31.42738037.64396210,120.6201,E,1,16738762,12,1.0,5.13.270,-0.009,M,7.80,M4,0.009,-,,*6A
0.010,0.802,18,16,04*5E
$GTIMU,2292,529556.100,-0.0054,-0.0095,-0.0066,-0.0194,-0.0120,0.9976,26.9*4F
11:05::38.089,1702667156082,120.62738762,31.42738210,3478529.81176525,559649.84743727,113.03800000,6.00000000,-0.00400000,0.00900000,-0.01000000,-0.00540000,-0.00950000,-0.00660000,-0.01940000,-0.01200000,0.99760000
$GPFPD,2292,529556.200,113.038,-0.649,1.106,31.42738210,120.62738762,12.269,-0.002,0.009,-0.008,0.800,18,16,04*52
$GTIMU,2292,529556.200,0.0134,0.0115,0.0048,-0.0191,-0.0093,1.0015,26.9*6B
11:05::38.189,1702667156182,120.62738762,31.42738210,3478529.81176525,559649.84743727,113.03800000,6.00000000,-0.00200000,0.00900000,-0.00800000,0.01340000,0.01150000,0.00480000,-0.01910000,-0.00930000,1.00150000
$GPFPD,2292,529556.300,113.039,-0.641,1.109,31.42738210,120.62738762,12.269,0.008,0.001,-0.012,0.801,18,16,04*70
$GTIMU,2292,529556.300,0.0758,0.0223,-0.0085,-0.0181,0.0023,0.9930,26.9*6D
11:05::38.289,1702667156282,120.62738762,31.42738210,3478529.81176525,559649.84743727,113.03900000,6.00000000,0.00800000,0.00100000,-0.01200000,0.07580000,0.02230000,-0.00850000,-0.01810000,0.00230000,0.99300000
$GPFPD,2292,529556.400,113.041,-0.611,1.112,31.42738207,120.62738764,12.270,0.039,-0.011,-0.018,0.801,18,16,04*5B
$GTIMU,2292,529556.400,0.2961,0.0290,-0.0130,-0.0203,0.0225,0.9937,26.9*61
11:05::38.389,1702667156382,120.62738764,31.42738207,3478529.80844971,559649.84935783,113.04100000,6.00000000,0.03900000,-0.01100000,-0.01800000,0.29610000,0.02900000,-0.01300000,-0.02030000,0.02250000,0.99370000
$GPFPD,2292,529556.500,113.039,-0.572,1.121,31.42738202,120.62738769,12.271,0.084,-0.033,-0.018,0.801,18,16,04*5C
$GTIMU,2292,529556.500,0.3871,0.0886,0.0261,-0.0164,0.0416,0.9998,26.9*47
11:05::38.489,1702667156482,120.62738769,31.42738202,3478529.80293286,559649.85414340,113.03900000,6.00000000,0.08400000,-0.03300000,-0.01800000,0.38710000,0.08860000,0.02610000,-0.01640000,0.04160000,0.99980000
$GPFPD,2292,529556.600,113.030,-0.537,1.124,31.42738196,120.62738780,12.272,0.130,-0.053,-0.012,0.801,18,16,04*5A
$GTIMU,2292,529556.600,0.3441,0.0323,0.0946,-0.0192,0.0423,1.0066,26.9*4E
11:05::38.589,1702667156582,120.62738780,31.42738196,3478529.79633978,559649.86464000,113.03000000,6.00000000,0.13000000,-0.05300000,-0.01200000,0.34410000,0.03230000,0.09460000,-0.01920000,0.04230000,1.00660000
$GPFPD,2292,529556.700,113.019,-0.523,1.133,31.42738187,120.62738796,12.274,0.180,-0.073,-0.008,0.800,18,16,04*51
$GTIMU,2292,529556.700,0.1302,0.0847,0.1220,-0.0203,0.0461,1.0033,26.9*43
11:05::38.689,1702667156682,120.62738796,31.42738187,3478529.78644745,559649.87990950,113.01900000,6.00000000,0.18000000,-0.07300000,-0.00800000,0.13020000,0.08470000,0.12200000,-0.02030000,0.04610000,1.00330000
$GPFPD,2292,529556.800,112.997,-0.511,1.137,31.42738177,120.62738817,12.275,0.227,-0.095,-0.008,0.800,18,16,04*5B
$GTIMU,2292,529556.800,0.1173,0.0385,0.2155,-0.0179,0.0438,1.0009,26.9*44
11:05::38.789,1702667156782,120.62738817,31.42738177,3478529.77547346,559649.89993926,112.99700000,6.00000000,0.22700000,-0.09500000,-0.00800000,0.11730000,0.03850000,0.21550000,-0.01790000,0.04380000,1.00090000
$GPFPD,2292,529556.900,112.962,-0.499,1.146,31.42738168,120.62738844,12.274,0.280,-0.118,-0.010,0.799,18,16,04*51
$GTIMU,2292,529556.900,0.1070,0.0810,0.3621,-0.0187,0.0506,0.9973,26.9*44
11:05::38.889,1702667156882,120.62738844,31.42738168,3478529.76564085,559649.92566737,112.96200000,6.00000000,0.28000000,-0.11800000,-0.01000000,0.10700000,0.08100000,0.36210000,-0.01870000,0.05060000,0.99730000
$GPFPD,2292,529557.000,112.904,-0.489,1.150,31.42738156,120.62738876,12.274,0.330,-0.143,-0.004,0.799,18,16,04*52
$GTIMU,2292,529557.000,0.0848,0.0392,0.5800,-0.0166,0.0492,1.0067,26.9*43
11:05::38.989,1702667156982,120.62738876,31.42738156,3478529.75250898,559649.95616840,112.90400000,6.00000000,0.33000000,-0.14300000,-0.00400000,0.08480000,0.03920000,0.58000000,-0.01660000,0.04920000,1.00670000
$GPGGA,030539.00,3125.6428559,N,12037.6440279,E,1,16,1.0,5.113,M,7.80,M,,*66
$GPFPD,2292,529557.100,112.830,-0.498,1.154,31.42738142,120.62738913,12.273,0.376,-0.162,-0.002,0.799,18,16,04*56
$GTIMU,2292,529557.100,-0.1004,0.0238,0.7379,-0.0206,0.0428,1.0018,26.9*64
11:05::39.089,1702667157082,120.62738913,31.42738142,3478529.73718666,559649.99143600,112.83000000,6.00000000,0.37600000,-0.16200000,-0.00200000,-0.10040000,0.02380000,0.73790000,-0.02060000,0.04280000,1.00180000
$GPFPD,2292,529557.200,112.742,-0.494,1.154,31.42738126,120.62738955,12.273,0.424,-0.182,-0.008,0.801,18,16,04*59
$GTIMU,2292,529557.200,0.0106,-0.0083,0.8842,-0.0200,0.0449,0.9939,26.9*68
11:05::39.189,1702667157182,120.62738955,31.42738126,3478529.71967388,559650.03147018,112.74200000,6.00000000,0.42400000,-0.18200000,-0.00800000,0.01060000,-0.00830000,0.88420000,-0.02000000,0.04490000,0.99390000
$GPFPD,2292,529557.300,112.638,-0.485,1.148,31.42738109,120.62739003,12.273,0.476,-0.202,-0.003,0.799,19,16,04*57
$GTIMU,2292,529557.300,0.0677,-0.0682,1.0352,-0.0209,0.0490,1.0022,26.9*6A
11:05::39.289,1702667157282,120.62739003,31.42738109,3478529.70108488,559650.07721539,112.63800000,6.00000000,0.47600000,-0.20200000,-0.00300000,0.06770000,-0.06820000,1.03520000,-0.02090000,0.04900000,1.00220000
$GPFPD,2292,529557.400,112.518,-0.484,1.141,31.42738090,120.62739055,12.275,0.528,-0.227,-0.004,0.799,19,16,04*57
$GTIMU,2292,529557.400,-0.0130,-0.0786,1.2076,-0.0173,0.0511,0.9989,26.9*40
11:05::39.389,1702667157382,120.62739055,31.42738090,3478529.68029999,559650.12677639,112.51800000,6.00000000,0.52800000,-0.22700000,-0.00400000,-0.01300000,-0.07860000,1.20760000,-0.01730000,0.05110000,0.99890000
$GPFPD,2292,529557.500,112.380,-0.484,1.133,31.42738069,120.62739114,12.278,0.587,-0.248,-0.004,0.797,19,16,04*59
$GTIMU,2292,529557.500,-0.0302,-0.0918,1.3753,-0.0225,0.0559,0.9997,26.9*49
11:05::39.489,1702667157482,120.62739114,31.42738069,3478529.65733551,559650.18300553,112.38000000,6.00000000,0.58700000,-0.24800000,-0.00400000,-0.03020000,-0.09180000,1.37530000,-0.02250000,0.05590000,0.99970000
$GPFPD,2292,529557.600,112.229,-0.476,1.119,31.42738045,120.62739179,12.280,0.650,-0.273,-0.009,0.797,19,16,04*53
$GTIMU,2292,529557.600,0.0433,-0.1591,1.5148,-0.0206,0.0613,0.9954,26.9*67
11:05::39.589,1702667157582,120.62739179,31.42738045,3478529.63107721,559650.24495837,112.22900000,6.00000000,0.65000000,-0.27300000,-0.00900000,0.04330000,-0.15910000,1.51480000,-0.02060000,0.06130000,0.99540000
$GPFPD,2292,529557.700,112.054,-0.463,1.102,31.42738020,120.62739251,12.282,0.718,-0.302,-0.008,0.800,19,16,04*56
$GTIMU,2292,529557.700,0.0944,-0.1793,1.7565,-0.0171,0.0675,1.0016,26.9*66
11:05::39.689,1702667157682,120.62739251,31.42738020,3478529.60374810,559650.31357302,112.05400000,6.00000000,0.71800000,-0.30200000,-0.00800000,0.09440000,-0.17930000,1.75650000,-0.01710000,0.06750000,1.00160000
$GPFPD,2292,529557.800,111.856,-0.463,1.095,31.42737991,120.62739330,12.284,0.787,-0.332,-0.002,0.800,19,16,04*5C
$GTIMU,2292,529557.800,-0.0394,-0.0909,1.9827,-0.0172,0.0689,1.0061,26.9*4A
11:05::39.789,1702667157782,120.62739330,31.42737991,3478529.57202181,559650.38886847,111.85600000,6.00000000,0.78700000,-0.33200000,-0.00200000,-0.03940000,-0.09090000,1.98270000,-0.01720000,0.06890000,1.00610000
$GPFPD,2292,529557.900,111.639,-0.476,1.135,31.42737960,120.62739416,12.283,0.859,-0.366,-0.003,0.799,19,16,04*5C
$GTIMU,2292,529557.900,-0.1753,0.3769,2.1632,-0.0136,0.0733,0.9991,26.9*6C
11:05::39.889,1702667157882,120.62739416,31.42737960,3478529.53811591,559650.47083206,111.63900000,6.00000000,0.85900000,-0.36600000,-0.00300000,-0.17530000,0.37690000,2.16320000,-0.01360000,0.07330000,0.99910000
$GPFPD,2292,529558.000,111.396,-0.511,1.259,31.42737925,120.62739511,12.283,0.940,-0.413,-0.008,0.799,19,16,04*53
$GTIMU,2292,529558.000,-0.4023,1.2157,2.4272,-0.0063,0.0867,0.9957,26.9*64
11:05::39.989,1702667157982,120.62739511,31.42737925,3478529.49982368,559650.56137803,111.39600000,6.00000000,0.94000000,-0.41300000,-0.00800000,-0.40230000,1.21570000,2.42720000,-0.00630000,0.08670000,0.99570000
$GPGGA,030540.00,3125.6426925,N,12037.6444194,E,1,16,1.0,5.106,M,7.80,M,,*61
$GPFPD,2292,529558.100,111.151,-0.565,1.389,31.42737886,120.62739614,12.282,1.020,-0.427,-0.010,0.799,19,16,04*5B
$GTIMU,2292,529558.100,-0.6026,1.2761,2.4431,-0.0396,0.0726,0.9980,26.9*69
11:05::40.089,1702667158082,120.62739614,31.42737886,3478529.45713969,559650.65955558,111.15100000,6.00000000,1.02000000,-0.42700000,-0.01000000,-0.60260000,1.27610000,2.44310000,-0.03960000,0.07260000,0.99800000
$GPFPD,2292,529558.200,110.920,-0.580,1.458,31.42737847,120.62739726,12.281,1.102,-0.443,-0.018,0.802,19,16,04*5F
$GTIMU,2292,529558.200,-0.2124,0.6678,2.3053,-0.0389,0.0744,0.9920,26.9*66
11:05::40.189,1702667158182,120.62739726,31.42737847,3478529.41450456,559650.76629018,110.92000000,6.00000000,1.10200000,-0.44300000,-0.01800000,-0.21240000,0.66780000,2.30530000,-0.03890000,0.07440000,0.99200000
$GPFPD,2292,529558.300,110.627,-0.524,1.469,31.42737805,120.62739848,12.277,1.203,-0.478,-0.030,0.801,19,16,04*51
$GTIMU,2292,529558.300,0.4773,0.0839,2.9441,-0.0304,0.0992,0.9900,26.9*4A
11:05::40.288,1702667158282,120.62739848,31.42737805,3478529.36859732,559650.88255161,110.62700000,6.00000000,1.20300000,-0.47800000,-0.03000000,0.47730000,0.08390000,2.94410000,-0.03040000,0.09920000,0.99000000
$GPFPD,2292,529558.400,110.294,-0.434,1.418,31.42737758,120.62739981,12.270,1.331,-0.509,-0.032,0.801,19,16,04*5D
$GTIMU,2292,529558.400,0.8212,-0.5472,3.3476,-0.0412,0.1259,0.9979,26.9*64
11:05::40.389,1702667158382,120.62739981,31.42737758,3478529.31720580,559651.00930331,110.29400000,6.00000000,1.33100000,-0.50900000,-0.03200000,0.82120000,-0.54720000,3.34760000,-0.04120000,0.12590000,0.99790000
$GPFPD,2292,529558.500,109.978,-0.301,1.271,31.42737708,120.62740128,12.261,1.470,-0.535,-0.041,0.797,19,16,04*5C
$GTIMU,2292,529558.500,1.2498,-1.4892,3.1983,-0.0467,0.1360,0.9903,26.9*69
11:05::40.489,1702667158482,120.62740128,31.42737708,3478529.26256389,559651.14938496,109.97800000,6.00000000,1.47000000,-0.53500000,-0.04100000,1.24980000,-1.48920000,3.19830000,-0.04670000,0.13600000,0.99030000
$GPFPD,2292,529558.600,109.588,-0.158,1.151,31.42737653,120.62740291,12.253,1.621,-0.602,-0.033,0.797,19,16,04*58
$GTIMU,2292,529558.600,1.3375,-1.2121,3.9252,-0.0097,0.1646,1.0084,26.9*63
11:05::40.589,1702667158582,120.62740291,31.42737653,3478529.20246485,559651.30471079,109.58800000,6.00000000,1.62100000,-0.60200000,-0.03300000,1.33750000,-1.21210000,3.92520000,-0.00970000,0.16460000,1.00840000
$GPFPD,2292,529558.700,109.132,-0.110,1.068,31.42737593,120.62740471,12.246,1.781,-0.658,-0.011,0.790,19,16,04*5B
$GTIMU,2292,529558.700,0.3965,-0.8400,4.5742,-0.0198,0.1715,1.0228,26.9*67
11:05::40.689,1702667158682,120.62740471,31.42737593,3478529.13691411,559651.47623160,109.13200000,6.00000000,1.78100000,-0.65800000,-0.01100000,0.39650000,-0.84000000,4.57420000,-0.01980000,0.17150000,1.02280000
$GPFPD,2292,529558.800,108.708,-0.134,1.058,31.42737530,120.62740667,12.242,1.940,-0.691,0.001,0.790,19,16,04*7D
$GTIMU,2292,529558.800,-0.3206,-0.1133,4.2320,-0.0383,0.1626,1.0117,26.9*46
11:05::40.789,1702667158782,120.62740667,31.42737530,3478529.06812384,559651.66298393,108.70800000,6.00000000,1.94000000,-0.69100000,0.00100000,-0.32060000,-0.11330000,4.23200000,-0.03830000,0.16260000,1.01170000
$GPFPD,2292,529558.900,108.278,-0.164,1.093,31.42737465,120.62740879,12.241,2.083,-0.739,-0.005,0.807,19,16,04*51
$GTIMU,2292,529558.900,-0.3877,0.3352,4.2944,-0.0186,0.1522,0.9935,26.9*69
11:05::40.889,1702667158882,120.62740879,31.42737465,3478528.99720283,559651.86496145,108.27800000,6.00000000,2.08300000,-0.73900000,-0.00500000,-0.38770000,0.33520000,4.29440000,-0.01860000,0.15220000,0.99350000
$GPFPD,2292,529559.000,107.790,-0.175,1.151,31.42737397,120.62741105,12.241,2.217,-0.773,-0.004,0.807,19,16,04*53
$GTIMU,2292,529559.000,-0.2091,0.5686,4.8791,-0.0291,0.1373,1.0011,26.9*66
11:05::40.989,1702667158982,120.62741105,31.42737397,3478528.92303144,559652.08026893,107.79000000,6.00000000,2.21700000,-0.77300000,-0.00400000,-0.20910000,0.56860000,4.87910000,-0.02910000,0.13730000,1.00110000
$GPGGA,030541.00,3125.6424140,N,12037.6453738,E,1,16,1.0,5.196,M,7.80,M,,*66
$GPFPD,2292,529559.100,107.310,-0.177,1.225,31.42737326,120.62741346,12.240,2.352,-0.781,-0.005,0.807,19,16,04*5E
$GTIMU,2292,529559.100,-0.1238,0.7261,4.8093,-0.0538,0.1324,0.9986,26.9*66
11:05::41.089,1702667159082,120.62741346,31.42737326,3478528.84561508,559652.30985715,107.31000000,6.00000000,2.35200000,-0.78100000,-0.00500000,-0.12380000,0.72610000,4.80930000,-0.05380000,0.13240000,0.99860000
$GPFPD,2292,529559.200,106.854,-0.177,1.220,31.42737256,120.62741600,12.240,2.476,-0.784,-0.008,0.793,19,16,04*58
$GTIMU,2292,529559.200,-0.1050,-0.0712,4.5566,-0.0559,0.1184,0.9958,26.9*4C
11:05::41.189,1702667159182,120.62741600,31.42737256,3478528.76937811,559652.55179922,106.85400000,6.00000000,2.47600000,-0.78400000,-0.00800000,-0.10500000,-0.07120000,4.55660000,-0.05590000,0.11840000,0.99580000
$GPFPD,2292,529559.300,106.383,-0.151,1.159,31.42737184,120.62741867,12.240,2.587,-0.793,-0.009,0.790,18,16,04*58
$GTIMU,2292,529559.300,0.1583,-0.6229,4.7162,-0.0441,0.1081,0.9944,26.9*63
11:05::41.289,1702667159282,120.62741867,31.42737184,3478528.69099413,559652.80611414,106.38300000,6.00000000,2.58700000,-0.79300000,-0.00900000,0.15830000,-0.62290000,4.71620000,-0.04410000,0.10810000,0.99440000
$GPFPD,2292,529559.400,105.899,-0.060,1.247,31.42737109,120.62742147,12.240,2.689,-0.844,-0.098,0.790,18,16,04*5E
$GTIMU,2292,529559.400,0.8070,0.8717,4.8601,0.0021,0.1127,0.9097,26.9*67
11:05::41.389,1702667159382,120.62742147,31.42737109,3478528.60935433,559653.07280824,105.89900000,6.00000000,2.68900000,-0.84400000,-0.09800000,0.80700000,0.87170000,4.86010000,0.00210000,0.11270000,0.90970000
$GPFPD,2292,529559.500,105.439,0.060,1.378,31.42737030,120.62742437,12.238,2.792,-0.847,-0.053,0.802,17,16,04*7B
$GTIMU,2292,529559.500,1.0973,1.3073,4.6273,-0.0488,0.1031,1.0442,26.9*4D
11:05::41.488,1702667159482,120.62742437,31.42737030,3478528.52333363,559653.34903549,105.43900000,6.00000000,2.79200000,-0.84700000,-0.05300000,1.09730000,1.30730000,4.62730000,-0.04880000,0.10310000,1.04420000
$GPFPD,2292,529559.600,105.078,0.023,1.495,31.42736954,120.62742738,12.243,2.895,-0.809,0.063,0.802,17,16,04*5C
$GTIMU,2292,529559.600,-0.4713,1.1717,3.6051,-0.0934,0.0930,1.1162,26.9*69
11:05::41.589,1702667159582,120.62742738,31.42736954,3478528.44069905,559653.63570237,105.07800000,6.00000000,2.89500000,-0.80900000,0.06300000,-0.47130000,1.17170000,3.60510000,-0.09340000,0.09300000,1.11620000
$GPFPD,2292,529559.700,104.725,-0.121,1.351,31.42736881,120.62743050,12.255,3.001,-0.787,0.048,0.811,17,16,04*72
$GTIMU,2292,529559.700,-1.5320,-1.4409,3.4953,-0.0738,0.0980,0.9828,26.9*46
11:05::41.689,1702667159682,120.62743050,31.42736881,3478528.36145060,559653.93280888,104.72500000,6.00000000,3.00100000,-0.78700000,0.04800000,-1.53200000,-1.44090000,3.49530000,-0.07380000,0.09800000,0.98280000
$GPFPD,2292,529559.800,104.399,-0.135,1.106,31.42736809,120.62743372,12.261,3.096,-0.777,-0.003,0.811,17,16,04*5C
$GTIMU,2292,529559.800,-0.2074,-2.4646,3.2537,-0.0544,0.0898,0.9472,26.9*4D
11:05::41.789,1702667159782,120.62743372,31.42736809,3478528.28336525,559654.23941688,104.39900000,6.00000000,3.09600000,-0.77700000,-0.00300000,-0.20740000,-2.46460000,3.25370000,-0.05440000,0.08980000,0.94720000
$GPFPD,2292,529559.900,104.159,-0.075,0.927,31.42736738,120.62743703,12.259,3.188,-0.796,-0.023,0.801,17,15,04*59
$GTIMU,2292,529559.900,0.5529,-1.7971,2.4101,-0.0212,0.0944,0.9788,26.9*64
11:05::41.889,1702667159882,120.62743703,31.42736738,3478528.20643757,559654.55457561,104.15900000,6.00000000,3.18800000,-0.79600000,-0.02300000,0.55290000,-1.79710000,2.41010000,-0.02120000,0.09440000,0.97880000
$GPFPD,2292,529560.000,103.969,-0.017,0.905,31.42736664,120.62744043,12.257,3.279,-0.841,-0.018,0.801,17,15,04*50
$GTIMU,2292,529560.000,0.5421,-0.2127,1.9100,0.0064,0.1004,1.0056,26.9*40
11:05::41.989,1702667159982,120.62744043,31.42736664,3478528.12623236,559654.87831039,103.96900000,6.00000000,3.27900000,-0.84100000,-0.01800000,0.54210000,-0.21270000,1.91000000,0.00640000,0.10040000,1.00560000
$GPGGA,030542.00,3125.6413763,N,12037.6463193,E,1,15,1.4,10.594,M,7.80,M,,*57
$GPFPD,2292,529560.100,103.802,-0.014,0.976,31.42736587,120.62744393,12.257,3.374,-0.860,0.015,0.801,17,15,04*75
$GTIMU,2292,529560.100,-0.0006,0.7059,1.6792,-0.0212,0.0993,1.0333,26.9*62
11:05::42.089,1702667160082,120.62744393,31.42736587,3478528.04275506,559655.21157200,103.80200000,6.00000000,3.37400000,-0.86000000,0.01500000,-0.00060000,0.70590000,1.67920000,-0.02120000,0.09930000,1.03330000
$GPFPD,2292,529560.200,103.665,-0.050,1.047,31.42736509,120.62744753,12.259,3.477,-0.866,0.016,0.800,17,15,04*73
$GTIMU,2292,529560.200,-0.3801,0.7099,1.3601,-0.0363,0.1031,1.0000,26.9*6B
11:05::42.189,1702667160182,120.62744753,31.42736509,3478527.95822326,559655.55434777,103.66500000,6.00000000,3.47700000,-0.86600000,0.01600000,-0.38010000,0.70990000,1.36010000,-0.03630000,0.10310000,1.00000000
$GPFPD,2292,529560.300,103.571,-0.058,1.087,31.42736428,120.62745123,12.260,3.575,-0.879,-0.008,0.811,18,15,04*58
$GTIMU,2292,529560.300,-0.1082,0.3902,0.9483,-0.0338,0.0985,0.9774,26.9*62
11:05::42.289,1702667160282,120.62745123,31.42736428,3478527.87041937,559655.90665038,103.57100000,6.00000000,3.57500000,-0.87900000,-0.00800000,-0.10820000,0.39020000,0.94830000,-0.03380000,0.09850000,0.97740000
$GPFPD,2292,529560.400,103.536,-0.062,1.030,31.42736336,120.62745498,12.263,3.670,-0.877,-0.007,0.811,18,15,04*50
$GTIMU,2292,529560.400,-0.0481,-0.5750,0.3533,-0.0432,0.0936,0.9999,26.9*49
11:05::42.389,1702667160382,120.62745498,31.42736336,3478527.77044585,559656.26377656,103.53600000,6.00000000,3.67000000,-0.87700000,-0.00700000,-0.04810000,-0.57500000,0.35330000,-0.04320000,0.09360000,0.99990000
$GPFPD,2292,529560.500,103.537,-0.047,0.954,31.42736244,120.62745882,12.266,3.758,-0.892,0.013,0.798,18,15,04*7D
$GTIMU,2292,529560.500,0.1447,-0.7514,-0.0081,-0.0237,0.0907,1.0200,26.9*4E
11:05::42.489,1702667160482,120.62745882,31.42736244,3478527.67052121,559656.62945979,103.53700000,6.00000000,3.75800000,-0.89200000,0.01300000,0.14470000,-0.75140000,-0.00810000,-0.02370000,0.09070000,1.02000000
$GPFPD,2292,529560.600,103.549,-0.113,1.007,31.42736149,120.62746275,12.272,3.834,-0.941,0.034,0.798,18,15,04*7C
$GTIMU,2292,529560.600,-0.6541,0.5208,-0.1237,0.0134,0.0863,1.0221,26.9*66
11:05::42.589,1702667160582,120.62746275,31.42736149,3478527.56731904,559657.00371907,103.54900000,6.00000000,3.83400000,-0.94100000,0.03400000,-0.65410000,0.52080000,-0.12370000,0.01340000,0.08630000,1.02210000
$GPFPD,2292,529560.700,103.575,-0.252,1.190,31.42736048,120.62746675,12.278,3.890,-0.985,0.012,0.801,18,15,04*78
$GTIMU,2292,529560.700,-1.3860,1.8323,-0.2879,0.0109,0.0630,0.9775,26.9*60
11:05::42.689,1702667160682,120.62746675,31.42736048,3478527.45750211,559657.38467183,103.57500000,6.00000000,3.89000000,-0.98500000,0.01200000,-1.38600000,1.83230000,-0.28790000,0.01090000,0.06300000,0.97750000
$GPFPD,2292,529560.800,103.606,-0.238,1.213,31.42735951,120.62747083,12.280,3.970,-0.963,-0.010,0.801,18,15,04*57
$GTIMU,2292,529560.800,0.1396,0.2341,-0.3109,-0.0605,0.0705,0.9771,26.9*66
11:05::42.789,1702667160782,120.62747083,31.42735951,3478527.35216381,559657.77320554,103.60600000,6.00000000,3.97000000,-0.96300000,-0.01000000,0.13960000,0.23410000,-0.31090000,-0.06050000,0.07050000,0.97710000
$GPFPD,2292,529560.900,103.644,-0.165,1.165,31.42735863,120.62747505,12.279,4.055,-0.972,-0.016,0.806,18,15,04*5C
$GTIMU,2292,529560.900,0.7318,-0.4824,-0.3631,-0.0329,0.0827,0.9935,26.9*42
11:05::42.889,1702667160882,120.62747505,31.42735863,3478527.25688074,559658.17499324,103.64400000,6.00000000,4.05500000,-0.97200000,-0.01600000,0.73180000,-0.48240000,-0.36310000,-0.03290000,0.08270000,0.99350000
$GPFPD,2292,529561.000,103.715,-0.122,1.030,31.42735775,120.62747936,12.278,4.132,-0.982,-0.003,0.806,18,15,04*5D
$GTIMU,2292,529561.000,0.4409,-1.3465,-0.6938,-0.0271,0.0776,1.0126,26.9*47
11:05::42.989,1702667160982,120.62747936,31.42735775,3478527.16164654,559658.58533799,103.71500000,6.00000000,4.13200000,-0.98200000,-0.00300000,0.44090000,-1.34650000,-0.69380000,-0.02710000,0.07760000,1.01260000
$GPGGA,030543.00,3125.6408810,N,12037.6486638,E,1,15,1.4,10.734,M,7.80,M,,*52
$GPFPD,2292,529561.100,103.818,-0.132,0.924,31.42735685,120.62748375,12.278,4.215,-1.015,0.011,0.806,18,15,04*70
$GTIMU,2292,529561.100,-0.0902,-1.0565,-1.0318,-0.0043,0.0878,1.0139,26.9*68
11:05::43.089,1702667161082,120.62748375,31.42735685,3478527.06423820,559659.00330167,103.81800000,6.00000000,4.21500000,-1.01500000,0.01100000,-0.09020000,-1.05650000,-1.03180000,-0.00430000,0.08780000,1.01390000
$GPFPD,2292,529561.200,103.929,-0.121,0.905,31.42735592,120.62748823,12.279,4.309,-1.067,-0.032,0.796,18,15,04*5E
$GTIMU,2292,529561.200,0.1287,-0.1964,-1.1042,0.0129,0.1042,0.9565,26.9*64
11:05::43.189,1702667161182,120.62748823,31.42735592,3478526.96355235,559659.42984142,103.92900000,6.00000000,4.30900000,-1.06700000,-0.03200000,0.12870000,-0.19640000,-1.10420000,0.01290000,0.10420000,0.95650000
$GPFPD,2292,529561.300,104.017,0.031,1.047,31.42735488,120.62749278,12.274,4.391,-1.148,-0.071,0.813,18,15,04*75
$GTIMU,2292,529561.300,1.5255,1.4142,-0.8498,0.0370,0.1050,0.9548,26.9*43
11:05::43.289,1702667161282,120.62749278,31.42735488,3478526.85070773,559659.86310630,104.01700000,6.00000000,4.39100000,-1.14800000,-0.07100000,1.52550000,1.41420000,-0.84980000,0.03700000,0.10500000,0.95480000
$GPFPD,2292,529561.400,104.217,0.015,1.103,31.42735373,120.62749730,12.291,4.506,-1.126,0.036,0.813,18,15,04*58
$GTIMU,2292,529561.400,-0.1204,0.5609,-1.9973,-0.0707,0.1103,1.1079,26.9*48
11:05::43.389,1702667161382,120.62749730,31.42735373,3478526.72565005,559660.29358850,104.21700000,6.00000000,4.50600000,-1.12600000,0.03600000,-0.12040000,0.56090000,-1.99730000,-0.07070000,0.11030000,1.10790000
$GPFPD,2292,529561.500,104.444,-0.066,1.071,31.42735257,120.62750193,12.313,4.612,-1.170,0.052,0.810,18,15,04*7B
$GTIMU,2292,529561.500,-0.7739,-0.3156,-2.2848,-0.0026,0.1155,1.0157,26.9*68
11:05::43.489,1702667161482,120.62750193,31.42735257,3478526.59954332,559660.73453565,104.44400000,6.00000000,4.61200000,-1.17000000,0.05200000,-0.77390000,-0.31560000,-2.28480000,-0.00260000,0.11550000,1.01570000
$GPFPD,2292,529561.600,104.641,-0.049,0.988,31.42735136,120.62750668,12.332,4.726,-1.220,-0.004,0.810,18,15,04*56
$GTIMU,2292,529561.600,0.2018,-0.8281,-1.9650,0.0032,0.1247,0.9437,26.9*69
11:05::43.589,1702667161582,120.62750668,31.42735136,3478526.46795777,559661.18692388,104.64100000,6.00000000,4.72600000,-1.22000000,-0.00400000,0.20180000,-0.82810000,-1.96500000,0.00320000,0.12470000,0.94370000
$GPFPD,2292,529561.700,104.867,0.003,0.961,31.42735011,120.62751156,12.348,4.844,-1.275,-0.013,0.797,18,15,04*76
$GTIMU,2292,529561.700,0.5574,-0.2703,-2.2510,0.0072,0.1312,0.9904,26.9*62
11:05::43.689,1702667161682,120.62751156,31.42735011,3478526.33200763,559661.65169763,104.86700000,6.00000000,4.84400000,-1.27500000,-0.01300000,0.55740000,-0.27030000,-2.25100000,0.00720000,0.13120000,0.99040000
$GPFPD,2292,529561.800,105.118,0.035,0.995,31.42734882,120.62751659,12.360,4.963,-1.330,-0.009,0.797,18,15,04*79
$GTIMU,2292,529561.800,0.3610,0.3378,-2.4940,0.0061,0.1325,1.0042,26.9*44
11:05::43.789,1702667161782,120.62751659,31.42734882,3478526.19170376,559662.13075847,105.11800000,6.00000000,4.96300000,-1.33000000,-0.00900000,0.36100000,0.33780000,-2.49400000,0.00610000,0.13250000,1.00420000
$GPFPD,2292,529561.900,105.371,0.060,1.005,31.42734760,120.62752187,12.359,5.076,-1.375,0.002,0.798,18,15,04*5E
$GTIMU,2292,529561.900,0.2843,0.0952,-2.5332,-0.0037,0.1250,1.0109,26.9*60
11:05::43.889,1702667161882,120.62752187,31.42734760,3478526.05929725,559662.63354457,105.37100000,6.00000000,5.07600000,-1.37500000,0.00200000,0.28430000,0.09520000,-2.53320000,-0.00370000,0.12500000,1.01090000
$GPFPD,2292,529562.000,105.626,0.090,0.963,31.42734634,120.62752727,12.361,5.180,-1.432,0.024,0.798,18,15,04*5B
$GTIMU,2292,529562.000,0.3429,-0.4239,-2.5384,0.0105,0.1195,1.0224,26.9*62
11:05::43.989,1702667161982,120.62752727,31.42734634,3478525.92252073,559663.14776543,105.62600000,6.00000000,5.18000000,-1.43200000,0.02400000,0.34290000,-0.42390000,-2.53840000,0.01050000,0.11950000,1.02240000
$GPGGA,030544.00,3125.6405549,N,12037.6516070,E,1,15,1.4,10.579,M,7.80,M,,*50
$GPFPD,2292,529562.100,105.895,0.113,0.886,31.42734502,120.62753278,12.363,5.281,-1.486,0.021,0.798,18,15,04*5E
$GTIMU,2292,529562.100,0.2703,-0.7795,-2.6877,0.0089,0.1164,0.9964,26.9*61
11:05::44.089,1702667162082,120.62753278,31.42734502,3478525.77915117,559663.67248290,105.89500000,6.00000000,5.28100000,-1.48600000,0.02100000,0.27030000,-0.77950000,-2.68770000,0.00890000,0.11640000,0.99640000
$GPFPD,2292,529562.200,106.196,0.127,0.917,31.42734365,120.62753838,12.364,5.377,-1.560,-0.002,0.792,18,15,04*73
$GTIMU,2292,529562.200,0.1870,0.3078,-2.9989,0.0308,0.1174,0.9765,26.9*4C
11:05::44.189,1702667162182,120.62753838,31.42734365,3478525.63028652,559664.20578910,106.19600000,6.00000000,5.37700000,-1.56000000,-0.00200000,0.18700000,0.30780000,-2.99890000,0.03080000,0.11740000,0.97650000
$GPFPD,2292,529562.300,106.503,0.143,0.948,31.42734219,120.62754406,12.367,5.469,-1.620,-0.001,0.791,17,14,04*7C
$GTIMU,2292,529562.300,0.2044,0.2965,-3.0559,0.0091,0.1135,0.9939,26.9*4D
11:05::44.289,1702667162282,120.62754406,31.42734219,3478525.47148614,559664.74675858,106.50300000,6.00000000,5.46900000,-1.62000000,-0.00100000,0.20440000,0.29650000,-3.05590000,0.00910000,0.11350000,0.99390000
$GPFPD,2292,529562.400,106.828,0.135,1.003,31.42734060,120.62754972,12.387,5.567,-1.674,0.044,0.791,17,14,04*57
$GTIMU,2292,529562.400,-0.0335,0.5430,-3.2550,0.0065,0.1142,1.0454,26.9*64
11:05::44.389,1702667162382,120.62754972,31.42734060,3478525.29826054,559665.28590883,106.82800000,6.00000000,5.56700000,-1.67400000,0.04400000,-0.03350000,0.54300000,-3.25500000,0.00650000,0.11420000,1.04540000
$GPFPD,2292,529562.500,107.159,0.041,0.962,31.42733897,120.62755548,12.412,5.664,-1.726,0.068,0.804,17,14,04*56
$GTIMU,2292,529562.500,-0.8865,-0.4235,-3.3168,0.0037,0.1130,1.0241,26.9*42
11:05::44.489,1702667162482,120.62755548,31.42733897,3478525.12065407,559665.83459227,107.15900000,6.00000000,5.66400000,-1.72600000,0.06800000,-0.88650000,-0.42350000,-3.31680000,0.00370000,0.11300000,1.02410000
$GPFPD,2292,529562.600,107.474,-0.021,0.946,31.42733728,120.62756134,12.436,5.749,-1.803,0.030,0.804,17,14,04*78
$GTIMU,2292,529562.600,-0.5711,-0.1589,-3.1641,0.0337,0.1058,0.9616,26.9*49
11:05::44.589,1702667162582,120.62756134,31.42733728,3478524.93644914,559666.39282155,107.47400000,6.00000000,5.74900000,-1.80300000,0.03000000,-0.57110000,-0.15890000,-3.16410000,0.03370000,0.10580000,0.96160000
$GPFPD,2292,529562.700,107.741,-0.002,0.953,31.42733552,120.62756729,12.456,5.837,-1.873,0.005,0.802,17,14,04*7B
$GTIMU,2292,529562.700,0.2283,0.0692,-2.6591,0.0251,0.1082,0.9750,26.9*44
11:05::44.689,1702667162682,120.62756729,31.42733552,3478524.74453152,559666.95965224,107.74100000,6.00000000,5.83700000,-1.87300000,0.00500000,0.22830000,0.06920000,-2.65910000,0.02510000,0.10820000,0.97500000
$GPFPD,2292,529562.800,107.991,-0.024,1.003,31.42733372,120.62757336,12.472,5.929,-1.929,0.018,0.802,17,14,04*7B
$GTIMU,2292,529562.800,-0.1803,0.4996,-2.5041,0.0086,0.1070,1.0131,26.9*6F
11:05::44.789,1702667162782,120.62757336,31.42733372,3478524.54824390,559667.53791767,107.99100000,6.00000000,5.92900000,-1.92900000,0.01800000,-0.18030000,0.49960000,-2.50410000,0.00860000,0.10700000,1.01310000
$GPFPD,2292,529562.900,108.235,-0.045,1.006,31.42733196,120.62757964,12.474,6.012,-1.981,0.012,0.782,17,14,04*7C
$GTIMU,2292,529562.900,-0.1680,0.0316,-2.4408,0.0065,0.0966,0.9940,26.9*61
11:05::44.889,1702667162882,120.62757964,31.42733196,3478524.35650555,559668.13612425,108.23500000,6.00000000,6.01200000,-1.98100000,0.01200000,-0.16800000,0.03160000,-2.44080000,0.00650000,0.09660000,0.99400000
$GPFPD,2292,529563.000,108.467,-0.045,0.986,31.42733015,120.62758601,12.475,6.089,-2.032,0.021,0.782,17,14,04*7D
$GTIMU,2292,529563.000,0.0351,-0.1983,-2.3227,0.0072,0.0907,1.0092,26.9*65
11:05::44.989,1702667162982,120.62758601,31.42733015,3478524.15927211,559668.74291958,108.46700000,6.00000000,6.08900000,-2.03200000,0.02100000,0.03510000,-0.19830000,-2.32270000,0.00720000,0.09070000,1.00920000
$GPGGA,030545.00,3125.6399234,N,12037.6552026,E,1,14,1.5,10.535,M,7.80,M,,*55
$GPFPD,2292,529563.100,108.694,-0.039,0.964,31.42732829,120.62759245,12.478,6.167,-2.081,0.024,0.782,17,14,04*77
$GTIMU,2292,529563.100,0.0999,-0.2263,-2.2652,0.0051,0.0909,1.0036,26.9*6A
11:05::45.089,1702667163082,120.62759245,31.42732829,3478523.95653272,559669.35640207,108.69400000,6.00000000,6.16700000,-2.08100000,0.02400000,0.09990000,-0.22630000,-2.26520000,0.00510000,0.09090000,1.00360000
$GPFPD,2292,529563.200,108.924,-0.000,0.927,31.42732639,120.62759898,12.479,6.245,-2.138,-0.005,0.787,16,14,04*53
$GTIMU,2292,529563.200,0.4232,-0.3697,-2.2854,0.0140,0.0942,0.9698,26.9*65
11:05::45.189,1702667163182,120.62759898,31.42732639,3478523.74940705,559669.97846697,108.92400000,6.00000000,6.24500000,-2.13800000,-0.00500000,0.42320000,-0.36970000,-2.28540000,0.01400000,0.09420000,0.96980000
$GPFPD,2292,529563.300,109.138,0.002,0.925,31.42732442,120.62760559,12.482,6.326,-2.208,0.015,0.794,16,13,04*56
$GTIMU,2292,529563.300,0.0524,-0.0189,-2.1380,0.0202,0.0988,1.0177,26.9*67
11:05::45.289,1702667163282,120.62760559,31.42732442,3478523.53456326,559670.60818249,109.13800000,6.00000000,6.32600000,-2.20800000,0.01500000,0.05240000,-0.01890000,-2.13800000,0.02020000,0.09880000,1.01770000
$GPFPD,2292,529563.400,109.336,-0.056,0.918,31.42732235,120.62761225,12.498,6.410,-2.258,0.042,0.794,16,13,04*7A
$GTIMU,2292,529563.400,-0.5513,-0.0699,-1.9888,0.0035,0.0974,1.0277,26.9*44
11:05::45.389,1702667163382,120.62761225,31.42732235,3478523.30865868,559671.24271530,109.33600000,6.00000000,6.41000000,-2.25800000,0.04200000,-0.55130000,-0.06990000,-1.98880000,0.00350000,0.09740000,1.02770000
$GPFPD,2292,529563.500,109.553,-0.148,0.874,31.42732024,120.62761901,12.517,6.491,-2.303,0.047,0.790,16,13,04*75
$GTIMU,2292,529563.500,-0.8823,-0.4373,-2.1819,0.0005,0.0925,1.0050,26.9*40
11:05::45.489,1702667163482,120.62761901,31.42732024,3478523.07837324,559671.88678130,109.55300000,6.00000000,6.49100000,-2.30300000,0.04700000,-0.88230000,-0.43730000,-2.18190000,0.00050000,0.09250000,1.00500000
$GPFPD,2292,529563.600,109.773,-0.268,0.851,31.42731809,120.62762584,12.534,6.564,-2.365,0.031,0.790,16,13,04*7D
$GTIMU,2292,529563.600,-1.1721,-0.2245,-2.2160,0.0197,0.0883,0.9838,26.9*49
