2218.00,3125.6415955,N,12037.6501287,E,1,15,0.9,7.356,M,7.80,M,,*67
$GPFPD,2292,537756.100,116.245,-0.483,1.133,31.42736035,120.62749122,14.259,0.003,-0.014,0.014,0.793,17,16,04*7E
$GTIMU,2292,537756.100,-0.0251,0.0531,-0.0060,-0.0159,-0.0077,0.9987,20.5*63
13:22::18.108,1702675356082,120.62749122,31.42736035,3478527.45637374,559659.71132052,116.24500000,6.00000000,0.00300000,-0.01400000,0.01400000,-0.02510000,0.05310000,-0.00600000,-0.01590000,-0.00770000,0.99870000
$GPFPD,2292,537756.200,116.244,-0.481,1.132,31.42736033,120.62749122,14.260,0.004,-0.012,0.014,0.792,17,15,04*70
$GTIMU,2292,537756.200,0.0191,-0.0106,0.0139,-0.0212,-0.0077,0.9999,20.5*4C
13:22::18.209,1702675356182,120.62749122,31.42736033,3478527.45415614,559659.71133318,116.24400000,6.00000000,0.00400000,-0.01200000,0.01400000,0.01910000,-0.01060000,0.01390000,-0.02120000,-0.00770000,0.99990000
$GPFPD,2292,537756.300,116.246,-0.483,1.136,31.42736033,120.62749122,14.261,0.004,-0.010,0.013,0.794,17,15,04*77
$GTIMU,2292,537756.300,-0.0189,0.0406,-0.0077,-0.0202,-0.0085,0.9992,20.5*60
13:22::18.308,1702675356282,120.62749122,31.42736033,3478527.45415614,559659.71133318,116.24600000,6.00000000,0.00400000,-0.01000000,0.01300000,-0.01890000,0.04060000,-0.00770000,-0.02020000,-0.00850000,0.99920000
$GPFPD,2292,537756.400,116.245,-0.480,1.129,31.42736035,120.62749123,14.260,0.005,-0.010,0.013,0.794,17,15,04*79
$GTIMU,2292,537756.400,0.0201,-0.0772,0.0082,-0.0198,-0.0070,0.9998,20.5*43
13:22::18.408,1702675356382,120.62749123,31.42736035,3478527.45637917,559659.71227130,116.24500000,6.00000000,0.00500000,-0.01000000,0.01300000,0.02010000,-0.07720000,0.00820000,-0.01980000,-0.00700000,0.99980000
$GPFPD,2292,537756.500,116.246,-0.483,1.134,31.42736036,120.62749123,14.260,0.004,-0.012,0.013,0.791,17,15,04*71
$GTIMU,2292,537756.500,-0.0291,0.0514,-0.0088,-0.0171,-0.0074,0.9991,20.5*64
13:22::18.508,1702675356482,120.62749123,31.42736036,3478527.45748797,559659.71226497,116.24600000,6.00000000,0.00400000,-0.01200000,0.01300000,-0.02910000,0.05140000,-0.00880000,-0.01710000,-0.00740000,0.99910000
$GPFPD,2292,537756.600,116.245,-0.481,1.132,31.42736038,120.62749123,14.259,0.004,-0.010,0.013,0.791,17,15,04*73
$GTIMU,2292,537756.600,0.0168,-0.0243,0.0156,-0.0210,-0.0088,1.0001,20.5*47
13:22::18.608,1702675356582,120.62749123,31.42736038,3478527.45970556,559659.71225231,116.24500000,6.00000000,0.00400000,-0.01000000,0.01300000,0.01680000,-0.02430000,0.01560000,-0.02100000,-0.00880000,1.00010000
$GPFPD,2292,537756.700,116.246,-0.483,1.136,31.42736040,120.62749124,14.258,0.004,-0.011,0.013,0.791,17,15,04*7F
$GTIMU,2292,537756.700,-0.0201,0.0389,-0.0066,-0.0191,-0.0076,0.9992,20.5*62
13:22::18.708,1702675356682,120.62749124,31.42736040,3478527.46192859,559659.71319042,116.24600000,6.00000000,0.00400000,-0.01100000,0.01300000,-0.02010000,0.03890000,-0.00660000,-0.01910000,-0.00760000,0.99920000
$GPFPD,2292,537756.800,116.245,-0.481,1.131,31.42736041,120.62749124,14.258,0.005,-0.010,0.013,0.791,17,15,04*77
$GTIMU,2292,537756.800,0.0082,-0.0550,0.0065,-0.0203,-0.0073,0.9999,20.5*4E
13:22::18.808,1702675356782,120.62749124,31.42736041,3478527.46303739,559659.71318409,116.24500000,6.00000000,0.00500000,-0.01000000,0.01300000,0.00820000,-0.05500000,0.00650000,-0.02030000,-0.00730000,0.99990000
$GPFPD,2292,537756.900,116.245,-0.483,1.134,31.42736040,120.62749125,14.259,0.004,-0.011,0.013,0.791,17,15,04*70
$GTIMU,2292,537756.900,-0.0167,0.0269,-0.0009,-0.0180,-0.0089,0.9995,20.5*6E
13:22::18.908,1702675356882,120.62749125,31.42736040,3478527.46193402,559659.71414121,116.24500000,6.00000000,0.00400000,-0.01100000,0.01300000,-0.01670000,0.02690000,-0.00090000,-0.01800000,-0.00890000,0.99950000
$GPFPD,2292,537757.000,116.245,-0.482,1.132,31.42736039,120.62749125,14.260,0.005,-0.011,0.013,0.791,17,15,04*7A
$GTIMU,2292,537757.000,0.0060,-0.0180,0.0048,-0.0199,-0.0065,0.9991,20.5*42
13:22::19.008,1702675356982,120.62749125,31.42736039,3478527.46082522,559659.71414754,116.24500000,6.00000000,0.00500000,-0.01100000,0.01300000,0.00600000,-0.01800000,0.00480000,-0.01990000,-0.00650000,0.99910000
$GPGGA,052219.00,3125.6416153,N,12037.6501231,E,1,15,0.9,7.363,M,7.80,M,,*60
$GPFPD,2292,537757.100,116.245,-0.483,1.134,31.42736038,120.62749126,14.262,0.004,-0.011,0.014,0.791,17,15,04*7A
$GTIMU,2292,537757.100,-0.0144,0.0235,-0.0003,-0.0196,-0.0089,1.0004,20.5*6B
13:22::19.108,1702675357082,120.62749126,31.42736038,3478527.45972185,559659.71510465,116.24500000,6.00000000,0.00400000,-0.01100000,0.01400000,-0.01440000,0.02350000,-0.00030000,-0.01960000,-0.00890000,1.00040000
$GPFPD,2292,537757.200,116.245,-0.482,1.131,31.42736037,120.62749126,14.263,0.005,-0.011,0.013,0.793,17,15,04*77
$GTIMU,2292,537757.200,0.0059,-0.0379,0.0031,-0.0199,-0.0071,0.9983,20.5*46
13:22::19.208,1702675357182,120.62749126,31.42736037,3478527.45861305,559659.71511099,116.24500000,6.00000000,0.00500000,-0.01100000,0.01300000,0.00590000,-0.03790000,0.00310000,-0.01990000,-0.00710000,0.99830000
$GPFPD,2292,537757.300,116.247,-0.483,1.134,31.42736037,120.62749127,14.263,0.006,-0.010,0.009,0.794,17,15,04*7F
$GTIMU,2292,537757.300,-0.0099,0.0280,-0.0043,-0.0182,-0.0084,0.9999,20.5*6F
13:22::19.308,1702675357282,120.62749127,31.42736037,3478527.45861848,559659.71606177,116.24700000,6.00000000,0.00600000,-0.01000000,0.00900000,-0.00990000,0.02800000,-0.00430000,-0.01820000,-0.00840000,0.99990000
$GPFPD,2292,537757.400,116.246,-0.482,1.131,31.42736039,120.62749130,14.258,0.007,-0.009,0.010,0.794,17,15,04*7C
$GTIMU,2292,537757.400,0.0054,-0.0283,0.0071,-0.0203,-0.0070,0.9999,20.5*47
13:22::19.408,1702675357382,120.62749130,31.42736039,3478527.46085237,559659.71890146,116.24600000,6.00000000,0.00700000,-0.00900000,0.01000000,0.00540000,-0.02830000,0.00710000,-0.02030000,-0.00700000,0.99990000
$GPFPD,2292,537757.500,116.247,-0.483,1.133,31.42736040,120.62749133,14.254,0.006,-0.009,0.010,0.790,17,15,04*7B
$GTIMU,2292,537757.500,-0.0116,0.0161,-0.0049,-0.0193,-0.0090,0.9994,20.5*61
13:22::19.509,1702675357482,120.62749133,31.42736040,3478527.46197746,559659.72174747,116.24700000,6.00000000,0.00600000,-0.00900000,0.01000000,-0.01160000,0.01610000,-0.00490000,-0.01930000,-0.00900000,0.99940000
$GPFPD,2292,537757.600,116.247,-0.482,1.130,31.42736042,120.62749137,14.249,0.007,-0.010,0.009,0.790,17,15,04*71
$GTIMU,2292,537757.600,0.0014,-0.0294,0.0048,-0.0190,-0.0064,0.9991,20.5*49
13:22::19.608,1702675357582,120.62749137,31.42736042,3478527.46421677,559659.72553794,116.24700000,6.00000000,0.00700000,-0.01000000,0.00900000,0.00140000,-0.02940000,0.00480000,-0.01900000,-0.00640000,0.99910000
$GPFPD,2292,537757.700,116.247,-0.483,1.132,31.42736044,120.62749140,14.245,0.006,-0.009,0.010,0.790,17,15,04*78
$GTIMU,2292,537757.700,-0.0070,0.0212,0.0008,-0.0194,-0.0092,1.0007,20.5*43
13:22::19.708,1702675357682,120.62749140,31.42736044,3478527.46645066,559659.72837763,116.24700000,6.00000000,0.00600000,-0.00900000,0.01000000,-0.00700000,0.02120000,0.00080000,-0.01940000,-0.00920000,1.00070000
$GPFPD,2292,537757.800,116.246,-0.483,1.130,31.42736046,120.62749142,14.241,0.007,-0.010,0.009,0.790,17,15,04*71
$GTIMU,2292,537757.800,-0.0014,-0.0197,0.0054,-0.0195,-0.0067,0.9981,20.5*60
13:22::19.808,1702675357782,120.62749142,31.42736046,3478527.46867912,559659.73026653,116.24600000,6.00000000,0.00700000,-0.01000000,0.00900000,-0.00140000,-0.01970000,0.00540000,-0.01950000,-0.00670000,0.99810000
$GPFPD,2292,537757.900,116.247,-0.483,1.133,31.42736045,120.62749143,14.242,0.006,-0.010,0.010,0.790,17,15,04*7A
$GTIMU,2292,537757.900,-0.0087,0.0280,-0.0020,-0.0193,-0.0088,1.0004,20.5*66
13:22::19.909,1702675357882,120.62749143,31.42736045,3478527.46757575,559659.73122364,116.24700000,6.00000000,0.00600000,-0.01000000,0.01000000,-0.00870000,0.02800000,-0.00200000,-0.01930000,-0.00880000,1.00040000
$GPFPD,2292,537758.000,116.246,-0.483,1.130,31.42736044,120.62749144,14.243,0.008,-0.010,0.009,0.790,17,15,04*7F
$GTIMU,2292,537758.000,0.0031,-0.0402,0.0076,-0.0198,-0.0065,0.9989,20.5*43
13:22::20.009,1702675357982,120.62749144,31.42736044,3478527.46647238,559659.73218076,116.24600000,6.00000000,0.00800000,-0.01000000,0.00900000,0.00310000,-0.04020000,0.00760000,-0.01980000,-0.00650000,0.99890000
$GPFPD,2292,537758.100,116.247,-0.483,1.133,31.42736043,120.62749144,14.244,0.006,-0.$GPGGA,052220.00,3125.6415941,N,12037.6501315,E,1,15,0.9,7.352,M,7.80,M,,010,0.009,*67
0.790,17,15,04*72
$GTIMU,2292,537758.100,-0.0104,0.0280,-0.0015,-0.0185,-0.0090,0.9994,20.5*6B
13:22::20.108,1702675358082,120.62749144,31.42736043,3478527.46536358,559659.73218709,116.24700000,6.00000000,0.00600000,-0.01000000,0.00900000,-0.01040000,0.02800000,-0.00150000,-0.01850000,-0.00900000,0.99940000
$GPFPD,2292,537758.200,116.246,-0.483,1.131,31.42736042,120.62749145,14.245,0.008,-0.010,0.009,0.795,17,15,04*78
$GTIMU,2292,537758.200,0.0003,-0.0140,0.0065,-0.0200,-0.0069,0.9996,20.5*41
13:22::20.209,1702675358182,120.62749145,31.42736042,3478527.46426021,559659.73314421,116.24600000,6.00000000,0.00800000,-0.01000000,0.00900000,0.00030000,-0.01400000,0.00650000,-0.02000000,-0.00690000,0.99960000
$GPFPD,2292,537758.300,116.247,-0.483,1.132,31.42736041,120.62749146,14.248,0.006,-0.009,0.014,0.794,18,15,04*72
$GTIMU,2292,537758.300,-0.0014,0.0087,-0.0015,-0.0195,-0.0093,1.0008,20.5*6A
13:22::20.308,1702675358282,120.62749146,31.42736041,3478527.46315684,559659.73410132,116.24700000,6.00000000,0.00600000,-0.00900000,0.01400000,-0.00140000,0.00870000,-0.00150000,-0.01950000,-0.00930000,1.00080000
$GPFPD,2292,537758.400,116.247,-0.484,1.132,31.42736041,120.62749147,14.254,0.008,-0.011,0.012,0.794,18,15,04*7F
$GTIMU,2292,537758.400,-0.0127,-0.0083,0.0037,-0.0189,-0.0058,0.9974,20.5*68
13:22::20.409,1702675358382,120.62749147,31.42736041,3478527.46316227,559659.73505210,116.24700000,6.00000000,0.00800000,-0.01100000,0.01200000,-0.01270000,-0.00830000,0.00370000,-0.01890000,-0.00580000,0.99740000
$GPFPD,2292,537758.500,116.247,-0.483,1.132,31.42736041,120.62749147,14.261,0.006,-0.009,0.014,0.790,18,15,04*7A
$GTIMU,2292,537758.500,0.0060,0.0013,0.0014,-0.0199,-0.0100,1.0015,20.5*68
13:22::20.508,1702675358482,120.62749147,31.42736041,3478527.46316227,559659.73505210,116.24700000,6.00000000,0.00600000,-0.00900000,0.01400000,0.00600000,0.00130000,0.00140000,-0.01990000,-0.01000000,1.00150000
$GPFPD,2292,537758.600,116.247,-0.484,1.131,31.42736040,120.62749148,14.268,0.008,-0.011,0.013,0.790,18,15,04*7A
$GTIMU,2292,537758.600,-0.0167,-0.0129,0.0048,-0.0187,-0.0054,0.9983,20.5*6D
13:22::20.609,1702675358582,120.62749148,31.42736040,3478527.46205890,559659.73600922,116.24700000,6.00000000,0.00800000,-0.01100000,0.01300000,-0.01670000,-0.01290000,0.00480000,-0.01870000,-0.00540000,0.99830000
$GPFPD,2292,537758.700,116.246,-0.484,1.132,31.42736040,120.62749148,14.275,0.007,-0.009,0.014,0.793,18,15,04*77
$GTIMU,2292,537758.700,-0.0064,0.0144,0.0071,-0.0202,-0.0102,1.0010,20.5*45
13:22::20.709,1702675358682,120.62749148,31.42736040,3478527.46205890,559659.73600922,116.24600000,6.00000000,0.00700000,-0.00900000,0.01400000,-0.00640000,0.01440000,0.00710000,-0.02020000,-0.01020000,1.00100000
$GPFPD,2292,537758.800,116.247,-0.484,1.131,31.42736039,120.62749149,14.280,0.008,-0.010,0.012,0.793,18,15,04*7E
$GTIMU,2292,537758.800,0.0037,-0.0203,-0.0038,-0.0196,-0.0067,0.9967,20.5*61
13:22::20.809,1702675358782,120.62749149,31.42736039,3478527.46095553,559659.73696633,116.24700000,6.00000000,0.00800000,-0.01000000,0.01200000,0.00370000,-0.02030000,-0.00380000,-0.01960000,-0.00670000,0.99670000
$GPFPD,2292,537758.900,116.246,-0.481,1.129,31.42736038,120.62749150,14.282,0.007,-0.010,0.014,0.788,18,15,04*7A
$GTIMU,2292,537758.900,0.0259,-0.0158,0.0070,-0.0189,-0.0085,1.0021,20.5*47
13:22::20.908,1702675358882,120.62749150,31.42736038,3478527.45985216,559659.73792345,116.24600000,6.00000000,0.00700000,-0.01000000,0.01400000,0.02590000,-0.01580000,0.00700000,-0.01890000,-0.00850000,1.00210000
$GPFPD,2292,537759.000,116.247,-0.484,1.133,31.42736037,120.62749151,14.283,0.007,-0.011,0.012,0.788,18,15,04*75
$GTIMU,2292,537759.000,-0.0337,0.0343,-0.0037,-0.0182,-0.0069,0.9976,20.5*6A
13:22::21.009,1702675358982,120.62749151,31.42736037,3478527.45874879,559659.73888057,116.24700000,6.00000000,0.00700000,-0.01100000,0.01200000,-0.03370000,0.03430000,-0.00370000,-0.01820000,-0.00690000,0.99760000
$GPGGA,052221.00,3125.6415354,N,12037.6501266,E,1,15,0.9,7.357,M,7.80,M,,*68
$GPFPD,2292,537759.100,116.247,-0.478,1.133,31.42736036,120.62749151,14.284,0.006,-0.010,0.012,0.788,18,15,04*71
$GTIMU,2292,537759.100,0.0599,-0.0016,0.0007,-0.0204,-0.0099,0.9993,20.5*4D
13:22::21.109,1702675359082,120.62749151,31.42736036,3478527.45764000,559659.73888690,116.24700000,6.00000000,0.00600000,-0.01000000,0.01200000,0.05990000,-0.00160000,0.00070000,-0.02040000,-0.00990000,0.99930000
$GPFPD,2292,537759.200,116.247,-0.479,1.139,31.42736035,120.62749152,14.285,0.008,-0.013,0.013,0.794,18,15,04*79
$GTIMU,2292,537759.200,-0.0126,0.0644,0.0060,-0.0179,-0.0046,1.0005,20.5*4B
13:22::21.208,1702675359182,120.62749152,31.42736035,3478527.45653663,559659.73984401,116.24700000,6.00000000,0.00800000,-0.01300000,0.01300000,-0.01260000,0.06440000,0.00600000,-0.01790000,-0.00460000,1.00050000
$GPFPD,2292,537759.300,116.247,-0.477,1.137,31.42736035,120.62749152,14.287,0.006,-0.007,0.015,0.787,18,15,04*75
$GTIMU,2292,537759.300,0.0060,-0.0283,0.0059,-0.0223,-0.0097,1.0005,20.5*4C
13:22::21.308,1702675359282,120.62749152,31.42736035,3478527.45653663,559659.73984401,116.24700000,6.00000000,0.00600000,-0.00700000,0.01500000,0.00600000,-0.02830000,0.00590000,-0.02230000,-0.00970000,1.00050000
$GPFPD,2292,537759.400,116.248,-0.480,1.140,31.42736038,120.62749149,14.290,0.006,-0.009,0.014,0.787,18,15,04*7B
$GTIMU,2292,537759.400,-0.0235,0.0326,-0.0037,-0.0176,-0.0067,0.9979,20.5*64
13:22::21.409,1702675359382,120.62749149,31.42736038,3478527.45984673,559659.73697267,116.24800000,6.00000000,0.00600000,-0.00900000,0.01400000,-0.02350000,0.03260000,-0.00370000,-0.01760000,-0.00670000,0.99790000
$GPFPD,2292,537759.500,116.246,-0.478,1.132,31.42736040,120.62749147,14.293,0.007,-0.007,0.016,0.789,18,15,04*77
$GTIMU,2292,537759.500,0.0070,-0.0811,0.0185,-0.0221,-0.0082,1.0021,20.5*4A
13:22::21.509,1702675359482,120.62749147,31.42736040,3478527.46205347,559659.73505844,116.24600000,6.00000000,0.00700000,-0.00700000,0.01600000,0.00700000,-0.08110000,0.01850000,-0.02210000,-0.00820000,1.00210000
$GPFPD,2292,537759.600,116.248,-0.480,1.137,31.42736043,120.62749144,14.296,0.005,-0.009,0.014,0.789,18,15,04*73
$GTIMU,2292,537759.600,-0.0201,0.0491,-0.0197,-0.0160,-0.0082,0.9968,20.5*6D
13:22::21.609,1702675359582,120.62749144,31.42736043,3478527.46536358,559659.73218709,116.24800000,6.00000000,0.00500000,-0.00900000,0.01400000,-0.02010000,0.04910000,-0.01970000,-0.01600000,-0.00820000,0.99680000
$GPFPD,2292,537759.700,116.247,-0.477,1.135,31.42736045,120.62749142,14.299,0.006,-0.008,0.015,0.787,18,15,04*75
$GTIMU,2292,537759.700,0.0293,-0.0249,0.0167,-0.0210,-0.0075,1.0005,20.5*40
13:22::21.708,1702675359682,120.62749142,31.42736045,3478527.46757032,559659.73027286,116.24700000,6.00000000,0.00600000,-0.00800000,0.01500000,0.02930000,-0.02490000,0.01670000,-0.02100000,-0.00750000,1.00050000
$GPFPD,2292,537759.800,116.248,-0.479,1.138,31.42736046,120.62749140,14.301,0.007,-0.009,0.015,0.787,18,15,04*77
$GTIMU,2292,537759.800,-0.0240,0.0337,-0.0054,-0.0193,-0.0073,1.0004,20.5*6A
13:22::21.809,1702675359782,120.62749140,31.42736046,3478527.46866826,559659.72836496,116.24800000,6.00000000,0.00700000,-0.00900000,0.01500000,-0.02400000,0.03370000,-0.00540000,-0.01930000,-0.00730000,1.00040000
$GPFPD,2292,537759.900,116.247,-0.479,1.132,31.42736046,120.62749141,14.303,0.007,-0.008,0.015,0.790,18,15,04*77
$GTIMU,2292,537759.900,-0.0072,-0.0607,0.0071,-0.0205,-0.0077,0.9988,20.5*64
13:22::21.909,1702675359882,120.62749141,31.42736046,3478527.46867369,559659.72931575,116.24700000,6.00000000,0.00700000,-0.00800000,0.01500000,-0.00720000,-0.06070000,0.00710000,-0.02050000,-0.00770000,0.99880000
$GPFPD,2292,537760.000,116.248,-0.481,1.135,31.42736045,120.62749141,14.304,0.007,-0.010,0.015,0.790,18,15,04*76
$GTIMU,2292,537760.000,-0.0206,0.0241,-0.0031,-0.0175,-0.0076,0.9995,20.5*6D
13:22::22.009,1702675359982,120.62749141,31.42736045,3478527.46756489,559659.72932208,116.24800000,6.00000000,0.00700000,-0.01000000,0.01500000,-0.02060000,0.02410000,-0.00310000,-0.01750000,-0.00760000,0.99950000
$GPGGA,052222.00,3125.6415319,N,12037.6501257,E,1,15,0.9,7.381,M,7.80,M,,*6B
$GPFPD,2292,537760.100,116.246,-0.481,1.132,31.42736044,120.62749142,14.306,0.007,-0.009,0.015,0.790,18,15,04*76
$GTIMU,2292,537760.100,0.0020,-0.0334,0.0173,-0.0203,-0.0084,0.9999,20.5*40
13:22::22.108,1702675360082,120.62749142,31.42736044,3478527.46646152,559659.73027919,116.24600000,6.00000000,0.00700000,-0.00900000,0.01500000,0.00200000,-0.03340000,0.01730000,-0.02030000,-0.00840000,0.99990000
$GPFPD,2292,537760.200,116.248,-0.483,1.136,31.42736043,120.62749143,14.307,0.006,-0.009,0.015,0.792,18,15,04*79
$GTIMU,2292,537760.200,-0.0252,0.0446,-0.0134,-0.0192,-0.0079,0.9991,20.5*69
13:22::22.209,1702675360182,120.62749143,31.42736043,3478527.46535815,559659.73123631,116.24800000,6.00000000,0.00600000,-0.00900000,0.01500000,-0.02520000,0.04460000,-0.01340000,-0.01920000,-0.00790000,0.99910000
$GPFPD,2292,537760.300,116.247,-0.482,1.131,31.42736044,120.62749143,14.307,0.006,-0.005,0.011,0.790,18,15,04*7C
$GTIMU,2292,537760.300,0.0071,-0.0561,0.0128,-0.0204,-0.0078,0.9997,20.5*44
13:22::22.309,1702675360282,120.62749143,31.42736044,3478527.46646695,559659.73122998,116.24700000,6.00000000,0.00600000,-0.00500000,0.01100000,0.00710000,-0.05610000,0.01280000,-0.02040000,-0.00780000,0.99970000
$GPFPD,2292,537760.400,116.248,-0.483,1.134,31.42736047,120.62749143,14.302,0.005,-0.006,0.011,0.790,18,15,04*76
$GTIMU,2292,537760.400,-0.0127,0.0275,-0.0083,-0.0181,-0.0084,0.9994,20.5*60
13:22::22.409,1702675360382,120.62749143,31.42736047,3478527.46979335,559659.73121098,116.24800000,6.00000000,0.00500000,-0.00600000,0.01100000,-0.01270000,0.02750000,-0.00830000,-0.01810000,-0.00840000,0.99940000
$GPFPD,2292,537760.500,116.249,-0.483,1.132,31.42736051,120.62749142,14.296,0.007,-0.006,0.011,0.786,18,15,04*7F
$GTIMU,2292,537760.500,-0.0060,-0.0220,-0.0020,-0.0199,-0.0067,0.9995,20.5*42
13:22::22.509,1702675360482,120.62749142,31.42736051,3478527.47422311,559659.73023487,116.24900000,6.00000000,0.00700000,-0.00600000,0.01100000,-0.00600000,-0.02200000,-0.00200000,-0.01990000,-0.00670000,0.99950000
$GPFPD,2292,537760.600,116.247,-0.481,1.131,31.42736054,120.62749141,14.291,0.005,-0.005,0.010,0.786,18,15,04*72
$GTIMU,2292,537760.600,0.0128,-0.0112,0.0145,-0.0199,-0.0096,0.9987,20.5*41
13:22::22.609,1702675360582,120.62749141,31.42736054,3478527.47754408,559659.72926509,116.24700000,6.00000000,0.00500000,-0.00500000,0.01000000,0.01280000,-0.01120000,0.01450000,-0.01990000,-0.00960000,0.99870000
$GPFPD,2292,537760.700,116.248,-0.482,1.132,31.42736058,120.62749141,14.285,0.007,-0.007,0.011,0.792,18,15,04*71
$GTIMU,2292,537760.700,-0.0099,0.0104,-0.0055,-0.0183,-0.0059,1.0003,20.5*64
13:22::22.709,1702675360682,120.62749141,31.42736058,3478527.48197928,559659.72923976,116.24800000,6.00000000,0.00700000,-0.00700000,0.01100000,-0.00990000,0.01040000,-0.00550000,-0.01830000,-0.00590000,1.00030000
$GPFPD,2292,537760.800,116.248,-0.482,1.134,31.42736061,120.62749141,14.282,0.005,-0.006,0.011,0.792,18,15,04*76
$GTIMU,2292,537760.800,0.0009,0.0212,0.0036,-0.0196,-0.0095,0.9996,20.5*6A
13:22::22.809,1702675360782,120.62749141,31.42736061,3478527.48530567,559659.72922077,116.24800000,6.00000000,0.00500000,-0.00600000,0.01100000,0.00090000,0.02120000,0.00360000,-0.01960000,-0.00950000,0.99960000
$GPFPD,2292,537760.900,116.247,-0.482,1.133,31.42736060,120.62749141,14.283,0.007,-0.006,0.010,0.790,18,15,04*7E
$GTIMU,2292,537760.900,-0.0065,-0.0101,0.0105,-0.0198,-0.0067,0.9985,20.5*60
13:22::22.909,1702675360882,120.62749141,31.42736060,3478527.48419687,559659.72922710,116.24700000,6.00000000,0.00700000,-0.00600000,0.01000000,-0.00650000,-0.01010000,0.01050000,-0.01980000,-0.00670000,0.99850000
$GPFPD,2292,537761.000,116.248,-0.481,1.134,31.42736060,120.62749142,14.284,0.006,-0.005,0.012,0.790,18,15,04*79
$GTIMU,2292,537761.000,0.0049,0.0002,-0.0055,-0.0206,-0.0086,1.0013,20.5*48
13:22::23.009,1702675360982,120.62749142,31.42736060,3478527.48420230,559659.73017788,116.24800000,6.00000000,0.00600000,-0.00500000,0.01200000,0.00490000,0.00020000,-0.00550000,-0.02060000,-0.00860000,1.00130000
$GPGGA,052223.00,3125.6415248,N,12037.6501323,E,1,15,0.9,7.378,M,7.80,M,,*6B
$GPFPD,2292,537761.100,116.248,-0.483,1.129,31.42736059,120.62749143,14.285,0.007,-0.006,0.010,0.790,18,15,04*7C
$GTIMU,2292,537761.100,-0.0259,-0.0442,0.0026,-0.0185,-0.0063,0.9983,20.5*68
13:22::23.109,1702675361082,120.62749143,31.42736059,3478527.48309894,559659.73113500,116.24800000,6.00000000,0.00700000,-0.00600000,0.01000000,-0.02590000,-0.04420000,0.00260000,-0.01850000,-0.00630000,0.99830000
$GPFPD,2292,537761.200,116.248,-0.483,1.132,31.42736059,120.62749143,14.286,0.006,-0.006,0.011,0.788,18,15,04*7F
$GTIMU,2292,537761.200,-0.0019,0.0212,-0.0021,-0.0189,-0.0097,1.0002,20.5*66
13:22::23.209,1702675361182,120.62749143,31.42736059,3478527.48309894,559659.73113500,116.24800000,6.00000000,0.00600000,-0.00600000,0.01100000,-0.00190000,0.02120000,-0.00210000,-0.01890000,-0.00970000,1.00020000
$GPFPD,2292,537761.300,116.248,-0.483,1.130,31.42736058,120.62749145,14.287,0.009,-0.006,0.012,0.790,18,15,04*7F
$GTIMU,2292,537761.300,-0.0008,-0.0203,0.0082,-0.0196,-0.0062,0.9991,20.5*61
13:22::23.309,1702675361282,120.62749145,31.42736058,3478527.48200100,559659.73304289,116.24800000,6.00000000,0.00900000,-0.00600000,0.01200000,-0.00080000,-0.02030000,0.00820000,-0.01960000,-0.00620000,0.99910000
$GPFPD,2292,537761.400,116.249,-0.485,1.133,31.42736057,120.62749149,14.290,0.009,-0.005,0.013,0.790,18,15,04*7B
$GTIMU,2292,537761.400,-0.0252,0.0275,-0.0071,-0.0197,-0.0086,1.0006,20.5*62
13:22::23.409,1702675361382,120.62749149,31.42736057,3478527.48091392,559659.73685236,116.24900000,6.00000000,0.00900000,-0.00500000,0.01300000,-0.02520000,0.02750000,-0.00710000,-0.01970000,-0.00860000,1.00060000
$GPFPD,2292,537761.500,116.249,-0.485,1.129,31.42736057,120.62749153,14.292,0.009,-0.006,0.011,0.786,18,15,04*7E
$GTIMU,2292,537761.500,-0.0037,-0.0413,0.0065,-0.0193,-0.0077,0.9979,20.5*62
13:22::23.509,1702675361482,120.62749153,31.42736057,3478527.48093563,559659.74065549,116.24900000,6.00000000,0.00900000,-0.00600000,0.01100000,-0.00370000,-0.04130000,0.00650000,-0.01930000,-0.00770000,0.99790000
$GPFPD,2292,537761.600,116.249,-0.485,1.131,31.42736056,120.62749157,14.295,0.008,-0.006,0.011,0.786,18,15,04*77
$GTIMU,2292,537761.600,-0.0030,0.0218,0.0014,-0.0189,-0.0089,0.9995,20.5*48
13:22::23.609,1702675361582,120.62749157,31.42736056,3478527.47984855,559659.74446496,116.24900000,6.00000000,0.00800000,-0.00600000,0.01100000,-0.00300000,0.02180000,0.00140000,-0.01890000,-0.00890000,0.99950000
$GPFPD,2292,537761.700,116.249,-0.486,1.130,31.42736055,120.62749162,14.298,0.010,-0.006,0.012,0.790,18,15,04*71
$GTIMU,2292,537761.700,-0.0042,-0.0095,-0.0009,-0.0195,-0.0061,0.9999,20.5*40
13:22::23.709,1702675361682,120.62749162,31.42736055,3478527.47876690,559659.74922520,116.24900000,6.00000000,0.01000000,-0.00600000,0.01200000,-0.00420000,-0.00950000,-0.00090000,-0.01950000,-0.00610000,0.99990000
$GPFPD,2292,537761.800,116.249,-0.485,1.131,31.42736055,120.62749165,14.300,0.008,-0.005,0.012,0.790,18,15,04*71
$GTIMU,2292,537761.800,0.0020,0.0024,0.0054,-0.0199,-0.0104,1.0003,20.5*68
13:22::23.809,1702675361782,120.62749165,31.42736055,3478527.47878319,559659.75207755,116.24900000,6.00000000,0.00800000,-0.00500000,0.01200000,0.00200000,0.00240000,0.00540000,-0.01990000,-0.01040000,1.00030000
$GPFPD,2292,537761.900,116.249,-0.486,1.131,31.42736054,120.62749166,14.301,0.010,-0.007,0.010,0.790,18,15,04*79
$GTIMU,2292,537761.900,-0.0110,0.0036,0.0008,-0.0184,-0.0051,0.9975,20.5*41
13:22::23.909,1702675361882,120.62749166,31.42736054,3478527.47767982,559659.75303467,116.24900000,6.00000000,0.01000000,-0.00700000,0.01000000,-0.01100000,0.00360000,0.00080000,-0.01840000,-0.00510000,0.99750000
$GPFPD,2292,537762.000,116.248,-0.484,1.128,31.42736054,120.62749167,14.302,0.009,-0.005,0.013,0.790,18,15,04*73
$GTIMU,2292,537762.000,0.0185,-0.0300,0.0065,-0.0209,-0.0101,1.0020,20.5*49
13:22::24.009,1702675361982,120.62749167,31.42736054,3478527.47768525,559659.75398545,116.24800000,6.00000000,0.00900000,-0.00500000,0.01300000,0.01850000,-0.03000000,0.00650000,-0.02090000,-0.01010000,1.00200000
$GPGGA,052224.00,3125.6415268,N,12037.6501349,E,1,15,0.9,7.424,M,7.80,M,,*6C
$GPFPD,2292,537762.100,116.249,-0.486,1.132,31.42736053,120.62749168,14.303,0.010,-0.008,0.011,0.790,18,15,04*74
$GTIMU,2292,537762.100,-0.0263,0.0349,-0.0020,-0.0170,-0.0056,0.9980,20.5*67
13:22::24.109,1702675362082,120.62749168,31.42736053,3478527.47658188,559659.75494257,116.24900000,6.00000000,0.01000000,-0.00800000,0.01100000,-0.02630000,0.03490000,-0.00200000,-0.01700000,-0.00560000,0.99800000
$GPFPD,2292,537762.200,116.247,-0.485,1.127,31.42736053,120.62749169,14.304,0.010,-0.005,0.013,0.791,18,15,04*76
$GTIMU,2292,537762.200,0.0094,-0.0516,0.0167,-0.0223,-0.0097,1.0012,20.5*4F
13:22::24.209,1702675362182,120.62749169,31.42736053,3478527.47658731,559659.75589335,116.24700000,6.00000000,0.01000000,-0.00500000,0.01300000,0.00940000,-0.05160000,0.01670000,-0.02230000,-0.00970000,1.00120000
$GPFPD,2292,537762.300,116.250,-0.486,1.130,31.42736051,120.62749170,14.304,0.009,-0.010,0.006,0.792,17,15,04*7A
$GTIMU,2292,537762.300,-0.0133,0.0298,-0.0134,-0.0167,-0.0073,0.9970,20.5*64
13:22::24.309,1702675362282,120.62749170,31.42736051,3478527.47437514,559659.75685680,116.25000000,6.00000000,0.00900000,-0.01000000,0.00600000,-0.01330000,0.02980000,-0.01340000,-0.01670000,-0.00730000,0.99700000
$GPFPD,2292,537762.400,116.249,-0.481,1.130,31.42736046,120.62749171,14.299,0.009,-0.009,0.008,0.792,17,15,04*76
$GTIMU,2292,537762.400,0.0412,-0.0072,0.0087,-0.0201,-0.0089,1.0008,20.5*4F
13:22::24.409,1702675362382,120.62749171,31.42736046,3478527.46883658,559659.75783924,116.24900000,6.00000000,0.00900000,-0.00900000,0.00800000,0.04120000,-0.00720000,0.00870000,-0.02010000,-0.00890000,1.00080000
$GPFPD,2292,537762.500,116.249,-0.483,1.135,31.42736041,120.62749172,14.293,0.010,-0.010,0.006,0.795,17,15,04*77
$GTIMU,2292,537762.500,-0.0166,0.0553,0.0014,-0.0190,-0.0058,0.9979,20.5*44
13:22::24.509,1702675362482,120.62749172,31.42736041,3478527.46329801,559659.75882168,116.24900000,6.00000000,0.01000000,-0.01000000,0.00600000,-0.01660000,0.05530000,0.00140000,-0.01900000,-0.00580000,0.99790000
$GPFPD,2292,537762.600,116.249,-0.479,1.131,31.42736036,120.62749173,14.288,0.009,-0.007,0.008,0.795,17,15,04*7E
$GTIMU,2292,537762.600,0.0320,-0.0482,0.0053,-0.0215,-0.0098,1.0017,20.5*42
13:22::24.609,1702675362582,120.62749173,31.42736036,3478527.45775945,559659.75980413,116.24900000,6.00000000,0.00900000,-0.00700000,0.00800000,0.03200000,-0.04820000,0.00530000,-0.02150000,-0.00980000,1.00170000
$GPFPD,2292,537762.700,116.250,-0.482,1.137,31.42736031,120.62749174,14.283,0.010,-0.012,0.007,0.792,17,15,04*7A
$GTIMU,2292,537762.700,-0.0274,0.0639,-0.0111,-0.0157,-0.0056,0.9984,20.5*67
13:22::24.709,1702675362682,120.62749174,31.42736031,3478527.45222088,559659.76078657,116.25000000,6.00000000,0.01000000,-0.01200000,0.00700000,-0.02740000,0.06390000,-0.01110000,-0.01570000,-0.00560000,0.99840000
$GPFPD,2292,537762.800,116.248,-0.479,1.136,31.42736027,120.62749175,14.279,0.009,-0.009,0.008,0.792,17,15,04*77
$GTIMU,2292,537762.800,0.0231,-0.0112,0.0190,-0.0221,-0.0099,1.0005,20.5*4A
13:22::24.809,1702675362782,120.62749175,31.42736027,3478527.44779112,559659.76176268,116.24800000,6.00000000,0.00900000,-0.00900000,0.00800000,0.02310000,-0.01120000,0.01900000,-0.02210000,-0.00990000,1.00050000
$GPFPD,2292,537762.900,116.250,-0.481,1.140,31.42736027,120.62749176,14.280,0.011,-0.009,0.006,0.792,17,15,04*7B
$GTIMU,2292,537762.900,-0.0195,0.0372,-0.0094,-0.0195,-0.0065,0.9976,20.5*60
13:22::24.909,1702675362882,120.62749176,31.42736027,3478527.44779655,559659.76271346,116.25000000,6.00000000,0.01100000,-0.00900000,0.00600000,-0.01950000,0.03720000,-0.00940000,-0.01950000,-0.00650000,0.99760000
$GPFPD,2292,537763.000,116.249,-0.477,1.133,31.42736026,120.62749177,14.281,0.010,-0.008,0.009,0.792,17,15,04*78
$GTIMU,2292,537763.000,0.0371,-0.0783,0.0064,-0.0207,-0.0089,1.0019,20.5*4A
13:22::25.009,1702675362982,120.62749177,31.42736026,3478527.44669318,559659.76367058,116.24900000,6.00000000,0.01000000,-0.00800000,0.00900000,0.03710000,-0.07830000,0.00640000,-0.02070000,-0.00890000,1.00190000
$GPGGA,052225.00,3125.6415420,N,12037.6501232,E,1,15,0.9,7.416,M,7.80,M,,*6B
$GPFPD,2292,537763.100,116.250,-0.480,1.135,31.42736025,120.62749178,14.281,0.011,-0.011,0.008,0.792,17,15,04*7B
$GTIMU,2292,537763.100,-0.0394,0.0258,-0.0054,-0.0166,-0.0057,0.9987,20.5*6C
13:22::25.109,1702675363082,120.62749178,31.42736025,3478527.44558981,559659.76462769,116.25000000,6.00000000,0.01100000,-0.01100000,0.00800000,-0.03940000,0.02580000,-0.00540000,-0.01660000,-0.00570000,0.99870000
$GPFPD,2292,537763.200,116.249,-0.479,1.133,31.42736024,120.62749179,14.282,0.010,-0.009,0.008,0.791,17,15,04*78
$GTIMU,2292,537763.200,0.0094,-0.0243,0.0156,-0.0207,-0.0096,0.9997,20.5*40
13:22::25.209,1702675363182,120.62749179,31.42736024,3478527.44448644,559659.76558481,116.24900000,6.00000000,0.01000000,-0.00900000,0.00800000,0.00940000,-0.02430000,0.01560000,-0.02070000,-0.00960000,0.99970000
$GPFPD,2292,537763.300,116.250,-0.480,1.138,31.42736023,120.62749179,14.282,0.008,-0.010,0.005,0.792,17,15,04*74
$GTIMU,2292,537763.300,-0.0138,0.0457,-0.0094,-0.0191,-0.0077,0.9984,20.5*66
13:22::25.309,1702675363282,120.62749179,31.42736023,3478527.44337764,559659.76559114,116.25000000,6.00000000,0.00800000,-0.01000000,0.00500000,-0.01380000,0.04570000,-0.00940000,-0.01910000,-0.00770000,0.99840000
$GPFPD,2292,537763.400,116.250,-0.478,1.133,31.42736022,120.62749177,14.280,0.010,-0.009,0.006,0.792,17,15,04*70
$GTIMU,2292,537763.400,0.0139,-0.0527,0.0082,-0.0211,-0.0069,1.0010,20.5*44
13:22::25.409,1702675363382,120.62749177,31.42736022,3478527.44225798,559659.76369591,116.25000000,6.00000000,0.01000000,-0.00900000,0.00600000,0.01390000,-0.05270000,0.00820000,-0.02110000,-0.00690000,1.00100000
$GPFPD,2292,537763.500,116.250,-0.480,1.134,31.42736021,120.62749175,14.277,0.008,-0.010,0.005,0.799,17,15,04*71
$GTIMU,2292,537763.500,-0.0224,0.0133,-0.0014,-0.0175,-0.0084,0.9984,20.5*67
13:22::25.509,1702675363482,120.62749175,31.42736021,3478527.44113832,559659.76180067,116.25000000,6.00000000,0.00800000,-0.01000000,0.00500000,-0.02240000,0.01330000,-0.00140000,-0.01750000,-0.00840000,0.99840000
$GPFPD,2292,537763.600,116.250,-0.479,1.133,31.42736020,120.62749172,14.275,0.009,-0.010,0.005,0.799,17,15,04*76
$GTIMU,2292,537763.600,0.0122,-0.0123,0.0042,-0.0198,-0.0075,0.9999,20.5*4F
13:22::25.609,1702675363582,120.62749172,31.42736020,3478527.44001323,559659.75895466,116.25000000,6.00000000,0.00900000,-0.01000000,0.00500000,0.01220000,-0.01230000,0.00420000,-0.01980000,-0.00750000,0.99990000
$GPFPD,2292,537763.700,116.250,-0.480,1.137,31.42736019,120.62749170,14.272,0.008,-0.010,0.006,0.792,17,15,04*73
$GTIMU,2292,537763.700,-0.0132,0.0349,0.0008,-0.0196,-0.0084,1.0000,20.5*4E
13:22::25.709,1702675363682,120.62749170,31.42736019,3478527.43889358,559659.75705942,116.25000000,6.00000000,0.00800000,-0.01000000,0.00600000,-0.01320000,0.03490000,0.00080000,-0.01960000,-0.00840000,1.00000000
$GPFPD,2292,537763.800,116.249,-0.479,1.132,31.42736018,120.62749168,14.270,0.010,-0.010,0.005,0.792,17,15,04*77
$GTIMU,2292,537763.800,-0.0009,-0.0464,0.0071,-0.0202,-0.0067,0.9989,20.5*60
13:22::25.809,1702675363782,120.62749168,31.42736018,3478527.43777392,559659.75516419,116.24900000,6.00000000,0.01000000,-0.01000000,0.00500000,-0.00090000,-0.04640000,0.00710000,-0.02020000,-0.00670000,0.99890000
$GPFPD,2292,537763.900,116.250,-0.480,1.134,31.42736017,120.62749169,14.271,0.008,-0.010,0.006,0.792,17,15,04*7B
$GTIMU,2292,537763.900,-0.0048,0.0195,-0.0060,-0.0184,-0.0086,1.0000,20.5*6D
13:22::25.909,1702675363882,120.62749169,31.42736017,3478527.43667055,559659.75612130,116.25000000,6.00000000,0.00800000,-0.01000000,0.00600000,-0.00480000,0.01950000,-0.00600000,-0.01840000,-0.00860000,1.00000000
$GPFPD,2292,537764.000,116.250,-0.479,1.132,31.42736016,120.62749170,14.271,0.009,-0.010,0.005,0.792,17,15,04*7E
$GTIMU,2292,537764.000,0.0014,-0.0231,0.0071,-0.0198,-0.0071,0.9990,20.5*47
13:22::26.009,1702675363982,120.62749170,31.42736016,3478527.43556718,559659.75707842,116.25000000,6.00000000,0.00900000,-0.01000000,0.00500000,0.00140000,-0.02310000,0.00710000,-0.01980000,-0.00710000,0.99900000
$GPGGA,052226.00,3125.6415454,N,12037.6501312,E,1,15,0.9,7.406,M,7.80,M,,*69
$GPFPD,2292,537764.100,116.250,-0.480,1.136,31.42736015,120.62749171,14.272,0.008,-0.011,0.006,0.792,17,15,04*7F
$GTIMU,2292,537764.100,-0.0081,0.0360,0.0008,-0.0188,-0.0085,1.0005,20.5*46
13:22::26.109,1702675364082,120.62749171,31.42736015,3478527.43446381,559659.75803553,116.25000000,6.00000000,0.00800000,-0.01100000,0.00600000,-0.00810000,0.03600000,0.00080000,-0.01880000,-0.00850000,1.00050000
$GPFPD,2292,537764.200,116.249,-0.480,1.134,31.42736014,120.62749172,14.272,0.009,-0.010,0.005,0.791,17,15,04*74
$GTIMU,2292,537764.200,-0.0037,-0.0237,0.0076,-0.0202,-0.0071,0.9988,20.5*61
13:22::26.209,1702675364182,120.62749172,31.42736014,3478527.43336044,559659.75899265,116.24900000,6.00000000,0.00900000,-0.01000000,0.00500000,-0.00370000,-0.02370000,0.00760000,-0.02020000,-0.00710000,0.99880000
$GPFPD,2292,537764.300,116.251,-0.480,1.137,31.42736013,120.62749172,14.273,0.006,-0.010,0.006,0.794,17,15,04*70
$GTIMU,2292,537764.300,-0.0053,0.0354,-0.0032,-0.0189,-0.0091,0.9989,20.5*69
13:22::26.309,1702675364282,120.62749172,31.42736013,3478527.43225164,559659.75899898,116.25100000,6.00000000,0.00600000,-0.01000000,0.00600000,-0.00530000,0.03540000,-0.00320000,-0.01890000,-0.00910000,0.99890000
$GPFPD,2292,537764.400,116.250,-0.478,1.134,31.42736012,120.62749170,14.275,0.008,-0.010,0.007,0.794,17,15,04*78
$GTIMU,2292,537764.400,0.0150,-0.0385,0.0093,-0.0204,-0.0066,1.0004,20.5*4C
13:22::26.409,1702675364382,120.62749170,31.42736012,3478527.43113198,559659.75710374,116.25000000,6.00000000,0.00800000,-0.01000000,0.00700000,0.01500000,-0.03850000,0.00930000,-0.02040000,-0.00660000,1.00040000
$GPFPD,2292,537764.500,116.251,-0.480,1.138,31.42736011,120.62749168,14.278,0.007,-0.011,0.007,0.793,17,15,04*7D
$GTIMU,2292,537764.500,-0.0223,0.0389,-0.0071,-0.0181,-0.0078,0.9996,20.5*6C
13:22::26.509,1702675364482,120.62749168,31.42736011,3478527.43001233,559659.75520851,116.25100000,6.00000000,0.00700000,-0.01100000,0.00700000,-0.02230000,0.03890000,-0.00710000,-0.01810000,-0.00780000,0.99960000
$GPFPD,2292,537764.600,116.249,-0.479,1.135,31.42736010,120.62749166,14.280,0.008,-0.010,0.006,0.793,17,15,04*7B
$GTIMU,2292,537764.600,0.0049,-0.0266,0.0156,-0.0204,-0.0079,0.9990,20.5*41
13:22::26.609,1702675364582,120.62749166,31.42736010,3478527.42889267,559659.75331328,116.24900000,6.00000000,0.00800000,-0.01000000,0.00600000,0.00490000,-0.02660000,0.01560000,-0.02040000,-0.00790000,0.99900000
$GPFPD,2292,537764.700,116.251,-0.478,1.138,31.42736009,120.62749164,14.282,0.007,-0.010,0.006,0.789,17,15,04*73
$GTIMU,2292,537764.700,0.0055,0.0218,-0.0095,-0.0197,-0.0087,0.9995,20.5*47
13:22::26.709,1702675364682,120.62749164,31.42736009,3478527.42777301,559659.75141804,116.25100000,6.00000000,0.00700000,-0.01000000,0.00600000,0.00550000,0.02180000,-0.00950000,-0.01970000,-0.00870000,0.99950000
$GPFPD,2292,537764.800,116.250,-0.478,1.134,31.42736008,120.62749162,14.284,0.009,-0.011,0.006,0.789,17,15,04*7F
$GTIMU,2292,537764.800,0.0037,-0.0362,0.0042,-0.0190,-0.0054,0.9991,20.5*47
13:22::26.809,1702675364782,120.62749162,31.42736008,3478527.42665335,559659.74952281,116.25000000,6.00000000,0.00900000,-0.01100000,0.00600000,0.00370000,-0.03620000,0.00420000,-0.01900000,-0.00540000,0.99910000
$GPFPD,2292,537764.900,116.238,-0.444,1.144,31.42736006,120.62749165,14.283,0.039,-0.029,-0.015,0.790,17,15,04*59
$GTIMU,2292,537764.900,0.3285,0.0971,0.1312,-0.0159,0.0278,0.9792,20.5*45
13:22::26.909,1702675364882,120.62749165,31.42736006,3478527.42445204,559659.75238782,116.23800000,6.00000000,0.03900000,-0.02900000,-0.01500000,0.32850000,0.09710000,0.13120000,-0.01590000,0.02780000,0.97920000
$GPFPD,2292,537765.000,116.230,-0.396,1.148,31.42736003,120.62749171,14.281,0.081,-0.047,-0.011,0.790,17,15,04*50
$GTIMU,2292,537765.000,0.4770,0.0408,0.0966,-0.0232,0.0396,1.0033,20.5*45
13:22::27.009,1702675364982,120.62749171,31.42736003,3478527.42115822,559659.75811152,116.23000000,6.00000000,0.08100000,-0.04700000,-0.01100000,0.47700000,0.04080000,0.09660000,-0.02320000,0.03960000,1.00330000
$GPGGA,052227.00,3125.6415520,N,12037.6501322,E,1,15,0.9,7.420,M,7.80,M,,*6D
$GPFPD,2292,537765.100,116.225,-0.376,1.151,31.42735998,120.62749182,14.281,0.122,-0.067,0.003,0.790,17,15,04*73
$GTIMU,2292,537765.100,0.1981,0.0205,0.0482,-0.0195,0.0410,1.0143,20.5*4C
13:22::27.109,1702675365082,120.62749182,31.42735998,3478527.41567395,559659.76860179,116.22500000,6.00000000,0.12200000,-0.06700000,0.00300000,0.19810000,0.02050000,0.04820000,-0.01950000,0.04100000,1.01430000
$GPFPD,2292,537765.200,116.202,-0.374,1.151,31.42735991,120.62749197,14.282,0.165,-0.092,0.008,0.795,17,15,04*7E
$GTIMU,2292,537765.200,0.0084,-0.0007,0.2420,-0.0164,0.0442,1.0052,20.5*6D
13:22::27.209,1702675365182,120.62749197,31.42735991,3478527.40799381,559659.78290786,116.20200000,6.00000000,0.16500000,-0.09200000,0.00800000,0.00840000,-0.00070000,0.24200000,-0.01640000,0.04420000,1.00520000
$GPFPD,2292,537765.300,116.175,-0.374,1.147,31.42735982,120.62749217,14.283,0.208,-0.107,0.010,0.791,17,16,04*78
$GTIMU,2292,537765.300,-0.0132,-0.0468,0.2700,-0.0230,0.0421,0.9995,20.5*4C
13:22::27.309,1702675365282,120.62749217,31.42735982,3478527.39812321,559659.80198051,116.17500000,6.00000000,0.20800000,-0.10700000,0.01000000,-0.01320000,-0.04680000,0.27000000,-0.02300000,0.04210000,0.99950000
$GPFPD,2292,537765.400,116.151,-0.375,1.143,31.42735975,120.62749239,14.287,0.252,-0.131,0.008,0.791,17,16,04*7F
$GTIMU,2292,537765.400,-0.0087,-0.0348,0.2404,-0.0182,0.0449,0.9982,20.5*44
13:22::27.409,1702675365382,120.62749239,31.42735975,3478527.39048107,559659.82294207,116.15100000,6.00000000,0.25200000,-0.13100000,0.00800000,-0.00870000,-0.03480000,0.24040000,-0.01820000,0.04490000,0.99820000
$GPFPD,2292,537765.500,116.117,-0.377,1.144,31.42735966,120.62749266,14.291,0.292,-0.153,0.011,0.787,17,16,04*71
$GTIMU,2292,537765.500,-0.0322,0.0026,0.3488,-0.0176,0.0408,1.0024,20.5*69
13:22::27.509,1702675365482,120.62749266,31.42735966,3478527.38064848,559659.84867020,116.11700000,6.00000000,0.29200000,-0.15300000,0.01100000,-0.03220000,0.00260000,0.34880000,-0.01760000,0.04080000,1.00240000
$GPFPD,2292,537765.600,116.071,-0.383,1.141,31.42735955,120.62749298,14.295,0.335,-0.175,0.010,0.787,17,16,04*71
$GTIMU,2292,537765.600,-0.0729,-0.0350,0.4527,-0.0183,0.0431,0.9993,20.5*44
13:22::27.609,1702675365582,120.62749298,31.42735955,3478527.36862544,559659.87916491,116.07100000,6.00000000,0.33500000,-0.17500000,0.01000000,-0.07290000,-0.03500000,0.45270000,-0.01830000,0.04310000,0.99930000
$GPFPD,2292,537765.700,116.026,-0.384,1.137,31.42735943,120.62749334,14.299,0.377,-0.191,0.010,0.787,17,16,04*74
$GTIMU,2292,537765.700,-0.0263,-0.0436,0.4600,-0.0235,0.0396,1.0000,20.5*40
13:22::27.709,1702675365682,120.62749334,31.42735943,3478527.35551531,559659.91346909,116.02600000,6.00000000,0.37700000,-0.19100000,0.01000000,-0.02630000,-0.04360000,0.46000000,-0.02350000,0.03960000,1.00000000
$GPFPD,2292,537765.800,115.977,-0.390,1.131,31.42735927,120.62749375,14.303,0.421,-0.215,0.008,0.787,17,16,04*71
$GTIMU,2292,537765.800,-0.0706,-0.0646,0.4915,-0.0174,0.0441,0.9980,20.5*45
13:22::27.809,1702675365782,120.62749375,31.42735927,3478527.33799715,559659.95255251,115.97700000,6.00000000,0.42100000,-0.21500000,0.00800000,-0.07060000,-0.06460000,0.49150000,-0.01740000,0.04410000,0.99800000
$GPFPD,2292,537765.900,115.917,-0.393,1.124,31.42735907,120.62749421,14.303,0.466,-0.238,0.010,0.792,17,16,04*74
$GTIMU,2292,537765.900,-0.0470,-0.0750,0.6021,-0.0184,0.0452,1.0014,20.5*4D
13:22::27.910,1702675365882,120.62749421,31.42735907,3478527.31607093,559659.99641518,115.91700000,6.00000000,0.46600000,-0.23800000,0.01000000,-0.04700000,-0.07500000,0.60210000,-0.01840000,0.04520000,1.00140000
$GPFPD,2292,537766.000,115.854,-0.396,1.125,31.42735884,120.62749473,14.305,0.510,-0.259,0.009,0.792,17,16,04*78
$GTIMU,2292,537766.000,-0.0428,-0.0011,0.6311,-0.0193,0.0435,0.9987,20.5*44
13:22::28.009,1702675365982,120.62749473,31.42735884,3478527.29085090,559660.04600154,115.85400000,6.00000000,0.51000000,-0.25900000,0.00900000,-0.04280000,-0.00110000,0.63110000,-0.01930000,0.04350000,0.99870000
$GPFPD,2292,537766$GPGGA,05.100,115.2228.00,3790,-0.39125.641587,1.123,396,N,12031.42735867.65036590,120.627,E,1,16,049529,14.8,7.314,.305,0.5M,7.80,M,57,-0.280,*6B
,0.009,0.792,17,16,04*7A
$GTIMU,2292,537766.100,-0.0241,-0.0250,0.6408,-0.0207,0.0465,1.0002,20.5*43
13:22::28.110,1702675366082,120.62749529,31.42735860,3478527.26454378,559660.09939737,115.79000000,6.00000000,0.55700000,-0.28000000,0.00900000,-0.02410000,-0.02500000,0.64080000,-0.02070000,0.04650000,1.00020000
$GPFPD,2292,537766.200,115.717,-0.400,1.123,31.42735834,120.62749590,14.306,0.604,-0.304,0.010,0.803,17,16,04*78
$GTIMU,2292,537766.200,-0.0511,-0.0058,0.7298,-0.0182,0.0473,1.0004,20.5*49
13:22::28.209,1702675366182,120.62749590,31.42735834,3478527.23604622,559660.15755977,115.71700000,6.00000000,0.60400000,-0.30400000,0.01000000,-0.05110000,-0.00580000,0.72980000,-0.01820000,0.04730000,1.00040000
$GPFPD,2292,537766.300,115.635,-0.403,1.116,31.42735806,120.62749656,14.307,0.653,-0.324,0.008,0.791,17,16,04*79
$GTIMU,2292,537766.300,-0.0498,-0.0792,0.8234,-0.0202,0.0487,0.9988,20.5*45
13:22::28.310,1702675366282,120.62749656,31.42735806,3478527.20535821,559660.22048876,115.63500000,6.00000000,0.65300000,-0.32400000,0.00800000,-0.04980000,-0.07920000,0.82340000,-0.02020000,0.04870000,0.99880000
$GPFPD,2292,537766.400,115.552,-0.407,1.114,31.42735781,120.62749728,14.305,0.705,-0.347,0.007,0.791,17,16,04*78
$GTIMU,2292,537766.400,-0.0565,-0.0241,0.8302,-0.0203,0.0515,0.9998,20.5*44
13:22::28.409,1702675366382,120.62749728,31.42735781,3478527.17802917,559660.28910345,115.55200000,6.00000000,0.70500000,-0.34700000,0.00700000,-0.05650000,-0.02410000,0.83020000,-0.02030000,0.05150000,0.99980000
$GPFPD,2292,537766.500,115.463,-0.409,1.112,31.42735754,120.62749805,14.304,0.759,-0.374,0.005,0.791,15,16,04*72
$GTIMU,2292,537766.500,-0.0371,-0.0304,0.8895,-0.0177,0.0550,0.9972,20.5*46
13:22::28.510,1702675366482,120.62749805,31.42735754,3478527.14850968,559660.36248472,115.46300000,6.00000000,0.75900000,-0.37400000,0.00500000,-0.03710000,-0.03040000,0.88950000,-0.01770000,0.05500000,0.99720000
$GPFPD,2292,537766.600,115.361,-0.403,1.123,31.42735724,120.62749888,14.302,0.823,-0.406,-0.001,0.791,15,16,04*51
$GTIMU,2292,537766.600,0.0294,0.1058,1.0194,-0.0178,0.0661,0.9944,20.5*4E
13:22::28.609,1702675366582,120.62749888,31.42735724,3478527.11569637,559660.44158969,115.36100000,6.00000000,0.82300000,-0.40600000,-0.00100000,0.02940000,0.10580000,1.01940000,-0.01780000,0.06610000,0.99440000
$GPFPD,2292,537766.700,115.257,-0.388,1.134,31.42735691,120.62749979,14.299,0.895,-0.437,-0.005,0.791,17,16,04*5C
$GTIMU,2292,537766.700,0.1334,0.1023,1.0505,-0.0222,0.0733,0.9959,20.5*43
13:22::28.709,1702675366682,120.62749979,31.42735691,3478527.07960011,559660.52831992,115.25700000,6.00000000,0.89500000,-0.43700000,-0.00500000,0.13340000,0.10230000,1.05050000,-0.02220000,0.07330000,0.99590000
$GPFPD,2292,537766.800,115.142,-0.366,1.145,31.42735654,120.62750077,14.297,0.970,-0.472,-0.004,0.791,17,16,04*50
$GTIMU,2292,537766.800,0.1944,0.0953,1.1593,-0.0198,0.0792,1.0008,20.5*4C
13:22::28.809,1702675366782,120.62750077,31.42735654,3478527.03910666,559660.62173096,115.14200000,6.00000000,0.97000000,-0.47200000,-0.00400000,0.19440000,0.09530000,1.15930000,-0.01980000,0.07920000,1.00080000
$GPFPD,2292,537766.900,115.013,-0.343,1.163,31.42735610,120.62750183,14.297,1.050,-0.510,-0.001,0.797,17,16,04*51
$GTIMU,2292,537766.900,0.1938,0.1685,1.2887,-0.0192,0.0840,1.0032,20.5*4B
13:22::28.910,1702675366882,120.62750183,31.42735610,3478526.99089505,559660.72279259,115.01300000,6.00000000,1.05000000,-0.51000000,-0.00100000,0.19380000,0.16850000,1.28870000,-0.01920000,0.08400000,1.00320000
$GPFPD,2292,537767.000,114.878,-0.328,1.169,31.42735562,120.62750298,14.296,1.138,-0.545,0.001,0.797,17,16,04*76
$GTIMU,2292,537767.000,0.1256,0.0508,1.3556,-0.0256,0.0911,1.0020,20.5*4A
13:22::29.009,1702675366982,120.62750298,31.42735562,3478526.93829712,559660.83243660,114.87800000,6.00000000,1.13800000,-0.54500000,0.00100000,0.12560000,0.05080000,1.35560000,-0.02560000,0.09110000,1.00200000
$GPGGA,052229.00,3125.6414508,N,12037.6508344,E,1,16,0.9,7.276,M,7.80,M,,*67
$GPFPD,2292,537767.100,114.731,-0.318,1.186,31.42735511,120.62750423,14.296,1.225,-0.589,0.003,0.797,17,16,04*78
$GTIMU,2292,537767.100,0.0591,0.1633,1.4813,-0.0172,0.0947,1.0019,20.5*4B
13:22::29.109,1702675367082,120.62750423,31.42735511,3478526.88242709,559660.95160744,114.73100000,6.00000000,1.22500000,-0.58900000,0.00300000,0.05910000,0.16330000,1.48130000,-0.01720000,0.09470000,1.00190000
$GPFPD,2292,537767.200,114.572,-0.318,1.204,31.42735456,120.62750556,14.297,1.311,-0.622,0.006,0.797,17,16,04*76
$GTIMU,2292,537767.200,-0.0365,0.1677,1.5836,-0.0260,0.0884,1.0038,20.5*63
13:22::29.210,1702675367182,120.62750556,31.42735456,3478526.82216530,559661.07840987,114.57200000,6.00000000,1.31100000,-0.62200000,0.00600000,-0.03650000,0.16770000,1.58360000,-0.02600000,0.08840000,1.00380000
$GPFPD,2292,537767.300,114.415,-0.305,1.196,31.42735399,120.62750698,14.298,1.396,-0.654,0.005,0.796,18,17,04*7B
$GTIMU,2292,537767.300,0.1004,-0.0893,1.5833,-0.0291,0.0896,0.9952,20.5*67
13:22::29.310,1702675367282,120.62750698,31.42735399,3478526.75973479,559661.21378202,114.41500000,6.00000000,1.39600000,-0.65400000,0.00500000,0.10040000,-0.08930000,1.58330000,-0.02910000,0.08960000,0.99520000
$GPFPD,2292,537767.400,114.235,-0.273,1.202,31.42735338,120.62750846,14.303,1.488,-0.695,-0.005,0.796,18,17,04*5B
$GTIMU,2292,537767.400,0.2755,0.0479,1.8019,-0.0204,0.0987,0.9896,20.5*4C
13:22::29.410,1702675367382,120.62750846,31.42735338,3478526.69290165,559661.35488420,114.23500000,6.00000000,1.48800000,-0.69500000,-0.00500000,0.27550000,0.04790000,1.80190000,-0.02040000,0.09870000,0.98960000
$GPFPD,2292,537767.500,114.046,-0.233,1.200,31.42735274,120.62751004,14.307,1.596,-0.738,-0.009,0.794,18,17,04*5E
$GTIMU,2292,537767.500,0.3546,-0.0290,1.9060,-0.0260,0.1149,0.9956,20.5*6B
13:22::29.509,1702675367482,120.62751004,31.42735274,3478526.62279643,559661.50551321,114.04600000,6.00000000,1.59600000,-0.73800000,-0.00900000,0.35460000,-0.02900000,1.90600000,-0.02600000,0.11490000,0.99560000
$GPFPD,2292,537767.600,113.855,-0.193,1.219,31.42735206,120.62751174,14.310,1.713,-0.787,-0.012,0.794,18,17,04*55
$GTIMU,2292,537767.600,0.3573,0.1842,1.9169,-0.0237,0.1261,0.9972,20.5*42
13:22::29.609,1702675367582,120.62751174,31.42735206,3478526.54832116,559661.66757695,113.85500000,6.00000000,1.71300000,-0.78700000,-0.01200000,0.35730000,0.18420000,1.91690000,-0.02370000,0.12610000,0.99720000
$GPFPD,2292,537767.700,113.646,-0.138,1.237,31.42735134,120.62751357,14.313,1.831,-0.836,-0.017,0.803,18,16,04*58
$GTIMU,2292,537767.700,0.4991,0.1714,2.1019,-0.0240,0.1278,0.9940,20.5*4C
13:22::29.710,1702675367682,120.62751357,31.42735134,3478526.46948129,559661.84202620,113.64600000,6.00000000,1.83100000,-0.83600000,-0.01700000,0.49910000,0.17140000,2.10190000,-0.02400000,0.12780000,0.99400000
$GPFPD,2292,537767.800,113.420,-0.081,1.261,31.42735057,120.62751553,14.315,1.952,-0.879,-0.003,0.803,18,16,04*5F
$GTIMU,2292,537767.800,0.5258,0.2314,2.2764,-0.0298,0.1290,1.0142,20.5*44
13:22::29.810,1702675367782,120.62751553,31.42735057,3478526.38516801,559662.02886730,113.42000000,6.00000000,1.95200000,-0.87900000,-0.00300000,0.52580000,0.23140000,2.27640000,-0.02980000,0.12900000,1.01420000
$GPFPD,2292,537767.900,113.193,-0.048,1.249,31.42734976,120.62751765,14.315,2.071,-0.915,-0.003,0.800,18,16,04*53
$GTIMU,2292,537767.900,0.2737,-0.1198,2.2804,-0.0363,0.1262,0.9988,20.5*61
13:22::29.910,1702675367882,120.62751765,31.42734976,3478526.29650642,559662.23094626,113.19300000,6.00000000,2.07100000,-0.91500000,-0.00300000,0.27370000,-0.11980000,2.28040000,-0.03630000,0.12620000,0.99880000
$GPFPD,2292,537768.000,112.971,-0.024,1.233,31.42734892,120.62751989,14.315,2.184,-0.950,-0.002,0.800,18,16,04*5B
$GTIMU,2292,537768.000,0.1905,-0.1589,2.2213,-0.0335,0.1195,1.0005,20.5*6F
13:22::30.010,1702675367982,120.62751989,31.42734892,3478526.20458360,559662.44445362,112.97100000,6.00000000,2.18400000,-0.95000000,-0.00200000,0.19050000,-0.15890000,2.22130000,-0.03350000,0.11950000,1.00050000
$GPGGA,052230.00,3125.6409900,N,12037.6518841,E,1,17,0.7,7.292,M,7.80,M,,*6D
$GPFPD,2292,537768.100,112.754,-0.023,1.207,31.42734804,120.62752224,14.315,2.290,-0.987,0.011,0.800,18,16,04*70
$GTIMU,2292,537768.100,-0.0460,-0.2702,2.1768,-0.0293,0.1144,1.0130,20.5*42
13:22::30.109,1702675368082,120.62752224,31.42734804,3478526.10828531,559662.66844494,112.75400000,6.00000000,2.29000000,-0.98700000,0.01100000,-0.04600000,-0.27020000,2.17680000,-0.02930000,0.11440000,1.01300000
$GPFPD,2292,537768.200,112.544,-0.018,1.194,31.42734714,120.62752471,14.316,2.392,-1.022,0.001,0.794,18,17,04*7C
$GTIMU,2292,537768.200,0.0058,-0.1263,2.1019,-0.0268,0.1100,0.9889,20.5*64
13:22::30.209,1702675368182,120.62752471,31.42734714,3478526.00983459,559662.90385832,112.54400000,6.00000000,2.39200000,-1.02200000,0.00100000,0.00580000,-0.12630000,2.10190000,-0.02680000,0.11000000,0.98890000
$GPFPD,2292,537768.300,112.339,-0.009,1.195,31.42734620,120.62752727,14.315,2.489,-1.055,0.001,0.792,17,17,04*71
$GTIMU,2292,537768.300,0.0445,0.0068,2.0591,-0.0279,0.1062,0.9995,20.5*45
13:22::30.309,1702675368282,120.62752727,31.42734620,3478525.90699755,559663.14785408,112.33900000,6.00000000,2.48900000,-1.05500000,0.00100000,0.04450000,0.00680000,2.05910000,-0.02790000,0.10620000,0.99950000
$GPFPD,2292,537768.400,112.160,0.000,1.204,31.42734525,120.62752992,14.314,2.579,-1.078,-0.003,0.792,17,17,04*7E
$GTIMU,2292,537768.400,0.0507,0.0907,1.7904,-0.0329,0.0943,0.9949,20.5*4F
13:22::30.409,1702675368382,120.62752992,31.42734525,3478525.80310058,559663.40041323,112.16000000,6.00000000,2.57900000,-1.07800000,-0.00300000,0.05070000,0.09070000,1.79040000,-0.03290000,0.09430000,0.99490000
$GPFPD,2292,537768.500,112.020,0.015,1.226,31.42734429,120.62753265,14.314,2.659,-1.100,0.018,0.795,17,17,04*5E
$GTIMU,2292,537768.500,0.1169,0.2162,1.4059,-0.0315,0.0850,1.0209,20.5*43
13:22::30.509,1702675368482,120.62753265,31.42734429,3478525.69813826,559663.66058499,112.02000000,6.00000000,2.65900000,-1.10000000,0.01800000,0.11690000,0.21620000,1.40590000,-0.03150000,0.08500000,1.02090000
$GPFPD,2292,537768.600,111.887,0.018,1.247,31.42734330,120.62753546,14.315,2.735,-1.127,0.015,0.795,17,17,04*5A
$GTIMU,2292,537768.600,-0.0081,0.2124,1.3394,-0.0244,0.0829,0.9959,20.5*61
13:22::30.609,1702675368582,120.62753546,31.42734330,3478525.58989299,559663.92838201,111.88700000,6.00000000,2.73500000,-1.12700000,0.01500000,-0.00810000,0.21240000,1.33940000,-0.02440000,0.08290000,0.99590000
$GPFPD,2292,537768.700,111.749,0.042,1.279,31.42734229,120.62753835,14.315,2.812,-1.152,0.007,0.800,17,17,04*5C
$GTIMU,2292,537768.700,0.2130,0.3128,1.3805,-0.0274,0.0840,0.9917,20.5*4C
13:22::30.709,1702675368682,120.62753835,31.42734229,3478525.47947357,559664.20379797,111.74900000,6.00000000,2.81200000,-1.15200000,0.00700000,0.21300000,0.31280000,1.38050000,-0.02740000,0.08400000,0.99170000
$GPFPD,2292,537768.800,111.628,0.044,1.305,31.42734125,120.62754133,14.315,2.900,-1.174,0.009,0.800,17,17,04*56
$GTIMU,2292,537768.800,-0.0146,0.2671,1.2185,-0.0346,0.0922,1.0012,20.5*66
13:22::30.809,1702675368782,120.62754133,31.42734125,3478525.36577663,559664.48778999,111.62800000,6.00000000,2.90000000,-1.17400000,0.00900000,-0.01460000,0.26710000,1.21850000,-0.03460000,0.09220000,1.00120000
$GPFPD,2292,537768.900,111.516,0.058,1.296,31.42734018,120.62754444,14.315,2.993,-1.197,0.005,0.787,17,17,04*5E
$GTIMU,2292,537768.900,0.1127,-0.0950,1.1247,-0.0352,0.0992,0.9943,20.5*6A
13:22::30.909,1702675368882,120.62754444,31.42734018,3478525.24882389,559664.78416119,111.51600000,6.00000000,2.99300000,-1.19700000,0.00500000,0.11270000,-0.09500000,1.12470000,-0.03520000,0.09920000,0.99430000
$GPFPD,2292,537769.000,111.388,0.073,1.278,31.42733908,120.62754764,14.316,3.085,-1.232,0.007,0.787,17,17,04*52
$GTIMU,2292,537769.000,0.1181,-0.1788,1.2832,-0.0240,0.1009,1.0022,20.5*61
13:22::31.009,1702675368982,120.62754764,31.42733908,3478525.12859363,559665.08910845,111.38800000,6.00000000,3.08500000,-1.23200000,0.00700000,0.11810000,-0.17880000,1.28320000,-0.02400000,0.10090000,1.00220000
$GPGGA,052231.00,3125.6404301,N,12037.6535782,E,1,17,0.7,7.237,M,7.80,M,,*6A
$GPFPD,2292,537769.100,111.268,0.093,1.238,31.42733796,120.62755093,14.317,3.176,-1.253,0.003,0.787,17,17,04*5E
$GTIMU,2292,537769.100,0.1686,-0.4039,1.2033,-0.0350,0.0967,0.9948,20.5*6C
13:22::31.109,1702675369082,120.62755093,31.42733796,3478525.00619466,559665.40262543,111.26800000,6.00000000,3.17600000,-1.25300000,0.00300000,0.16860000,-0.40390000,1.20330000,-0.03500000,0.09670000,0.99480000
$GPFPD,2292,537769.200,111.182,0.120,1.229,31.42733682,120.62755432,14.316,3.265,-1.280,-0.001,0.783,17,17,04*7D
$GTIMU,2292,537769.200,0.2449,-0.0897,0.8688,-0.0283,0.0965,0.9953,20.5*6F
13:22::31.209,1702675369182,120.62755432,31.42733682,3478524.88163240,559665.72566291,111.18200000,6.00000000,3.26500000,-1.28000000,-0.00100000,0.24490000,-0.08970000,0.86880000,-0.02830000,0.09650000,0.99530000
$GPFPD,2292,537769.300,111.094,0.105,1.220,31.42733564,120.62755782,14.318,3.356,-1.323,0.029,0.789,18,17,04*52
$GTIMU,2292,537769.300,-0.1610,-0.0872,0.8892,-0.0156,0.0995,1.0291,20.5*49
13:22::31.310,1702675369282,120.62755782,31.42733564,3478524.75269468,559666.05918436,111.09400000,6.00000000,3.35600000,-1.32300000,0.02900000,-0.16100000,-0.08720000,0.88920000,-0.01560000,0.09950000,1.02910000
$GPFPD,2292,537769.400,111.012,0.081,1.223,31.42733439,120.62756149,14.321,3.456,-1.349,0.034,0.789,18,17,04*53
$GTIMU,2292,537769.400,-0.2643,0.0346,0.8119,-0.0328,0.1067,1.0041,20.5*61
13:22::31.409,1702675369382,120.62756149,31.42733439,3478524.61608770,559666.40891345,111.01200000,6.00000000,3.45600000,-1.34900000,0.03400000,-0.26430000,0.03460000,0.81190000,-0.03280000,0.10670000,1.00410000
$GPFPD,2292,537769.500,110.970,0.064,1.241,31.42733312,120.62756526,14.324,3.546,-1.378,0.021,0.806,18,17,04*59
$GTIMU,2292,537769.500,-0.1867,0.1766,0.4210,-0.0265,0.0984,0.9855,20.5*62
13:22::31.509,1702675369482,120.62756526,31.42733312,3478524.47731743,559666.76816306,110.97000000,6.00000000,3.54600000,-1.37800000,0.02100000,-0.18670000,0.17660000,0.42100000,-0.02650000,0.09840000,0.98550000
$GPFPD,2292,537769.600,110.940,0.040,1.263,31.42733182,120.62756912,14.326,3.622,-1.410,0.013,0.806,18,17,04*54
$GTIMU,2292,537769.600,-0.2448,0.2143,0.3014,-0.0188,0.0856,0.9917,20.5*69
13:22::31.610,1702675369582,120.62756912,31.42733182,3478524.33526965,559667.13598873,110.94000000,6.00000000,3.62200000,-1.41000000,0.01300000,-0.24480000,0.21430000,0.30140000,-0.01880000,0.08560000,0.99170000
$GPFPD,2292,537769.700,110.889,-0.003,1.311,31.42733050,120.62757303,14.328,3.664,-1.431,0.027,0.794,18,17,04*76
$GTIMU,2292,537769.700,-0.4442,0.4842,0.4929,-0.0184,0.0486,1.0135,20.5*67
13:22::31.710,1702675369682,120.62757303,31.42733050,3478524.19103144,559667.50858099,110.88900000,6.00000000,3.66400000,-1.43100000,0.02700000,-0.44420000,0.48420000,0.49290000,-0.01840000,0.04860000,1.01350000
$GPFPD,2292,537769.800,110.841,-0.064,1.307,31.42732917,120.62757699,14.331,3.726,-1.433,0.018,0.794,18,17,04*77
$GTIMU,2292,537769.800,-0.6224,-0.0461,0.4774,-0.0432,0.0596,0.9897,20.5*4F
13:22::31.810,1702675369782,120.62757699,31.42732917,3478524.04571159,559667.88593351,110.84100000,6.00000000,3.72600000,-1.43300000,0.01800000,-0.62240000,-0.04610000,0.47740000,-0.04320000,0.05960000,0.98970000
$GPFPD,2292,537769.900,110.798,-0.070,1.264,31.42732788,120.62758094,14.332,3.799,-1.450,-0.001,0.800,18,18,04*5A
$GTIMU,2292,537769.900,-0.0743,-0.4261,0.4253,-0.0315,0.0743,0.9798,20.5*46
13:22::31.910,1702675369882,120.62758094,31.42732788,3478523.90482152,559668.26230993,110.79800000,6.00000000,3.79900000,-1.45000000,-0.00100000,-0.07430000,-0.42610000,0.42530000,-0.03150000,0.07430000,0.97980000
$GPFPD,2292,537770.000,110.734,0.004,1.194,31.42732655,120.62758498,14.331,3.884,-1.482,-0.007,0.800,18,18,04*7F
$GTIMU,2292,537770.000,0.7246,-0.7014,0.6578,-0.0216,0.0931,0.9932,20.5*65
13:22::32.010,1702675369982,120.62758498,31.42732655,3478523.75954515,559668.64726873,110.73400000,6.00000000,3.88400000,-1.48200000,-0.00700000,0.72460000,-0.70140000,0.65780000,-0.02160000,0.09310000,0.99320000
$GPFPD,2292,537770$GPGGA,05.100,110.2232.00,3662,0.063125.63970,1.141,3139,N,1203.427325207.6557862,120.6275,E,1,18,08911,14.3.7,7.28431,3.977,M,7.80,,-1.515,M,,*6E
0.009,0.800,18,18,04*59
$GTIMU,2292,537770.100,0.5713,-0.5320,0.7323,-0.0218,0.1021,1.0156,20.5*69
13:22::32.109,1702675370082,120.62758911,31.42732520,3478523.61210006,559669.04079727,110.66200000,6.00000000,3.97700000,-1.51500000,0.00900000,0.57130000,-0.53200000,0.73230000,-0.02180000,0.10210000,1.01560000
$GPFPD,2292,537770.200,110.583,0.090,1.119,31.42732382,120.62759335,14.333,4.074,-1.557,0.018,0.795,18,18,04*5E
$GTIMU,2292,537770.200,0.2456,-0.2238,0.8015,-0.0143,0.1087,1.0093,20.5*60
13:22::32.210,1702675370182,120.62759335,31.42732382,3478523.46138833,559669.44480344,110.58300000,6.00000000,4.07400000,-1.55700000,0.01800000,0.24560000,-0.22380000,0.80150000,-0.01430000,0.10870000,1.00930000
$GPFPD,2292,537770.300,110.510,0.136,1.133,31.42732241,120.62759770,14.332,4.179,-1.590,-0.005,0.796,18,18,04*7F
$GTIMU,2292,537770.300,0.4437,0.1446,0.7423,-0.0218,0.1133,0.9796,20.5*46
13:22::32.309,1702675370282,120.62759770,31.42732241,3478523.30740995,559669.85928724,110.51000000,6.00000000,4.17900000,-1.59000000,-0.00500000,0.44370000,0.14460000,0.74230000,-0.02180000,0.11330000,0.97960000
$GPFPD,2292,537770.400,110.447,0.208,1.144,31.42732100,120.62760220,14.324,4.294,-1.620,-0.010,0.796,18,18,04*72
$GTIMU,2292,537770.400,0.7068,0.1036,0.6487,-0.0315,0.1241,0.9943,20.5*4C
13:22::32.409,1702675370382,120.62760220,31.42732100,3478523.15351305,559670.28803280,110.44700000,6.00000000,4.29400000,-1.62000000,-0.01000000,0.70680000,0.10360000,0.64870000,-0.03150000,0.12410000,0.99430000
$GPFPD,2292,537770.500,110.397,0.254,1.140,31.42731957,120.62760682,14.316,4.413,-1.650,-0.003,0.794,18,18,04*7E
$GTIMU,2292,537770.500,0.4479,-0.0388,0.5073,-0.0337,0.1288,1.0053,20.5*69
13:22::32.510,1702675370482,120.62760682,31.42731957,3478522.99746373,559670.72820045,110.39700000,6.00000000,4.41300000,-1.65000000,-0.00300000,0.44790000,-0.03880000,0.50730000,-0.03370000,0.12880000,1.00530000
$GPFPD,2292,537770.600,110.350,0.250,1.095,31.42731810,120.62761157,14.310,4.523,-1.687,0.026,0.794,18,18,04*53
$GTIMU,2292,537770.600,-0.0532,-0.4427,0.4794,-0.0235,0.1239,1.0289,20.5*48
