$GPFPD,2292,458008.200,113.234,-0.406,1.053,31.42736653,120.62738792,14.687,0.000,-0.003,0.013,0.804,18,16,04*76
$GTIMU,2292,458008.200,0.0025,-0.0163,-0.0032,-0.0179,-0.0063,0.9998,32.0*6E
15:13::10.200,1702595608182,120.62738792,31.42736653,3478528.08552814,559649.88581806,113.23400000,6.00000000,0.00000000,-0.00300000,0.01300000,0.00250000,-0.01630000,-0.00320000,-0.01790000,-0.00630000,0.99980000
$GPFPD,2292,458008.300,113.233,-0.405,1.054,31.42736652,120.62738791,14.690,-0.003,-0.004,0.017,0.804,18,16,04*5D
$GTIMU,2292,458008.300,-0.0048,0.0059,0.0054,-0.0182,-0.0063,1.0000,32.0*45
15:13::10.300,1702595608282,120.62738791,31.42736652,3478528.08441391,559649.88487361,113.23300000,6.00000000,-0.00300000,-0.00400000,0.01700000,-0.00480000,0.00590000,0.00540000,-0.01820000,-0.00630000,1.00000000
$GPFPD,2292,458008.400,113.233,-0.406,1.054,31.42736651,120.62738786,14.697,-0.002,-0.002,0.017,0.804,18,16,04*5C
$GTIMU,2292,458008.400,-0.0054,-0.0032,0.0054,-0.0194,-0.0067,0.9992,32.0*66
15:13::10.401,1702595608382,120.62738786,31.42736651,3478528.08327797,559649.88012602,113.23300000,6.00000000,-0.00200000,-0.00200000,0.01700000,-0.00540000,-0.00320000,0.00540000,-0.01940000,-0.00670000,0.99920000
$GPFPD,2292,458008.500,113.233,-0.406,1.054,31.42736649,120.62738780,14.705,-0.003,-0.004,0.017,0.803,18,16,04*58
$GTIMU,2292,458008.500,-0.0105,-0.0044,-0.0032,-0.0167,-0.0063,0.9994,32.0*40
15:13::10.500,1702595608482,120.62738780,31.42736649,3478528.08102780,559649.87443399,113.23300000,6.00000000,-0.00300000,-0.00400000,0.01700000,-0.01050000,-0.00440000,-0.00320000,-0.01670000,-0.00630000,0.99940000
$GPFPD,2292,458008.600,113.233,-0.406,1.054,31.42736647,120.62738775,14.712,-0.003,-0.004,0.017,0.803,18,16,04*59
$GTIMU,2292,458008.600,-0.0025,0.0036,0.0048,-0.0173,-0.0063,0.9998,32.0*41
15:13::10.600,1702595608582,120.62738775,31.42736647,3478528.07878306,559649.86969273,113.23300000,6.00000000,-0.00300000,-0.00400000,0.01700000,-0.00250000,0.00360000,0.00480000,-0.01730000,-0.00630000,0.99980000
$GPFPD,2292,458008.700,113.233,-0.405,1.054,31.42736646,120.62738770,14.719,-0.003,-0.004,0.016,0.802,18,16,04*54
$GTIMU,2292,458008.700,0.0048,-0.0015,-0.0004,-0.0181,-0.0063,0.9990,32.0*6A
15:13::10.701,1702595608682,120.62738770,31.42736646,3478528.07764712,559649.86494515,113.23300000,6.00000000,-0.00300000,-0.00400000,0.01600000,0.00480000,-0.00150000,-0.00040000,-0.01810000,-0.00630000,0.99900000
$GPFPD,2292,458008.800,113.233,-0.405,1.055,31.42736644,120.62738766,14.725,-0.003,-0.003,0.017,0.802,18,16,04*56
$GTIMU,2292,458008.800,-0.0025,0.0036,0.0042,-0.0191,-0.0068,1.0004,32.0*46
15:13::10.800,1702595608782,120.62738766,31.42736644,3478528.07540780,559649.86115468,113.23300000,6.00000000,-0.00300000,-0.00300000,0.01700000,-0.00250000,0.00360000,0.00420000,-0.01910000,-0.00680000,1.00040000
$GPFPD,2292,458008.900,113.233,-0.406,1.055,31.42736644,120.62738765,14.727,-0.003,-0.003,0.017,0.804,18,16,04*53
$GTIMU,2292,458008.900,-0.0065,0.0007,0.0008,-0.0185,-0.0064,0.9997,32.0*4D
15:13::10.900,1702595608882,120.62738765,31.42736644,3478528.07540237,559649.86020390,113.23300000,6.00000000,-0.00300000,-0.00300000,0.01700000,-0.00650000,0.00070000,0.00080000,-0.01850000,-0.00640000,0.99970000
$GPFPD,2292,458009.000,113.233,-0.406,1.054,31.42736644,120.62738765,14.729,-0.003,-0.003,0.017,0.804,18,16,04*54
$GTIMU,2292,458009.000,-0.0048,-0.0129,0.0025,-0.0176,-0.0066,0.9995,32.0*69
15:13::11.001,1702595608982,120.62738765,31.42736644,3478528.07540237,559649.86020390,113.23300000,6.00000000,-0.00300000,-0.00300000,0.01700000,-0.00480000,-0.01290000,0.00250000,-0.01760000,-0.00660000,0.99950000
$GPGGA,071311.00,3125.6419043,N,12037.6439313,E,1,16,1.1,7.780,M,7.80,M,,*6F
$GPFPD,2292,458009.100,113.233,-0.406,1.053,31.42736643,120.62738765,14.730,-0.003,-0.005,0.018,0.804,18,16,04*54
$GTIMU,2292,458009.100,-0.0071,-0.0078,0.0025,-0.0166,-0.0064,1.0000,32.0*69
15:13::11.101,1702595609082,120.62738765,31.42736643,3478528.07429357,559649.86021023,113.23300000,6.00000000,-0.00300000,-0.00500000,0.01800000,-0.00710000,-0.00780000,0.00250000,-0.01660000,-0.00640000,1.00000000
$GPFPD,2292,458009.200,113.233,-0.405,1.053,31.42736643,120.62738764,14.732,-0.004,-0.005,0.017,0.805,18,16,04*5E
$GTIMU,2292,458009.200,0.0077,0.0024,0.0008,-0.0177,-0.0069,0.9986,32.0*68
15:13::11.200,1702595609182,120.62738764,31.42736643,3478528.07428815,559649.85925944,113.23300000,6.00000000,-0.00400000,-0.00500000,0.01700000,0.00770000,0.00240000,0.00080000,-0.01770000,-0.00690000,0.99860000
$GPFPD,2292,458009.300,113.232,-0.404,1.053,31.42736643,120.62738764,14.733,-0.004,-0.002,0.016,0.804,18,16,04*59
$GTIMU,2292,458009.300,0.0026,0.0002,0.0042,-0.0189,-0.0059,0.9999,32.0*6B
15:13::11.300,1702595609282,120.62738764,31.42736643,3478528.07428815,559649.85925944,113.23200000,6.00000000,-0.00400000,-0.00200000,0.01600000,0.00260000,0.00020000,0.00420000,-0.01890000,-0.00590000,0.99990000
$GPFPD,2292,458009.400,113.232,-0.405,1.054,31.42736645,120.62738763,14.733,-0.003,-0.001,0.017,0.804,18,16,04*5C
$GTIMU,2292,458009.400,-0.0099,0.0024,0.0037,-0.0191,-0.0059,1.0006,32.0*4D
15:13::11.400,1702595609382,120.62738763,31.42736645,3478528.07650031,559649.85829600,113.23200000,6.00000000,-0.00300000,-0.00100000,0.01700000,-0.00990000,0.00240000,0.00370000,-0.01910000,-0.00590000,1.00060000
$GPFPD,2292,458009.500,113.233,-0.406,1.053,31.42736647,120.62738762,14.732,-0.003,-0.001,0.015,0.807,18,16,04*5B
$GTIMU,2292,458009.500,-0.0116,-0.0083,-0.0049,-0.0183,-0.0072,0.9976,32.0*42
15:13::11.500,1702595609482,120.62738762,31.42736647,3478528.07871248,559649.85733255,113.23300000,6.00000000,-0.00300000,-0.00100000,0.01500000,-0.01160000,-0.00830000,-0.00490000,-0.01830000,-0.00720000,0.99760000
$GPFPD,2292,458009.600,113.233,-0.406,1.054,31.42736649,120.62738761,14.732,-0.004,-0.002,0.017,0.807,18,16,04*54
$GTIMU,2292,458009.600,-0.0008,0.0064,0.0054,-0.0163,-0.0069,1.0012,32.0*4D
15:13::11.600,1702595609582,120.62738761,31.42736649,3478528.08092465,559649.85636911,113.23300000,6.00000000,-0.00400000,-0.00200000,0.01700000,-0.00080000,0.00640000,0.00540000,-0.01630000,-0.00690000,1.00120000
$GPFPD,2292,458009.700,113.233,-0.407,1.055,31.42736651,120.62738760,14.731,-0.004,-0.002,0.017,0.805,18,16,04*5C
$GTIMU,2292,458009.700,-0.0133,0.0104,0.0020,-0.0180,-0.0057,0.9996,32.0*4C
15:13::11.701,1702595609682,120.62738760,31.42736651,3478528.08313682,559649.85540567,113.23300000,6.00000000,-0.00400000,-0.00200000,0.01700000,-0.01330000,0.01040000,0.00200000,-0.01800000,-0.00570000,0.99960000
$GPFPD,2292,458009.800,113.233,-0.406,1.055,31.42736653,120.62738759,14.731,-0.004,-0.002,0.016,0.805,18,16,04*5B
$GTIMU,2292,458009.800,0.0048,-0.0061,0.0008,-0.0178,-0.0067,0.9985,32.0*40
15:13::11.800,1702595609782,120.62738759,31.42736653,3478528.08534899,559649.85444222,113.23300000,6.00000000,-0.00400000,-0.00200000,0.01600000,0.00480000,-0.00610000,0.00080000,-0.01780000,-0.00670000,0.99850000
$GPFPD,2292,458009.900,113.232,-0.406,1.054,31.42736653,120.62738759,14.733,-0.004,-0.002,0.016,0.805,18,16,04*58
$GTIMU,2292,458009.900,-0.0014,-0.0038,0.0065,-0.0187,-0.0066,1.0003,32.0*6C
15:13::11.901,1702595609882,120.62738759,31.42736653,3478528.08534899,559649.85444222,113.23200000,6.00000000,-0.00400000,-0.00200000,0.01600000,-0.00140000,-0.00380000,0.00650000,-0.01870000,-0.00660000,1.00030000
$GPFPD,2292,458010.000,113.233,-0.405,1.054,31.42736653,120.62738759,14.734,-0.003,-0.002,0.016,0.805,18,16,04*5B
$GTIMU,2292,458010.000,0.0043,-0.0089,-0.0026,-0.0184,-0.0061,0.9991,32.0*6C
15:13::12.000,1702595609982,120.62738759,31.42736653,3478528.08534899,559649.85444222,113.23300000,6.00000000,-0.00300000,-0.00200000,0.01600000,0.00430000,-0.00890000,-0.00260000,-0.01840000,-0.00610000,0.99910000
$GPFPD,2292,458010$GPGGA,0.100,113.71312.00,232,-0.403125.64195,1.054,3020,N,1201.427366537.6439333,120.6275,E,1,16,38758,14.1.1,7.806736,-0.0,M,7.80,04,-0.002M,,*6C
,0.016,0.805,18,16,04*5F
$GTIMU,2292,458010.100,-0.0042,-0.0021,0.0059,-0.0178,-0.0067,0.9999,32.0*6B
15:13::12.101,1702595610082,120.62738758,31.42736653,3478528.08534356,559649.85349144,113.23200000,6.00000000,-0.00400000,-0.00200000,0.01600000,-0.00420000,-0.00210000,0.00590000,-0.01780000,-0.00670000,0.99990000
$GPFPD,2292,458010.200,113.232,-0.405,1.054,31.42736652,120.62738758,14.738,-0.004,-0.001,0.016,0.804,18,16,04*51
$GTIMU,2292,458010.200,-0.0036,0.0036,0.0019,-0.0186,-0.0064,0.9993,32.0*4C
15:13::12.200,1702595610182,120.62738758,31.42736652,3478528.08423476,559649.85349777,113.23200000,6.00000000,-0.00400000,-0.00100000,0.01600000,-0.00360000,0.00360000,0.00190000,-0.01860000,-0.00640000,0.99930000
$GPFPD,2292,458010.300,113.232,-0.405,1.054,31.42736652,120.62738758,14.740,-0.003,-0.003,0.019,0.802,18,16,04*53
$GTIMU,2292,458010.300,-0.0071,0.0025,-0.0003,-0.0178,-0.0065,0.9999,32.0*60
15:13::12.301,1702595610282,120.62738758,31.42736652,3478528.08423476,559649.85349777,113.23200000,6.00000000,-0.00300000,-0.00300000,0.01900000,-0.00710000,0.00250000,-0.00030000,-0.01780000,-0.00650000,0.99990000
$GPFPD,2292,458010.400,113.231,-0.406,1.054,31.42736649,120.62738758,14.747,-0.003,-0.003,0.020,0.802,18,16,04*53
$GTIMU,2292,458010.400,-0.0088,-0.0072,0.0071,-0.0183,-0.0064,1.0003,32.0*61
15:13::12.400,1702595610382,120.62738758,31.42736649,3478528.08090837,559649.85351676,113.23100000,6.00000000,-0.00300000,-0.00300000,0.02000000,-0.00880000,-0.00720000,0.00710000,-0.01830000,-0.00640000,1.00030000
$GPFPD,2292,458010.500,113.232,-0.406,1.053,31.42736646,120.62738759,14.754,-0.004,-0.003,0.020,0.806,18,16,04*59
$GTIMU,2292,458010.500,-0.0060,-0.0118,-0.0026,-0.0173,-0.0067,0.9989,32.0*4B
15:13::12.501,1702595610482,120.62738759,31.42736646,3478528.07758740,559649.85448654,113.23200000,6.00000000,-0.00400000,-0.00300000,0.02000000,-0.00600000,-0.01180000,-0.00260000,-0.01730000,-0.00670000,0.99890000
$GPFPD,2292,458010.600,113.231,-0.406,1.053,31.42736643,120.62738760,14.760,-0.004,-0.004,0.019,0.806,18,16,04*5C
$GTIMU,2292,458010.600,0.0026,0.0019,0.0053,-0.0170,-0.0069,0.9994,32.0*64
15:13::12.600,1702595610582,120.62738760,31.42736643,3478528.07426643,559649.85545631,113.23100000,6.00000000,-0.00400000,-0.00400000,0.01900000,0.00260000,0.00190000,0.00530000,-0.01700000,-0.00690000,0.99940000
$GPFPD,2292,458010.700,113.231,-0.404,1.053,31.42736640,120.62738760,14.767,-0.003,-0.003,0.019,0.805,18,16,04*58
$GTIMU,2292,458010.700,0.0128,-0.0050,0.0030,-0.0190,-0.0059,0.9987,32.0*40
15:13::12.701,1702595610682,120.62738760,31.42736640,3478528.07094003,559649.85547531,113.23100000,6.00000000,-0.00300000,-0.00300000,0.01900000,0.01280000,-0.00500000,0.00300000,-0.01900000,-0.00590000,0.99870000
$GPFPD,2292,458010.800,113.232,-0.405,1.053,31.42736638,120.62738761,14.772,-0.002,-0.004,0.020,0.805,18,16,04*53
$GTIMU,2292,458010.800,-0.0122,-0.0032,-0.0015,-0.0182,-0.0052,1.0012,32.0*43
15:13::12.800,1702595610782,120.62738761,31.42736638,3478528.06872786,559649.85643875,113.23200000,6.00000000,-0.00200000,-0.00400000,0.02000000,-0.01220000,-0.00320000,-0.00150000,-0.01820000,-0.00520000,1.00120000
$GPFPD,2292,458010.900,113.232,-0.406,1.054,31.42736638,120.62738760,14.774,-0.003,-0.003,0.019,0.806,18,16,04*5E
$GTIMU,2292,458010.900,-0.0144,0.0104,0.0037,-0.0185,-0.0076,0.9983,32.0*4E
15:13::12.901,1702595610882,120.62738760,31.42736638,3478528.06872244,559649.85548797,113.23200000,6.00000000,-0.00300000,-0.00300000,0.01900000,-0.01440000,0.01040000,0.00370000,-0.01850000,-0.00760000,0.99830000
$GPFPD,2292,458011.000,113.232,-0.406,1.055,31.42736637,120.62738760,14.776,-0.004,-0.003,0.020,0.806,18,16,04*57
$GTIMU,2292,458011.000,-0.0014,0.0115,0.0002,-0.0177,-0.0073,1.0005,32.0*43
15:13::13.001,1702595610982,120.62738760,31.42736637,3478528.06761364,559649.85549430,113.23200000,6.00000000,-0.00400000,-0.00300000,0.02000000,-0.00140000,0.01150000,0.00020000,-0.01770000,-0.00730000,1.00050000
$GPGGA,071313.00,3125.6419110,N,12037.6439163,E,1,16,1.1,7.790,M,7.80,M,,*6E
$GPFPD,2292,458011.100,113.232,-0.406,1.055,31.42736637,120.62738760,14.778,-0.003,-0.004,0.020,0.806,18,16,04*58
$GTIMU,2292,458011.100,-0.0082,-0.0044,0.0014,-0.0169,-0.0052,0.9996,32.0*65
15:13::13.100,1702595611082,120.62738760,31.42736637,3478528.06761364,559649.85549430,113.23200000,6.00000000,-0.00300000,-0.00400000,0.02000000,-0.00820000,-0.00440000,0.00140000,-0.01690000,-0.00520000,0.99960000
$GPFPD,2292,458011.200,113.231,-0.406,1.055,31.42736637,120.62738759,14.780,-0.003,-0.004,0.019,0.805,18,16,04*5C
$GTIMU,2292,458011.200,0.0003,-0.0049,0.0048,-0.0187,-0.0069,0.9985,32.0*4C
15:13::13.200,1702595611182,120.62738759,31.42736637,3478528.06760821,559649.85454351,113.23100000,6.00000000,-0.00300000,-0.00400000,0.01900000,0.00030000,-0.00490000,0.00480000,-0.01870000,-0.00690000,0.99850000
$GPFPD,2292,458011.300,113.231,-0.405,1.055,31.42736635,120.62738759,14.780,-0.004,-0.007,0.015,0.806,18,16,04*57
$GTIMU,2292,458011.300,0.0048,-0.0015,-0.0021,-0.0186,-0.0063,1.0001,32.0*6F
15:13::13.300,1702595611282,120.62738759,31.42736635,3478528.06539061,559649.85455618,113.23100000,6.00000000,-0.00400000,-0.00700000,0.01500000,0.00480000,-0.00150000,-0.00210000,-0.01860000,-0.00630000,1.00010000
$GPFPD,2292,458011.400,113.231,-0.405,1.055,31.42736628,120.62738756,14.774,-0.005,-0.007,0.016,0.806,18,16,04*5A
$GTIMU,2292,458011.400,-0.0065,0.0042,0.0048,-0.0181,-0.0069,1.0008,32.0*43
15:13::13.401,1702595611382,120.62738756,31.42736628,3478528.05761273,559649.85174814,113.23100000,6.00000000,-0.00500000,-0.00700000,0.01600000,-0.00650000,0.00420000,0.00480000,-0.01810000,-0.00690000,1.00080000
$GPFPD,2292,458011.500,113.231,-0.406,1.055,31.42736621,120.62738754,14.767,-0.005,-0.007,0.015,0.807,18,16,04*53
$GTIMU,2292,458011.500,-0.0054,-0.0049,0.0037,-0.0178,-0.0066,0.9985,32.0*63
15:13::13.500,1702595611482,120.62738754,31.42736621,3478528.04984028,559649.84989089,113.23100000,6.00000000,-0.00500000,-0.00700000,0.01500000,-0.00540000,-0.00490000,0.00370000,-0.01780000,-0.00660000,0.99850000
$GPFPD,2292,458011.600,113.231,-0.405,1.054,31.42736614,120.62738752,14.761,-0.005,-0.008,0.015,0.807,18,16,04*5B
$GTIMU,2292,458011.600,-0.0003,-0.0112,0.0031,-0.0172,-0.0065,0.9999,32.0*6F
15:13::13.601,1702595611582,120.62738752,31.42736614,3478528.04206783,559649.84803365,113.23100000,6.00000000,-0.00500000,-0.00800000,0.01500000,-0.00030000,-0.01120000,0.00310000,-0.01720000,-0.00650000,0.99990000
$GPFPD,2292,458011.700,113.230,-0.404,1.053,31.42736607,120.62738750,14.754,-0.005,-0.008,0.015,0.806,18,16,04*5A
$GTIMU,2292,458011.700,0.0054,-0.0101,0.0053,-0.0184,-0.0059,0.9993,32.0*4B
15:13::13.701,1702595611682,120.62738750,31.42736607,3478528.03429538,559649.84617640,113.23000000,6.00000000,-0.00500000,-0.00800000,0.01500000,0.00540000,-0.01010000,0.00530000,-0.01840000,-0.00590000,0.99930000
$GPFPD,2292,458011.800,113.230,-0.405,1.053,31.42736602,120.62738748,14.750,-0.004,-0.008,0.015,0.806,18,16,04*5D
$GTIMU,2292,458011.800,-0.0065,-0.0027,0.0014,-0.0186,-0.0060,0.9993,32.0*65
15:13::13.801,1702595611782,120.62738748,31.42736602,3478528.02874053,559649.84430648,113.23000000,6.00000000,-0.00400000,-0.00800000,0.01500000,-0.00650000,-0.00270000,0.00140000,-0.01860000,-0.00600000,0.99930000
$GPFPD,2292,458011.900,113.230,-0.405,1.054,31.42736601,120.62738748,14.751,-0.005,-0.007,0.015,0.805,18,16,04*54
$GTIMU,2292,458011.900,-0.0093,0.0081,0.0031,-0.0181,-0.0071,0.9999,32.0*46
15:13::13.900,1702595611882,120.62738748,31.42736601,3478528.02763173,559649.84431281,113.23000000,6.00000000,-0.00500000,-0.00700000,0.01500000,-0.00930000,0.00810000,0.00310000,-0.01810000,-0.00710000,0.99990000
$GPFPD,2292,458012.000,113.231,-0.405,1.055,31.42736601,120.62738747,14.753,-0.005,-0.007,0.015,0.805,18,16,04*53
$GTIMU,2292,458012.000,-0.0042,0.0030,-0.0021,-0.0180,-0.0069,0.9995,32.0*62
15:13::14.001,1702595611982,120.62738747,31.42736601,3478528.02762630,559649.84336203,113.23100000,6.00000000,-0.00500000,-0.00700000,0.01500000,-0.00420000,0.00300000,-0.00210000,-0.01800000,-0.00690000,0.99950000
$GPGGA,071314.00,3125.6419097,N,12037.6439267,E,1,16,1.1,7.763,M,7.80,M,,*6C
$GPFPD,2292,458012.100,113.231,-0.406,1.054,31.42736600,120.62738747,14.754,-0.005,-0.008,0.015,0.805,18,16,04*59
$GTIMU,2292,458012.100,-0.0048,-0.0066,0.0031,-0.0174,-0.0056,1.0000,32.0*61
15:13::14.101,1702595612082,120.62738747,31.42736600,3478528.02651750,559649.84336836,113.23100000,6.00000000,-0.00500000,-0.00800000,0.01500000,-0.00480000,-0.00660000,0.00310000,-0.01740000,-0.00560000,1.00000000
$GPFPD,2292,458012.200,113.230,-0.406,1.054,31.42736599,120.62738746,14.756,-0.006,-0.008,0.015,0.807,18,16,04*5A
$GTIMU,2292,458012.200,-0.0071,-0.0004,0.0048,-0.0176,-0.0072,0.9997,32.0*69
15:13::14.201,1702595612182,120.62738746,31.42736599,3478528.02540328,559649.84242391,113.23000000,6.00000000,-0.00600000,-0.00800000,0.01500000,-0.00710000,-0.00040000,0.00480000,-0.01760000,-0.00720000,0.99970000
$GPFPD,2292,458012.300,113.230,-0.405,1.054,31.42736599,120.62738745,14.755,-0.005,-0.009,0.009,0.804,18,16,04*54
$GTIMU,2292,458012.300,0.0105,-0.0049,-0.0009,-0.0179,-0.0053,0.9981,32.0*6D
15:13::14.300,1702595612282,120.62738745,31.42736599,3478528.02539785,559649.84147313,113.23000000,6.00000000,-0.00500000,-0.00900000,0.00900000,0.01050000,-0.00490000,-0.00090000,-0.01790000,-0.00530000,0.99810000
$GPFPD,2292,458012.400,113.230,-0.405,1.055,31.42736597,120.62738744,14.748,-0.006,-0.008,0.011,0.804,18,16,04*5A
$GTIMU,2292,458012.400,-0.0087,0.0127,0.0048,-0.0184,-0.0070,1.0015,32.0*4F
15:13::14.401,1702595612382,120.62738744,31.42736597,3478528.02317482,559649.84053501,113.23000000,6.00000000,-0.00600000,-0.00800000,0.01100000,-0.00870000,0.01270000,0.00480000,-0.01840000,-0.00700000,1.00150000
$GPFPD,2292,458012.500,113.229,-0.405,1.055,31.42736596,120.62738743,14.741,-0.006,-0.006,0.011,0.808,18,16,04*5E
$GTIMU,2292,458012.500,-0.0059,-0.0038,0.0071,-0.0197,-0.0077,0.9996,32.0*6A
15:13::14.501,1702595612482,120.62738743,31.42736596,3478528.02206059,559649.83959055,113.22900000,6.00000000,-0.00600000,-0.00600000,0.01100000,-0.00590000,-0.00380000,0.00710000,-0.01970000,-0.00770000,0.99960000
$GPFPD,2292,458012.600,113.229,-0.405,1.053,31.42736595,120.62738742,14.734,-0.005,-0.008,0.010,0.808,18,16,04*57
$GTIMU,2292,458012.600,-0.0037,-0.0192,0.0008,-0.0171,-0.0052,0.9984,32.0*62
15:13::14.601,1702595612582,120.62738742,31.42736595,3478528.02094636,559649.83864610,113.22900000,6.00000000,-0.00500000,-0.00800000,0.01000000,-0.00370000,-0.01920000,0.00080000,-0.01710000,-0.00520000,0.99840000
$GPFPD,2292,458012.700,113.230,-0.406,1.053,31.42736594,120.62738741,14.727,-0.005,-0.009,0.010,0.806,18,16,04*52
$GTIMU,2292,458012.700,-0.0071,0.0019,-0.0049,-0.0164,-0.0060,1.0001,32.0*6F
15:13::14.700,1702595612682,120.62738741,31.42736594,3478528.01983214,559649.83770165,113.23000000,6.00000000,-0.00500000,-0.00900000,0.01000000,-0.00710000,0.00190000,-0.00490000,-0.01640000,-0.00600000,1.00010000
$GPFPD,2292,458012.800,113.229,-0.405,1.055,31.42736593,120.62738740,14.722,-0.006,-0.008,0.010,0.806,18,16,04*51
$GTIMU,2292,458012.800,0.0015,0.0138,0.0082,-0.0187,-0.0074,0.9991,32.0*67
15:13::14.801,1702595612782,120.62738740,31.42736593,3478528.01871791,559649.83675720,113.22900000,6.00000000,-0.00600000,-0.00800000,0.01000000,0.00150000,0.01380000,0.00820000,-0.01870000,-0.00740000,0.99910000
$GPFPD,2292,458012.900,113.229,-0.404,1.055,31.42736592,120.62738740,14.723,-0.005,-0.008,0.010,0.808,18,16,04*5C
$GTIMU,2292,458012.900,0.0094,-0.0055,0.0025,-0.0193,-0.0057,0.9997,32.0*47
15:13::14.900,1702595612882,120.62738740,31.42736592,3478528.01760911,559649.83676353,113.22900000,6.00000000,-0.00500000,-0.00800000,0.01000000,0.00940000,-0.00550000,0.00250000,-0.01930000,-0.00570000,0.99970000
$GPFPD,2292,458013.000,113.230,-0.404,1.054,31.42736591,120.62738739,14.724,-0.003,-0.009,0.010,0.808,18,16,04*50
$GTIMU,2292,458013.000,-0.0014,-0.0106,-0.0043,-0.0175,-0.0039,0.9993,32.0*44
15:13::15.001,1702595612982,120.62738739,31.42736591,3478528.01649488,559649.83581908,113.23000000,6.00000000,-0.00300000,-0.00900000,0.01000000,-0.00140000,-0.01060000,-0.00430000,-0.01750000,-0.00390000,0.99930000
$GPGGA,071315.00,3125.6419063,N,12037.6439267,E,1,16,1.1,7.734,M,7.80,M,,*64
$GPFPD,2292,458013.100,113.229,-0.401,1.053,31.42736590,120.62738739,14.725,-0.004,-0.009,0.009,0.808,18,16,04*54
$GTIMU,2292,458013.100,0.0225,-0.0078,0.0087,-0.0178,-0.0077,0.9985,32.0*45
15:13::15.100,1702595613082,120.62738739,31.42736590,3478528.01538608,559649.83582541,113.22900000,6.00000000,-0.00400000,-0.00900000,0.00900000,0.02250000,-0.00780000,0.00870000,-0.01780000,-0.00770000,0.99850000
$GPFPD,2292,458013.200,113.230,-0.398,1.053,31.42736590,120.62738738,14.726,-0.006,-0.007,0.008,0.808,18,16,04*57
$GTIMU,2292,458013.200,0.0287,-0.0033,0.0007,-0.0184,-0.0087,0.9991,32.0*40
15:13::15.201,1702595613182,120.62738738,31.42736590,3478528.01538066,559649.83487462,113.23000000,6.00000000,-0.00600000,-0.00700000,0.00800000,0.02870000,-0.00330000,0.00070000,-0.01840000,-0.00870000,0.99910000
$GPFPD,2292,458013.300,113.229,-0.393,1.051,31.42736589,120.62738738,14.725,-0.004,-0.009,0.005,0.807,18,16,04*52
$GTIMU,2292,458013.300,0.0519,-0.0203,-0.0005,-0.0182,-0.0051,1.0008,32.0*63
15:13::15.301,1702595613282,120.62738738,31.42736589,3478528.01427186,559649.83488096,113.22900000,6.00000000,-0.00400000,-0.00900000,0.00500000,0.05190000,-0.02030000,-0.00050000,-0.01820000,-0.00510000,1.00080000
$GPFPD,2292,458013.400,113.229,-0.393,1.048,31.42736586,120.62738739,14.717,-0.005,-0.009,0.006,0.807,18,16,04*50
$GTIMU,2292,458013.400,-0.0037,-0.0305,0.0002,-0.0174,-0.0066,1.0010,32.0*69
15:13::15.400,1702595613382,120.62738739,31.42736586,3478528.01095089,559649.83585073,113.22900000,6.00000000,-0.00500000,-0.00900000,0.00600000,-0.00370000,-0.03050000,0.00020000,-0.01740000,-0.00660000,1.00100000
$GPFPD,2292,458013.500,113.230,-0.392,1.051,31.42736584,120.62738740,14.710,-0.005,-0.009,0.005,0.805,18,16,04*5A
$GTIMU,2292,458013.500,-0.0002,0.0240,0.0002,-0.0174,-0.0066,0.9983,32.0*48
15:13::15.501,1702595613482,120.62738740,31.42736584,3478528.00873872,559649.83681418,113.23000000,6.00000000,-0.00500000,-0.00900000,0.00500000,-0.00020000,0.02400000,0.00020000,-0.01740000,-0.00660000,0.99830000
$GPFPD,2292,458013.600,113.230,-0.386,1.053,31.42736582,120.62738741,14.702,-0.004,-0.010,0.004,0.805,18,16,04*52
$GTIMU,2292,458013.600,0.0560,0.0178,0.0018,-0.0183,-0.0047,0.9989,32.0*65
15:13::15.601,1702595613582,120.62738741,31.42736582,3478528.00652655,559649.83777762,113.23000000,6.00000000,-0.00400000,-0.01000000,0.00400000,0.05600000,0.01780000,0.00180000,-0.01830000,-0.00470000,0.99890000
$GPFPD,2292,458013.700,113.231,-0.384,1.053,31.42736579,120.62738743,14.695,-0.004,-0.009,0.005,0.810,18,16,04*54
$GTIMU,2292,458013.700,0.0236,0.0036,-0.0061,-0.0182,-0.0061,1.0006,32.0*4B
15:13::15.701,1702595613682,120.62738743,31.42736579,3478528.00321101,559649.83969818,113.23100000,6.00000000,-0.00400000,-0.00900000,0.00500000,0.02360000,0.00360000,-0.00610000,-0.01820000,-0.00610000,1.00060000
$GPFPD,2292,458013.800,113.231,-0.381,1.052,31.42736577,120.62738743,14.689,-0.004,-0.010,0.004,0.810,18,16,04*55
$GTIMU,2292,458013.800,0.0224,-0.0095,0.0007,-0.0178,-0.0059,0.9986,32.0*49
15:13::15.800,1702595613782,120.62738743,31.42736577,3478528.00099341,559649.83971084,113.23100000,6.00000000,-0.00400000,-0.01000000,0.00400000,0.02240000,-0.00950000,0.00070000,-0.01780000,-0.00590000,0.99860000
$GPFPD,2292,458013.900,113.231,-0.377,1.052,31.42736576,120.62738743,14.690,-0.005,-0.009,0.004,0.811,18,16,04*5C
$GTIMU,2292,458013.900,0.0349,-0.0072,-0.0021,-0.0178,-0.0070,0.9995,32.0*6B
15:13::15.901,1702595613882,120.62738743,31.42736576,3478527.99988461,559649.83971717,113.23100000,6.00000000,-0.00500000,-0.00900000,0.00400000,0.03490000,-0.00720000,-0.00210000,-0.01780000,-0.00700000,0.99950000
$GPFPD,2292,458014.000,113.232,-0.374,1.052,31.42736576,120.62738742,14.690,-0.005,-0.009,0.004,0.811,18,16,04*53
$GTIMU,2292,458014.000,0.0332,0.0030,-0.0010,-0.0177,-0.0063,0.9995,32.0*4D
15:13::16.001,1702595613982,120.62738742,31.42736576,3478527.99987918,559649.83876639,113.23200000,6.00000000,-0.00500000,-0.00900000,0.00400000,0.03320000,0.00300000,-0.00100000,-0.01770000,-0.00630000,0.99950000
$GPGGA,071316.00,3125.6418912,N,12037.6439190,E,1,16,1.1,7.789,M,7.80,M,,*64
$GPFPD,2292,458014.100,113.232,-0.370,1.053,31.42736575,120.62738742,14.691,-0.004,-0.010,0.005,0.811,18,16,04*5D
$GTIMU,2292,458014.100,0.0355,0.0053,0.0013,-0.0180,-0.0049,1.0006,32.0*6D
15:13::16.100,1702595614082,120.62738742,31.42736575,3478527.99877039,559649.83877272,113.23200000,6.00000000,-0.00400000,-0.01000000,0.00500000,0.03550000,0.00530000,0.00130000,-0.01800000,-0.00490000,1.00060000
$GPFPD,2292,458014.200,113.232,-0.367,1.051,31.42736574,120.62738742,14.691,-0.005,-0.009,0.005,0.807,18,16,04*55
$GTIMU,2292,458014.200,0.0224,-0.0169,-0.0015,-0.0182,-0.0071,0.9998,32.0*68
15:13::16.200,1702595614182,120.62738742,31.42736574,3478527.99766159,559649.83877905,113.23200000,6.00000000,-0.00500000,-0.00900000,0.00500000,0.02240000,-0.01690000,-0.00150000,-0.01820000,-0.00710000,0.99980000
$GPFPD,2292,458014.300,113.231,-0.365,1.051,31.42736574,120.62738741,14.693,-0.007,-0.008,0.009,0.809,18,16,04*55
$GTIMU,2292,458014.300,0.0128,-0.0050,0.0042,-0.0176,-0.0059,0.9994,32.0*4F
15:13::16.301,1702595614282,120.62738741,31.42736574,3478527.99765616,559649.83782827,113.23100000,6.00000000,-0.00700000,-0.00800000,0.00900000,0.01280000,-0.00500000,0.00420000,-0.01760000,-0.00590000,0.99940000
$GPFPD,2292,458014.400,113.231,-0.363,1.052,31.42736575,120.62738739,14.701,-0.006,-0.008,0.011,0.809,18,16,04*5B
$GTIMU,2292,458014.400,0.0202,0.0081,0.0036,-0.0180,-0.0054,1.0009,32.0*60
15:13::16.401,1702595614382,120.62738739,31.42736575,3478527.99875410,559649.83592037,113.23100000,6.00000000,-0.00600000,-0.00800000,0.01100000,0.02020000,0.00810000,0.00360000,-0.01800000,-0.00540000,1.00090000
$GPFPD,2292,458014.500,113.233,-0.363,1.056,31.42736576,120.62738737,14.708,-0.005,-0.006,0.010,0.804,18,16,04*59
$GTIMU,2292,458014.500,0.0009,0.0371,-0.0140,-0.0201,-0.0052,0.9992,32.0*46
15:13::16.500,1702595614482,120.62738737,31.42736576,3478527.99985204,559649.83401247,113.23300000,6.00000000,-0.00500000,-0.00600000,0.01000000,0.00090000,0.03710000,-0.01400000,-0.02010000,-0.00520000,0.99920000
$GPFPD,2292,458014.600,113.234,-0.360,1.054,31.42736578,120.62738735,14.716,-0.006,-0.007,0.010,0.804,18,16,04*5D
$GTIMU,2292,458014.600,0.0224,-0.0146,-0.0107,-0.0173,-0.0059,0.9998,32.0*67
15:13::16.601,1702595614582,120.62738735,31.42736578,3478528.00205878,559649.83209825,113.23400000,6.00000000,-0.00600000,-0.00700000,0.01000000,0.02240000,-0.01460000,-0.01070000,-0.01730000,-0.00590000,0.99980000
$GPFPD,2292,458014.700,113.232,-0.359,1.051,31.42736579,120.62738733,14.723,-0.005,-0.008,0.010,0.807,18,16,04*5B
$GTIMU,2292,458014.700,0.0094,-0.0334,0.0219,-0.0170,-0.0048,0.9991,32.0*43
15:13::16.701,1702595614682,120.62738733,31.42736579,3478528.00315672,559649.83019035,113.23200000,6.00000000,-0.00500000,-0.00800000,0.01000000,0.00940000,-0.03340000,0.02190000,-0.01700000,-0.00480000,0.99910000
$GPFPD,2292,458014.800,113.233,-0.352,1.053,31.42736579,120.62738731,14.729,0.001,-0.011,0.006,0.807,18,16,04*72
$GTIMU,2292,458014.800,0.0616,0.0217,-0.0034,-0.0172,0.0015,0.9958,32.0*6F
15:13::16.800,1702595614782,120.62738731,31.42736579,3478528.00314587,559649.82828878,113.23300000,6.00000000,0.00100000,-0.01100000,0.00600000,0.06160000,0.02170000,-0.00340000,-0.01720000,0.00150000,0.99580000
$GPFPD,2292,458014.900,113.233,-0.335,1.066,31.42736578,120.62738732,14.729,0.018,-0.020,0.002,0.809,18,16,04*76
$GTIMU,2292,458014.900,0.1743,0.1246,0.0066,-0.0169,0.0141,0.9952,32.0*41
15:13::16.900,1702595614882,120.62738732,31.42736578,3478528.00204250,559649.82924590,113.23300000,6.00000000,0.01800000,-0.02000000,0.00200000,0.17430000,0.12460000,0.00660000,-0.01690000,0.01410000,0.99520000
$GPFPD,2292,458015.000,113.224,-0.320,1.077,31.42736576,120.62738735,14.729,0.041,-0.032,0.007,0.809,18,16,04*7F
$GTIMU,2292,458015.000,0.1421,0.1057,0.0877,-0.0164,0.0215,1.0049,32.0*40
15:13::17.000,1702595614982,120.62738735,31.42736576,3478527.99984118,559649.83211091,113.22400000,6.00000000,0.04100000,-0.03200000,0.00700000,0.14210000,0.10570000,0.08770000,-0.01640000,0.02150000,1.00490000
$GPFPD,2292,458015$GPGGA,07.100,113.1317.00,3215,-0.32125.641892,1.081,359,N,12031.42736577.64391412,120.627,E,1,16,138741,14..1,7.794,731,0.064M,7.80,M,,-0.039,0,*6A
.013,0.809,18,16,04*70
$GTIMU,2292,458015.100,-0.0209,0.0370,0.0984,-0.0213,0.0190,1.0056,32.0*68
15:13::17.101,1702595615082,120.62738741,31.42736572,3478527.99543856,559649.83784093,113.21500000,6.00000000,0.06400000,-0.03900000,0.01300000,-0.02090000,0.03700000,0.09840000,-0.02130000,0.01900000,1.00560000
$GPFPD,2292,458015.200,113.206,-0.316,1.081,31.42736568,120.62738749,14.732,0.091,-0.050,0.007,0.810,18,16,04*7E
$GTIMU,2292,458015.200,0.0533,0.0000,0.0856,-0.0189,0.0250,0.9944,32.0*4F
15:13::17.200,1702595615182,120.62738749,31.42736568,3478527.99104679,559649.84547252,113.20600000,6.00000000,0.09100000,-0.05000000,0.00700000,0.05330000,0.00000000,0.08560000,-0.01890000,0.02500000,0.99440000
$GPFPD,2292,458015.300,113.190,-0.309,1.080,31.42736563,120.62738760,14.732,0.117,-0.064,0.008,0.810,18,16,04*7B
$GTIMU,2292,458015.300,0.0654,-0.0074,0.1614,-0.0166,0.0250,1.0033,32.0*6B
15:13::17.300,1702595615282,120.62738760,31.42736563,3478527.98556252,559649.85596279,113.19000000,6.00000000,0.11700000,-0.06400000,0.00800000,0.06540000,-0.00740000,0.16140000,-0.01660000,0.02500000,1.00330000
$GPFPD,2292,458015.400,113.170,-0.310,1.083,31.42736555,120.62738774,14.728,0.143,-0.074,0.009,0.810,18,16,04*73
$GTIMU,2292,458015.400,-0.0184,0.0272,0.2033,-0.0194,0.0239,1.0003,32.0*63
15:13::17.401,1702595615382,120.62738774,31.42736555,3478527.97676813,559649.86932440,113.17000000,6.00000000,0.14300000,-0.07400000,0.00900000,-0.01840000,0.02720000,0.20330000,-0.01940000,0.02390000,1.00030000
$GPFPD,2292,458015.500,113.149,-0.306,1.085,31.42736546,120.62738790,14.725,0.171,-0.087,0.008,0.805,18,16,04*74
$GTIMU,2292,458015.500,0.0253,0.0084,0.2060,-0.0181,0.0269,0.9990,32.0*41
15:13::17.500,1702595615482,120.62738790,31.42736546,3478527.96687580,559649.88459391,113.14900000,6.00000000,0.17100000,-0.08700000,0.00800000,0.02530000,0.00840000,0.20600000,-0.01810000,0.02690000,0.99900000
$GPFPD,2292,458015.600,113.122,-0.302,1.084,31.42736536,120.62738810,14.721,0.205,-0.103,0.008,0.805,18,16,04*76
$GTIMU,2292,458015.600,0.0396,-0.0081,0.2744,-0.0175,0.0329,1.0000,32.0*65
15:13::17.600,1702595615582,120.62738810,31.42736536,3478527.95589638,559649.90367288,113.12200000,6.00000000,0.20500000,-0.10300000,0.00800000,0.03960000,-0.00810000,0.27440000,-0.01750000,0.03290000,1.00000000
$GPFPD,2292,458015.700,113.085,-0.295,1.081,31.42736524,120.62738834,14.718,0.245,-0.121,0.008,0.798,18,16,04*71
$GTIMU,2292,458015.700,0.0574,-0.0299,0.3708,-0.0178,0.0405,0.9995,32.0*65
15:13::17.700,1702595615682,120.62738834,31.42736524,3478527.94272108,559649.92656764,113.08500000,6.00000000,0.24500000,-0.12100000,0.00800000,0.05740000,-0.02990000,0.37080000,-0.01780000,0.04050000,0.99950000
$GPFPD,2292,458015.800,113.040,-0.288,1.081,31.42736511,120.62738863,14.715,0.291,-0.141,0.008,0.798,18,16,04*7D
$GTIMU,2292,458015.800,0.0583,-0.0084,0.4569,-0.0180,0.0465,1.0001,32.0*63
15:13::17.801,1702595615782,120.62738863,31.42736511,3478527.92846413,559649.95422266,113.04000000,6.00000000,0.29100000,-0.14100000,0.00800000,0.05830000,-0.00840000,0.45690000,-0.01800000,0.04650000,1.00010000
$GPFPD,2292,458015.900,112.990,-0.283,1.086,31.42736498,120.62738896,14.716,0.339,-0.162,0.008,0.803,18,16,04*73
$GTIMU,2292,458015.900,0.0387,0.0490,0.5082,-0.0174,0.0493,0.9998,32.0*4E
15:13::17.901,1702595615882,120.62738896,31.42736498,3478527.91422889,559649.98568080,112.99000000,6.00000000,0.33900000,-0.16200000,0.00800000,0.03870000,0.04900000,0.50820000,-0.01740000,0.04930000,0.99980000
$GPFPD,2292,458016.000,112.929,-0.280,1.095,31.42736482,120.62738934,14.717,0.388,-0.185,0.007,0.803,18,16,04*75
$GTIMU,2292,458016.000,0.0067,0.0796,0.6092,-0.0172,0.0512,0.9988,32.0*41
15:13::18.000,1702595615982,120.62738934,31.42736482,3478527.89669440,559650.02191185,112.92900000,6.00000000,0.38800000,-0.18500000,0.00700000,0.00670000,0.07960000,0.60920000,-0.01720000,0.05120000,0.99880000
$GPGGA,071318.00,3125.6418396,N,12037.6440411,E,1,16,1.1,7.795,M,7.80,M,,*63
$GPFPD,2292,458016.100,112.856,-0.282,1.108,31.42736464,120.62738978,14.717,0.440,-0.208,0.007,0.803,18,16,04*7F
$GTIMU,2292,458016.100,-0.0366,0.1278,0.7325,-0.0176,0.0534,0.9995,32.0*69
15:13::18.100,1702595616082,120.62738978,31.42736464,3478527.87697488,559650.06386027,112.85600000,6.00000000,0.44000000,-0.20800000,0.00700000,-0.03660000,0.12780000,0.73250000,-0.01760000,0.05340000,0.99950000
$GPFPD,2292,458016.200,112.771,-0.289,1.125,31.42736445,120.62739027,14.718,0.484,-0.226,0.009,0.799,18,16,04*7A
$GTIMU,2292,458016.200,-0.0839,0.1686,0.8507,-0.0199,0.0441,1.0027,32.0*6D
15:13::18.201,1702595616182,120.62739027,31.42736445,3478527.85617371,559650.11056893,112.77100000,6.00000000,0.48400000,-0.22600000,0.00900000,-0.08390000,0.16860000,0.85070000,-0.01990000,0.04410000,1.00270000
$GPFPD,2292,458016.300,112.669,-0.305,1.146,31.42736423,120.62739080,14.719,0.523,-0.247,0.003,0.798,18,16,04*7F
$GTIMU,2292,458016.300,-0.1827,0.1969,1.0243,-0.0164,0.0387,0.9936,32.0*6C
15:13::18.301,1702595616282,120.62739080,31.42736423,3478527.83206786,559650.16109972,112.66900000,6.00000000,0.52300000,-0.24700000,0.00300000,-0.18270000,0.19690000,1.02430000,-0.01640000,0.03870000,0.99360000
$GPFPD,2292,458016.400,112.542,-0.294,1.169,31.42736395,120.62739139,14.719,0.569,-0.267,0.001,0.798,18,16,04*71
$GTIMU,2292,458016.400,0.0757,0.2226,1.2746,-0.0189,0.0467,0.9974,32.0*42
15:13::18.400,1702595616382,120.62739139,31.42736395,3478527.80134178,559650.21737319,112.54200000,6.00000000,0.56900000,-0.26700000,0.00100000,0.07570000,0.22260000,1.27460000,-0.01890000,0.04670000,0.99740000
$GPFPD,2292,458016.500,112.395,-0.287,1.192,31.42736366,120.62739204,14.719,0.620,-0.287,0.002,0.801,18,16,04*77
$GTIMU,2292,458016.500,0.0444,0.2195,1.4651,-0.0216,0.0519,1.0006,32.0*41
15:13::18.500,1702595616482,120.62739204,31.42736366,3478527.76953948,559650.27935769,112.39500000,6.00000000,0.62000000,-0.28700000,0.00200000,0.04440000,0.21950000,1.46510000,-0.02160000,0.05190000,1.00060000
$GPFPD,2292,458016.600,112.221,-0.277,1.206,31.42736335,120.62739274,14.719,0.668,-0.309,0.003,0.801,18,16,04*70
$GTIMU,2292,458016.600,0.0609,0.1345,1.7496,-0.0191,0.0493,1.0014,32.0*43
15:13::18.600,1702595616582,120.62739274,31.42736335,3478527.73554673,559650.34610877,112.22100000,6.00000000,0.66800000,-0.30900000,0.00300000,0.06090000,0.13450000,1.74960000,-0.01910000,0.04930000,1.00140000
$GPFPD,2292,458016.700,112.019,-0.263,1.209,31.42736303,120.62739349,14.718,0.722,-0.327,0.001,0.794,18,16,04*7B
$GTIMU,2292,458016.700,0.0904,0.0159,2.0279,-0.0235,0.0536,0.9979,32.0*44
15:13::18.700,1702595616682,120.62739349,31.42736303,3478527.70047232,559650.41762009,112.01900000,6.00000000,0.72200000,-0.32700000,0.00100000,0.09040000,0.01590000,2.02790000,-0.02350000,0.05360000,0.99790000
$GPFPD,2292,458016.800,111.801,-0.258,1.203,31.42736269,120.62739429,14.719,0.777,-0.346,0.007,0.794,18,16,04*78
$GTIMU,2292,458016.800,0.0015,-0.0729,2.1775,-0.0237,0.0551,1.0056,32.0*69
15:13::18.800,1702595616782,120.62739429,31.42736269,3478527.66320746,559650.49389800,111.80100000,6.00000000,0.77700000,-0.34600000,0.00700000,0.00150000,-0.07290000,2.17750000,-0.02370000,0.05510000,1.00560000
$GPFPD,2292,458016.900,111.568,-0.260,1.203,31.42736237,120.62739514,14.719,0.831,-0.366,0.006,0.798,18,16,04*76
$GTIMU,2292,458016.900,-0.0780,-0.0037,2.3305,-0.0227,0.0552,0.9982,32.0*4D
15:13::18.901,1702595616882,120.62739514,31.42736237,3478527.62818734,559650.57491715,111.56800000,6.00000000,0.83100000,-0.36600000,0.00600000,-0.07800000,-0.00370000,2.33050000,-0.02270000,0.05520000,0.99820000
$GPFPD,2292,458017.000,111.316,-0.260,1.207,31.42736203,120.62739604,14.720,0.884,-0.386,0.004,0.798,18,16,04*78
$GTIMU,2292,458017.000,-0.0479,0.0176,2.5232,-0.0211,0.0542,0.9978,32.0*6B
15:13::19.001,1702595616982,120.62739604,31.42736203,3478527.59097677,559650.66070289,111.31600000,6.00000000,0.88400000,-0.38600000,0.00400000,-0.04790000,0.01760000,2.52320000,-0.02110000,0.05420000,0.99780000
$GPGGA,071319.00,3125.6416908,N,12037.6444348,E,1,16,1.1,7.831,M,7.80,M,,*6F
$GPFPD,2292,458017.100,111.023,-0.266,1.221,31.42736167,120.62739700,14.720,0.939,-0.406,0.008,0.798,18,16,04*7E
$GTIMU,2292,458017.100,-0.1346,0.1326,2.9289,-0.0218,0.0550,1.0045,32.0*6F
15:13::19.100,1702595617082,120.62739700,31.42736167,3478527.55158117,559650.75220599,111.02300000,6.00000000,0.93900000,-0.40600000,0.00800000,-0.13460000,0.13260000,2.92890000,-0.02180000,0.05500000,1.00450000
$GPFPD,2292,458017.200,110.677,-0.292,1.242,31.42736129,120.62739802,14.722,0.993,-0.429,0.011,0.791,18,16,04*7C
$GTIMU,2292,458017.200,-0.3351,0.1912,3.4534,-0.0197,0.0561,1.0025,32.0*68
15:13::19.200,1702595617182,120.62739802,31.42736129,3478527.51000055,559650.84942645,110.67700000,6.00000000,0.99300000,-0.42900000,0.01100000,-0.33510000,0.19120000,3.45340000,-0.01970000,0.05610000,1.00250000
$GPFPD,2292,458017.300,110.291,-0.315,1.268,31.42736091,120.62739910,14.722,1.047,-0.440,0.005,0.794,17,16,04*76
$GTIMU,2292,458017.300,-0.3214,0.2333,3.8651,-0.0271,0.0527,0.9952,32.0*67
15:13::19.301,1702595617282,120.62739910,31.42736091,3478527.46845250,559650.95235161,110.29100000,6.00000000,1.04700000,-0.44000000,0.00500000,-0.32140000,0.23330000,3.86510000,-0.02710000,0.05270000,0.99520000
$GPFPD,2292,458017.400,109.862,-0.307,1.273,31.42736054,120.62740021,14.721,1.098,-0.452,-0.000,0.794,17,16,04*50
$GTIMU,2292,458017.400,-0.0130,0.0308,4.2915,-0.0284,0.0485,0.9938,32.0*61
15:13::19.401,1702595617382,120.62740021,31.42736054,3478527.42802954,559651.05812279,109.86200000,6.00000000,1.09800000,-0.45200000,0.00000000,-0.01300000,0.03080000,4.29150000,-0.02840000,0.04850000,0.99380000
$GPFPD,2292,458017.500,109.378,-0.255,1.298,31.42736016,120.62740139,14.718,1.164,-0.472,-0.014,0.800,18,16,04*5E
$GTIMU,2292,458017.500,0.4083,0.2210,4.8533,-0.0252,0.0653,0.9864,32.0*42
15:13::19.500,1702595617482,120.62740139,31.42736016,3478527.38653578,559651.17055578,109.37800000,6.00000000,1.16400000,-0.47200000,-0.01400000,0.40830000,0.22100000,4.85330000,-0.02520000,0.06530000,0.98640000
$GPFPD,2292,458017.600,108.828,-0.175,1.334,31.42735976,120.62740265,14.715,1.259,-0.503,-0.030,0.800,18,16,04*53
$GTIMU,2292,458017.600,0.6640,0.3428,5.5131,-0.0237,0.0989,0.9835,32.0*43
$GPFPD,2292,458017.700,108.209,-0.054,1.398,31.42735933,120.62740404,14.709,1.391,-0.542,-0.046,0.799,18,16,04*5C
$GTIMU,2292,458017.700,1.0655,0.6265,6.2244,-0.0286,0.1392,0.9827,32.0*46
$GPFPD,2292,458017.800,107.540,0.106,1.440,31.42735885,120.62740558,14.703,1.551,-0.570,-0.047,0.799,18,16,04*7B
$GTIMU,2292,458017.800,1.4252,0.4205,6.7271,-0.0470,0.1646,0.9983,32.0*45
$GPFPD,2292,458017.900,106.794,0.250,1.474,31.42735832,120.62740731,14.699,1.733,-0.616,-0.028,0.806,18,16,04*71
$GTIMU,2292,458017.900,1.2461,0.3578,7.4968,-0.0353,0.1960,1.0172,32.0*4C
$GPFPD,2292,458018.000,105.940,0.308,1.416,31.42735775,120.62740924,14.698,1.930,-0.643,0.006,0.806,18,16,04*50
$GTIMU,2292,458018.000,0.3606,-0.5355,8.5510,-0.0563,0.2065,1.0330,32.0*68
$GPFPD,2292,458018.100,105.050,0.304,1.352,31.42735716,120.62741138,14.700,2.131,-0.657,0.018,0.806,18,16,04*53
$GTIMU,2292,458018.100,-0.2566,-0.5890,8.9021,-0.0648,0.2067,1.0092,32.0*4A
$GPFPD,2292,458018.200,104.136,0.289,1.280,31.42735656,120.62741373,14.701,2.331,-0.688,0.013,0.808,17,16,04*59
$GTIMU,2292,458018.200,-0.3640,-0.6711,9.1390,-0.0436,0.2117,0.9931,32.0*4F
$GPFPD,2292,458018.300,103.196,0.295,1.343,31.42735592,120.62741628,14.703,2.523,-0.714,-0.000,0.802,19,16,04*7E
$GTIMU,2292,458018.300,-0.1553,0.6694,9.3877,-0.0420,0.2061,0.9799,32.0*67
$GPFPD,2292,458018.400,102.266,0.329,1.417,31.42735529,120.62741898,14.710,2.716,-0.707,-0.003,0.802,19,16,04*76
$GTIMU,2292,458018.400,0.1059,0.7961,9.3084,-0.0744,0.1970,0.9942,32.0*41
$GPFPD,2292,458018.500,101.370,0.371,1.469,31.42735467,120.62742188,14.717,2.906,-0.685,0.015,0.802,19,16,04*5F
$GTIMU,2292,458018.500,0.1959,0.5686,8.9746,-0.0873,0.1912,1.0150,32.0*43
$GPFPD,22$GPGGA,071320.00,3125.6414715,N,12037.6452254,E,1,16,1.1,7.829,M,7.80,M,,*67
92,458018.600,100.516,0.431,1.513,31.42735407,120.62742499,14.724,3.099,-0.655,-0.017,0.802,19,16,04*7B
$GTIMU,2292,458018.600,0.3751,0.4996,8.5516,-0.0916,0.1959,0.9637,32.0*43
15:13::20.600,1702595618582,120.62742499,31.42735407,3478526.72408953,559653.41825979,100.51600000,6.00000000,3.09900000,-0.65500000,-0.01700000,0.37510000,0.49960000,8.55160000,-0.09160000,0.19590000,0.96370000
$GPFPD,2292,458018.700,99.785,0.513,1.505,31.42735350,120.62742829,14.728,3.280,-0.636,-0.032,0.797,19,16,04*40
$GTIMU,2292,458018.700,0.6166,-0.0163,7.3346,-0.0773,0.1871,0.9813,32.0*6A
15:13::20.700,1702595618682,120.62742829,31.42735350,3478526.66267957,559653.73237913,99.78500000,6.00000000,3.28000000,-0.63600000,-0.03200000,0.61660000,-0.01630000,7.33460000,-0.07730000,0.18710000,0.98130000
$GPFPD,2292,458018.800,99.135,0.522,1.319,31.42735294,120.62743179,14.734,3.441,-0.615,0.042,0.797,19,16,04*62
$GTIMU,2292,458018.800,-0.0781,-1.8044,6.5020,-0.0745,0.1689,1.0723,32.0*40
15:13::20.800,1702595618782,120.62743179,31.42735294,3478526.60248701,559654.06550782,99.13500000,6.00000000,3.44100000,-0.61500000,0.04200000,-0.07810000,-1.80440000,6.50200000,-0.07450000,0.16890000,1.07230000
$GPFPD,2292,458018.900,98.571,0.436,1.145,31.42735240,120.62743549,14.739,3.594,-0.580,0.055,0.799,19,16,04*64
$GTIMU,2292,458018.900,-0.9771,-1.6903,5.6191,-0.0814,0.1576,1.0098,32.0*47
15:13::20.901,1702595618882,120.62743549,31.42735240,3478526.54462065,559654.41763951,98.57100000,6.00000000,3.59400000,-0.58000000,0.05500000,-0.97710000,-1.69030000,5.61910000,-0.08140000,0.15760000,1.00980000
$GPFPD,2292,458019.000,98.209,0.365,0.953,31.42735190,120.62743934,14.744,3.714,-0.543,0.035,0.799,19,16,04*6A
$GTIMU,2292,458019.000,-0.7860,-1.9000,3.6119,-0.0724,0.1231,0.9776,32.0*4A
15:13::21.001,1702595618982,120.62743934,31.42735190,3478526.49127092,559654.78400763,98.20900000,6.00000000,3.71400000,-0.54300000,0.03500000,-0.78600000,-1.90000000,3.61190000,-0.07240000,0.12310000,0.97760000
$GPGGA,071321.00,3125.6411969,N,12037.6470478,E,1,16,1.1,7.813,M,7.80,M,,*67
$GPFPD,2292,458019.100,98.054,0.317,0.835,31.42735141,120.62744330,14.746,3.806,-0.545,0.017,0.799,19,16,04*68
$GTIMU,2292,458019.100,-0.5075,-1.1712,1.5395,-0.0261,0.0999,0.9805,32.0*49
15:13::21.101,1702595619082,120.62744330,31.42735141,3478526.43908973,559655.16082803,98.05400000,6.00000000,3.80600000,-0.54500000,0.01700000,-0.50750000,-1.17120000,1.53950000,-0.02610000,0.09990000,0.98050000
$GPFPD,2292,458019.200,98.026,0.267,0.794,31.42735091,120.62744734,14.749,3.870,-0.555,0.048,0.800,19,16,04*6A
$GTIMU,2292,458019.200,-0.5112,-0.4086,0.2718,-0.0128,0.0715,1.0311,32.0*41
15:13::21.200,1702595619182,120.62744734,31.42735091,3478526.38584319,559655.54526104,98.02600000,6.00000000,3.87000000,-0.55500000,0.04800000,-0.51120000,-0.40860000,0.27180000,-0.01280000,0.07150000,1.03110000
$GPFPD,2292,458019.300,98.101,0.187,0.843,31.42735040,120.62745144,14.755,3.918,-0.575,0.049,0.796,18,16,04*6B
$GTIMU,2292,458019.300,-0.7864,0.4858,-0.7609,-0.0037,0.0572,0.9951,32.0*4F
15:13::21.301,1702595619282,120.62745144,31.42735040,3478526.33152044,559655.93540508,98.10100000,6.00000000,3.91800000,-0.57500000,0.04900000,-0.78640000,0.48580000,-0.76090000,-0.00370000,0.05720000,0.99510000
$GPFPD,2292,458019.400,98.240,0.163,0.888,31.42734983,120.62745557,14.765,3.971,-0.591,0.019,0.796,18,16,04*65
$GTIMU,2292,458019.400,-0.2262,0.4459,-1.3873,-0.0063,0.0592,0.9690,32.0*47
15:13::21.400,1702595619382,120.62745557,31.42734983,3478526.27056119,559656.32843946,98.24000000,6.00000000,3.97100000,-0.59100000,0.01900000,-0.22620000,0.44590000,-1.38730000,-0.00630000,0.05920000,0.96900000
$GPFPD,2292,458019.500,98.467,0.183,0.936,31.42734925,120.62745977,14.773,4.028,-0.597,0.021,0.790,18,16,04*61
$GTIMU,2292,458019.500,0.2301,0.4695,-2.2666,-0.0181,0.0621,1.0017,32.0*62
15:13::21.500,1702595619482,120.62745977,31.42734925,3478526.20853117,559656.72813567,98.46700000,6.00000000,4.02800000,-0.59700000,0.02100000,0.23010000,0.46950000,-2.26660000,-0.01810000,0.06210000,1.00170000
$GPFPD,2292,458019.600,98.742,0.218,0.901,31.42734867,120.62746402,14.782,4.077,-0.610,0.023,0.790,18,16,04*62
$GTIMU,2292,458019.600,0.3895,-0.3548,-2.7483,-0.0099,0.0554,1.0021,32.0*4F
15:13::21.600,1702595619582,120.62746402,31.42734867,3478526.14652831,559657.13258580,98.74200000,6.00000000,4.07700000,-0.61000000,0.02300000,0.38950000,-0.35480000,-2.74830000,-0.00990000,0.05540000,1.00210000
$GPFPD,2292,458019.700,99.020,0.242,0.895,31.42734806,120.62746832,14.791,4.143,-0.651,0.023,0.791,18,16,04*6A
$GTIMU,2292,458019.700,0.2793,-0.0785,-2.7714,0.0153,0.0781,0.9994,32.0*64
15:13::21.700,1702595619682,120.62746832,31.42734806,3478526.08122622,559657.54180884,99.02000000,6.00000000,4.14300000,-0.65100000,0.02300000,0.27930000,-0.07850000,-2.77140000,0.01530000,0.07810000,0.99940000
$GPFPD,2292,458019.800,99.335,0.231,0.942,31.42734742,120.62747271,14.798,4.217,-0.696,0.009,0.791,18,16,04*66
$GTIMU,2292,458019.800,-0.0584,0.4627,-3.1492,0.0182,0.0864,0.9851,32.0*6A
15:13::21.800,1702595619782,120.62747271,31.42734742,3478526.01264661,559657.95960793,99.33500000,6.00000000,4.21700000,-0.69600000,0.00900000,-0.05840000,0.46270000,-3.14920000,0.01820000,0.08640000,0.98510000
$GPFPD,2292,458019.900,99.660,0.274,0.966,31.42734678,120.62747719,14.799,4.307,-0.725,0.013,0.803,18,16,04*61
$GTIMU,2292,458019.900,0.4773,0.2278,-3.2412,-0.0021,0.1007,1.0041,32.0*63
15:13::21.900,1702595619882,120.62747719,31.42734678,3478525.94411588,559658.38596408,99.66000000,6.00000000,4.30700000,-0.72500000,0.01300000,0.47730000,0.22780000,-3.24120000,-0.00210000,0.10070000,1.00410000
$GPFPD,2292,458020.000,100.019,0.296,0.972,31.42734611,120.62748177,14.801,4.408,-0.765,0.024,0.803,18,16,04*5A
$GTIMU,2292,458020.000,0.2819,0.0367,-3.5794,0.0055,0.1137,1.0103,32.0*49
15:13::22.000,1702595619982,120.62748177,31.42734611,3478525.87231307,559658.82184707,100.01900000,6.00000000,4.40800000,-0.76500000,0.02400000,0.28190000,0.03670000,-3.57940000,0.00550000,0.11370000,1.01030000
$GPGGA,071322.00,3125.6408647,N,12037.6496150,E,1,16,1.1,7.878,M,7.80,M,,*65
$GPFPD,2292,458020.100,100.416,0.287,0.967,31.42734540,120.62748646,14.803,4.510,-0.810,0.017,0.803,18,16,04*51
$GTIMU,2292,458020.100,-0.0293,-0.0735,-3.9756,0.0101,0.1171,0.9922,32.0*42
15:13::22.101,1702595620082,120.62748646,31.42734540,3478525.79613481,559659.26821400,100.41600000,6.00000000,4.51000000,-0.81000000,0.01700000,-0.02930000,-0.07350000,-3.97560000,0.01010000,0.11710000,0.99220000
$GPFPD,2292,458020.200,100.870,0.263,0.899,31.42734465,120.62749127,14.806,4.629,-0.850,0.038,0.797,18,16,04*54
$GTIMU,2292,458020.200,-0.1711,-0.7037,-4.5347,0.0012,0.1324,1.0206,32.0*46
15:13::22.201,1702595620182,120.62749127,31.42734465,3478525.71558652,559659.72601567,100.87000000,6.00000000,4.62900000,-0.85000000,0.03800000,-0.17110000,-0.70370000,-4.53470000,0.00120000,0.13240000,1.02060000
$GPFPD,2292,458020.300,101.377,0.256,0.962,31.42734385,120.62749623,14.809,4.753,-0.955,-0.029,0.804,19,16,04*7F
$GTIMU,2292,458020.300,0.0088,0.6139,-5.0792,0.0692,0.1446,0.9274,32.0*47
15:13::22.300,1702595620282,120.62749623,31.42734385,3478525.62957571,559660.19811075,101.37700000,6.00000000,4.75300000,-0.95500000,-0.02900000,0.00880000,0.61390000,-5.07920000,0.06920000,0.14460000,0.92740000
$GPFPD,2292,458020.400,101.884,0.287,1.002,31.42734298,120.62750137,14.816,4.878,-0.984,0.022,0.804,19,16,04*58
$GTIMU,2292,458020.400,0.3972,0.3744,-5.0590,-0.0145,0.1370,1.0508,32.0*60
15:13::22.400,1702595620382,120.62750137,31.42734298,3478525.53590105,559660.68736427,101.88400000,6.00000000,4.87800000,-0.98400000,0.02200000,0.39720000,0.37440000,-5.05900000,-0.01450000,0.13700000,1.05080000
$GPFPD,2292,458020.500,102.470,0.282,1.027,31.42734207,120.62750665,14.826,4.996,-1.070,0.042,0.809,19,16,04*53
$GTIMU,2292,458020.500,0.0530,0.2186,-5.8594,0.0425,0.1419,1.0207,32.0*43
15:13::22.500,1702595620482,120.62750665,31.42734207,3478525.43786725,559661.18995410,102.47000000,6.00000000,4.99600000,-1.07000000,0.04200000,0.05300000,0.21860000,-5.85940000,0.04250000,0.14190000,1.02070000
$GPFPD,2292,458020.600,102.995,0.279,0.968,31.42734108,120.62751205,14.836,5.116,-1.149,0.031,0.809,19,16,04*51
$GTIMU,2292,458020.600,0.0610,-0.6126,-5.2452,0.0347,0.1419,0.9888,32.0*65
15:13::22.600,1702595620582,120.62751205,31.42734108,3478525.33102823,559661.70400399,102.99500000,6.00000000,5.11600000,-1.14900000,0.03100000,0.06100000,-0.61260000,-5.24520000,0.03470000,0.14190000,0.98880000
$GPFPD,2292,458020.700,103.587,0.286,0.961,31.42734004,120.62751758,14.845,5.237,-1.211,-0.000,0.802,19,16,04*79
$GTIMU,2292,458020.700,0.1607,-0.1059,-5.9184,0.0170,0.1404,0.9674,32.0*6F
15:13::22.701,1702595620682,120.62751758,31.42734004,3478525.21871583,559662.23044574,103.58700000,6.00000000,5.23700000,-1.21100000,0.00000000,0.16070000,-0.10590000,-5.91840000,0.01700000,0.14040000,0.96740000
$GPFPD,2292,458020.800,104.246,0.319,0.943,31.42733892,120.62752321,14.849,5.353,-1.308,-0.009,0.802,19,16,04*7A
$GTIMU,2292,458020.800,0.4402,-0.2156,-6.5794,0.0515,0.1443,0.9904,32.0*6B
15:13::22.801,1702595620782,120.62752321,31.42733892,3478525.09758736,559662.76644599,104.24600000,6.00000000,5.35300000,-1.30800000,-0.00900000,0.44020000,-0.21560000,-6.57940000,0.05150000,0.14430000,0.99040000
$GPFPD,2292,458020.900,104.916,0.338,0.953,31.42733769,120.62752891,14.850,5.463,-1.414,0.015,0.791,19,16,04*5F
$GTIMU,2292,458020.900,0.2946,0.0626,-6.6931,0.0591,0.1426,1.0250,32.0*41
15:13::22.900,1702595620882,120.62752891,31.42733769,3478524.96430014,559663.30917139,104.91600000,6.00000000,5.46300000,-1.41400000,0.01500000,0.29460000,0.06260000,-6.69310000,0.05910000,0.14260000,1.02500000
$GPFPD,2292,458021.000,105.583,0.355,0.934,31.42733637,120.62753472,14.853,5.583,-1.506,0.049,0.791,19,16,04*51
$GTIMU,2292,458021.000,0.2708,-0.2330,-6.6680,0.0427,0.1493,1.0346,32.0*61
15:13::23.001,1702595620982,120.62753472,31.42733637,3478524.82109349,559663.86241242,105.58300000,6.00000000,5.58300000,-1.50600000,0.04900000,0.27080000,-0.23300000,-6.66800000,0.04270000,0.14930000,1.03460000
$GPGGA,071323.00,3125.6402306,N,12037.6527666,E,1,16,1.1,7.871,M,7.80,M,,*6E
$GPFPD,2292,458021.100,106.269,0.382,0.900,31.42733497,120.62754066,14.857,5.702,-1.602,0.028,0.791,19,16,04*5C
$GTIMU,2292,458021.100,0.3773,-0.3846,-6.8484,0.0450,0.1511,0.9776,32.0*6A
15:13::23.101,1702595621082,120.62754066,31.42733497,3478524.66908707,559664.42806431,106.26900000,6.00000000,5.70200000,-1.60200000,0.02800000,0.37730000,-0.38460000,-6.84840000,0.04500000,0.15110000,0.97760000
$GPFPD,2292,458021.200,106.929,0.419,0.872,31.42733347,120.62754672,14.858,5.813,-1.722,0.020,0.791,19,16,04*53
$GTIMU,2292,458021.200,0.4678,-0.3202,-6.5920,0.0701,0.1509,0.9915,32.0*65
15:13::23.201,1702595621182,120.62754672,31.42733347,3478524.50605784,559665.00518894,106.92900000,6.00000000,5.81300000,-1.72200000,0.02000000,0.46780000,-0.32020000,-6.59200000,0.07010000,0.15090000,0.99150000
$GPFPD,2292,458021.300,107.492,0.431,0.946,31.42733186,120.62755290,14.858,5.920,-1.852,0.006,0.805,18,15,04*59
$GTIMU,2292,458021.300,0.2078,0.6935,-5.6328,0.0838,0.1478,0.9908,32.0*4F
15:13::23.300,1702595621282,120.62755290,31.42733186,3478524.33089703,559665.59379265,107.49200000,6.00000000,5.92000000,-1.85200000,0.00600000,0.20780000,0.69350000,-5.63280000,0.08380000,0.14780000,0.99080000
$GPFPD,2292,458021.400,107.945,0.388,1.009,31.42733018,120.62755926,14.854,6.025,-1.943,0.045,0.805,18,15,04*5A
$GTIMU,2292,458021.400,-0.3502,0.6021,-4.5365,0.0380,0.1388,1.0393,32.0*6B
15:13::23.401,1702595621382,120.62755926,31.42733018,3478524.14807240,559666.19955481,107.94500000,6.00000000,6.02500000,-1.94300000,0.04500000,-0.35020000,0.60210000,-4.53650000,0.03800000,0.13880000,1.03930000
$GPFPD,2292,458021.500,108.311,0.295,1.095,31.42732844,120.62756572,14.852,6.127,-2.026,0.052,0.811,18,16,04*55
$GTIMU,2292,458021.500,-0.8696,0.8298,-3.6799,0.0300,0.1318,1.0063,32.0*6F
15:13::23.501,1702595621482,120.62756572,31.42732844,3478523.95864931,559666.81486282,108.31100000,6.00000000,6.12700000,-2.02600000,0.05200000,-0.86960000,0.82980000,-3.67990000,0.03000000,0.13180000,1.00630000
$GPFPD,2292,458021.600,108.597,0.234,1.080,31.42732662,120.62757229,14.850,6.225,-2.091,0.043,0.811,18,16,04*5C
$GTIMU,2292,458021.600,-0.5611,-0.1558,-2.8703,0.0129,0.1212,0.9905,32.0*4E
15:13::23.601,1702595621582,120.62757229,31.42732662,3478523.76041560,559667.44068014,108.59700000,6.00000000,6.22500000,-2.09100000,0.04300000,-0.56110000,-0.15580000,-2.87030000,0.01290000,0.12120000,0.99050000
$GPFPD,2292,458021.700,108.869,0.218,1.052,31.42732475,120.62757897,14.845,6.331,-2.150,0.019,0.801,17,16,04*56
$GTIMU,2292,458021.700,-0.1069,-0.2972,-2.7208,0.0046,0.1266,0.9747,32.0*47
15:13::23.701,1702595621682,120.62757897,31.42732475,3478523.55669766,559668.07698777,108.86900000,6.00000000,6.33100000,-2.15000000,0.01900000,-0.10690000,-0.29720000,-2.72080000,0.00460000,0.12660000,0.97470000
$GPFPD,2292,458021.800,109.167,0.220,1.018,31.42732281,120.62758574,14.839,6.430,-2.215,-0.008,0.801,17,16,04*7A
$GTIMU,2292,458021.800,0.0660,-0.3533,-2.9682,0.0125,0.1205,0.9728,32.0*63
15:13::23.801,1702595621782,120.62758574,31.42732281,3478523.34526705,559668.72189680,109.16700000,6.00000000,6.43000000,-2.21500000,-0.00800000,0.06600000,-0.35330000,-2.96820000,0.01250000,0.12050000,0.97280000
$GPFPD,2292,458021.900,109.479,0.252,0.940,31.42732078,120.62759256,14.839,6.523,-2.286,0.014,0.800,16,15,04*59
$GTIMU,2292,458021.900,0.3724,-0.7955,-3.1195,0.0198,0.1188,1.0216,32.0*60
15:13::23.901,1702595621882,120.62759256,31.42732078,3478523.12388443,559669.37161678,109.47900000,6.00000000,6.52300000,-2.28600000,0.01400000,0.37240000,-0.79550000,-3.11950000,0.01980000,0.11880000,1.02160000
$GPFPD,2292,458022.000,109.793,0.261,0.920,31.42731868,120.62759947,14.842,6.615,-2.366,0.038,0.800,16,15,04*58
$GTIMU,2292,458022.000,0.1368,-0.2087,-3.1303,0.0290,0.1207,1.0247,32.0*61
15:13::24.000,1702595621982,120.62759947,31.42731868,3478522.89478914,559670.02993817,109.79300000,6.00000000,6.61500000,-2.36600000,0.03800000,0.13680000,-0.20870000,-3.13030000,0.02900000,0.12070000,1.02470000
$GPGGA,071324.00,3125.6389625,N,12037.6565426,E,1,15,1.3,7.756,M,7.80,M,,*62
$GPFPD,2292,458022.100,110.098,0.255,0.915,31.42731651,120.62760647,14.845,6.699,-2.444,0.016,0.800,16,15,04*55
$GTIMU,2292,458022.100,-0.0154,-0.0655,-3.0507,0.0299,0.1132,0.9772,32.0*4E
15:13::24.101,1702595622082,120.62760647,31.42731651,3478522.65798117,559670.69686097,110.09800000,6.00000000,6.69900000,-2.44400000,0.01600000,-0.01540000,-0.06550000,-3.05070000,0.02990000,0.11320000,0.97720000
$GPFPD,2292,458022.200,110.409,0.253,0.884,31.42731428,120.62761356,14.846,6.783,-2.512,0.014,0.799,16,15,04*5B
$GTIMU,2292,458022.200,0.0248,-0.3281,-3.1129,0.0202,0.1093,0.9978,32.0*65
15:13::24.201,1702595622182,120.62761356,31.42731428,3478522.41456933,559671.37237885,110.40900000,6.00000000,6.78300000,-2.51200000,0.01400000,0.02480000,-0.32810000,-3.11290000,0.02020000,0.10930000,0.99780000
$GPFPD,2292,458022.300,110.733,0.200,0.894,31.42731198,120.62762075,14.847,6.869,-2.585,0.036,0.808,15,14,04*59
$GTIMU,2292,458022.300,-0.4794,0.0896,-3.2463,0.0271,0.1129,1.0264,32.0*69
15:13::24.301,1702595622282,120.62762075,31.42731198,3478522.16345025,559672.05744894,110.73300000,6.00000000,6.86900000,-2.58500000,0.03600000,-0.47940000,0.08960000,-3.24630000,0.02710000,0.11290000,1.02640000
$GPFPD,2292,458022.400,111.047,0.101,0.842,31.42730964,120.62762804,14.843,6.958,-2.656,0.033,0.808,15,14,04*59
$GTIMU,2292,458022.400,-0.9520,-0.5339,-3.1573,0.0212,0.1133,0.9962,32.0*40
15:13::24.401,1702595622382,120.62762804,31.42730964,3478521.90795032,559672.75205223,111.04700000,6.00000000,6.95800000,-2.65600000,0.03300000,-0.95200000,-0.53390000,-3.15730000,0.02120000,0.11330000,0.99620000
$GPFPD,2292,458022.500,111.362,0.010,0.787,31.42730724,120.62763542,14.837,7.040,-2.732,0.023,0.802,15,13,04*52
$GTIMU,2292,458022.500,-0.8698,-0.5498,-3.1615,0.0282,0.1076,0.9906,32.0*44
15:13::24.501,1702595622482,120.62763542,31.42730724,3478521.64584652,559673.45525061,111.36200000,6.00000000,7.04000000,-2.73200000,0.02300000,-0.86980000,-0.54980000,-3.16150000,0.02820000,0.10760000,0.99060000
$GPFPD,2292,458022.600,111.664,-0.080,0.781,31.42730476,120.62764289,14.830,7.121,-2.816,0.001,0.802,15,13,04*7B
$GTIMU,2292,458022.600,-0.8537,-0.0623,-3.0338,0.0365,0.1087,0.9777,32.0*43
15:13::24.601,1702595622582,120.62764289,31.42730476,3478521.37492125,559674.16705675,111.66400000,6.00000000,7.12100000,-2.81600000,0.00100000,-0.85370000,-0.06230000,-3.03380000,0.03650000,0.10870000,0.97770000
$GPFPD,2292,458022.700,111.934,-0.159,0.796,31.42730221,120.62765045,14.821,7.205,-2.898,-0.017,0.807,15,14,04*5F
$GTIMU,2292,458022.700,-0.7553,0.1550,-2.7016,0.0324,0.1096,0.9814,32.0*62
15:13::24.701,1702595622682,120.62765045,31.42730221,3478521.09628332,559674.88746431,111.93400000,6.00000000,7.20500000,-2.89800000,-0.01700000,-0.75530000,0.15500000,-2.70160000,0.03240000,0.10960000,0.98140000
$GPFPD,2292,458022.800,112.169,-0.295,0.847,31.42729958,120.62765808,14.813,7.280,-2.972,-0.008,0.807,15,14,04*58
$GTIMU,2292,458022.800,-1.3316,0.5204,-2.3666,0.0277,0.0955,1.0099,32.0*6D
15:13::24.801,1702595622782,120.62765808,31.42729958,3478520.80881307,559675.61457807,112.16900000,6.00000000,7.28000000,-2.97200000,-0.00800000,-1.33160000,0.52040000,-2.36660000,0.02770000,0.09550000,1.00990000
$GPFPD,2292,458022.900,112.361,-0.417,0.942,31.42729687,120.62766578,14.812,7.348,-3.038,-0.026,0.819,15,14,04*5E
$GTIMU,2292,458022.900,-1.2007,0.9615,-1.9369,0.0209,0.0843,0.9823,32.0*6B
15:13::24.901,1702595622882,120.62766578,31.42729687,3478520.51251049,559676.34839803,112.36100000,6.00000000,7.34800000,-3.03800000,-0.02600000,-1.20070000,0.96150000,-1.93690000,0.02090000,0.08430000,0.98230000
$GPFPD,2292,458023.000,112.502,-0.447,1.009,31.42729410,120.62767354,14.807,7.415,-3.093,-0.061,0.819,15,14,04*5B
$GTIMU,2292,458023.000,-0.2707,0.6722,-1.4145,0.0090,0.0774,0.9648,32.0*64
15:13::25.001,1702595622982,120.62767354,31.42729410,3478520.20958775,559677.08796073,112.50200000,6.00000000,7.41500000,-3.09300000,-0.06100000,-0.27070000,0.67220000,-1.41450000,0.00900000,0.07740000,0.96480000
$GPGGA,071325.00,3125.6367777,N,12037.6606305,E,1,13,1.7,7.777,M,7.80,M,,*64
$GPFPD,2292,458023.100,112.606,-0.410,1.077,31.42729128,120.62768138,14.800,7.480,-3.142,-0.078,0.819,15,14,04*51
$GTIMU,2292,458023.100,0.3769,0.6867,-1.0272,0.0031,0.0740,0.9832,32.0*43
15:13::25.101,1702595623082,120.62768138,31.42729128,3478519.90116452,559677.83516142,112.60600000,6.00000000,7.48000000,-3.14200000,-0.07800000,0.37690000,0.68670000,-1.02720000,0.00310000,0.07400000,0.98320000
$GPFPD,2292,458023.200,112.668,-0.413,1.191,31.42728843,120.62768928,14.793,7.536,-3.184,-0.068,0.807,15,13,04*56
$GTIMU,2292,458023.200,-0.0202,1.1520,-0.6253,-0.0018,0.0634,1.0106,32.0*48
