$GPFPD,2292,525661.600,294.989,-0.206,1.066,31.42699757,120.62960425,16.125,-0.014,-0.012,0.000,0.799,26,19,04*52
$GTIMU,2292,525661.600,-0.0127,0.0417,-0.0049,-0.0153,-0.0026,0.9996,20.1*64
10:00::43.613,1702663261582,120.62960425,31.42699757,3478488.38058553,559860.84515641,294.98900000,6.00000000,-0.01400000,-0.01200000,0.00000000,-0.01270000,0.04170000,-0.00490000,-0.01530000,-0.00260000,0.99960000
$GPFPD,2292,525661.700,294.989,-0.205,1.063,31.42699753,120.62960431,16.121,-0.015,-0.015,-0.000,0.800,26,19,04*74
$GTIMU,2292,525661.700,0.0099,-0.0294,0.0076,-0.0212,-0.0035,0.9990,20.1*4F
10:00::43.713,1702663261682,120.62960431,31.42699753,3478488.37618302,559860.85088655,294.98900000,6.00000000,-0.01500000,-0.01500000,0.00000000,0.00990000,-0.02940000,0.00760000,-0.02120000,-0.00350000,0.99900000
$GPFPD,2292,525661.800,294.989,-0.205,1.067,31.42699749,120.62960435,16.118,-0.015,-0.012,0.000,0.800,26,19,04*50
$GTIMU,2292,525661.800,0.0004,0.0383,-0.0003,-0.0156,-0.0026,0.9999,20.1*49
10:00::43.813,1702663261782,120.62960435,31.42699749,3478488.37176961,559860.85471511,294.98900000,6.00000000,-0.01500000,-0.01200000,0.00000000,0.00040000,0.03830000,-0.00030000,-0.01560000,-0.00260000,0.99990000
$GPFPD,2292,525661.900,294.989,-0.205,1.063,31.42699748,120.62960434,16.118,-0.016,-0.015,0.000,0.797,26,19,04*50
$GTIMU,2292,525661.900,0.0105,-0.0391,0.0042,-0.0215,-0.0032,0.9998,20.1*4E
10:00::43.913,1702663261882,120.62960434,31.42699748,3478488.37065536,559860.85377067,294.98900000,6.00000000,-0.01600000,-0.01500000,0.00000000,0.01050000,-0.03910000,0.00420000,-0.02150000,-0.00320000,0.99980000
$GPFPD,2292,525662.000,294.989,-0.206,1.066,31.42699747,120.62960432,16.118,-0.014,-0.013,0.000,0.797,26,19,04*51
$GTIMU,2292,525662.000,-0.0081,0.0320,-0.0015,-0.0155,-0.0034,0.9998,20.1*6D
10:00::44.013,1702663261982,120.62960432,31.42699747,3478488.36953567,559860.85187545,294.98900000,6.00000000,-0.01400000,-0.01300000,0.00000000,-0.00810000,0.03200000,-0.00150000,-0.01550000,-0.00340000,0.99980000
$GPFPD,2292,525662$GPGGA,02.100,294.0044.00,3989,-0.20125.619745,1.061,391,N,12031.42699747.77577716,120.629,E,1,19,060431,16..9,7.588,118,-0.01M,7.80,M,6,-0.015,,*66
0.000,0.797,26,19,04*52
$GTIMU,2292,525662.100,0.0082,-0.0396,0.0065,-0.0209,-0.0026,0.9994,20.1*4D
10:00::44.113,1702663262082,120.62960431,31.42699746,3478488.36842142,559860.85093102,294.98900000,6.00000000,-0.01600000,-0.01500000,0.00000000,0.00820000,-0.03960000,0.00650000,-0.02090000,-0.00260000,0.99940000
$GPFPD,2292,525662.200,294.989,-0.206,1.066,31.42699745,120.62960429,16.118,-0.015,-0.012,-0.000,0.797,26,19,04*76
$GTIMU,2292,525662.200,-0.0013,0.0508,-0.0043,-0.0152,-0.0026,0.9994,20.1*63
10:00::44.213,1702663262182,120.62960429,31.42699745,3478488.36730173,559860.84903580,294.98900000,6.00000000,-0.01500000,-0.01200000,0.00000000,-0.00130000,0.05080000,-0.00430000,-0.01520000,-0.00260000,0.99940000
$GPFPD,2292,525662.300,294.988,-0.205,1.063,31.42699743,120.62960429,16.116,-0.013,-0.013,-0.000,0.800,26,19,04*7E
$GTIMU,2292,525662.300,0.0060,-0.0345,0.0116,-0.0215,-0.0034,1.0002,20.1*48
10:00::44.313,1702663262282,120.62960429,31.42699743,3478488.36508413,559860.84904851,294.98800000,6.00000000,-0.01300000,-0.01300000,0.00000000,0.00600000,-0.03450000,0.01160000,-0.02150000,-0.00340000,1.00020000
$GPFPD,2292,525662.400,294.989,-0.206,1.067,31.42699742,120.62960434,16.107,-0.012,-0.011,-0.001,0.800,26,19,04*70
$GTIMU,2292,525662.400,-0.0019,0.0417,-0.0060,-0.0156,-0.0030,0.9990,20.1*66
10:00::44.413,1702663262382,120.62960434,31.42699742,3478488.36400257,559860.85380879,294.98900000,6.00000000,-0.01200000,-0.01100000,-0.00100000,-0.00190000,0.04170000,-0.00600000,-0.01560000,-0.00300000,0.99900000
$GPFPD,2292,525662.500,294.988,-0.205,1.063,31.42699741,120.62960440,16.098,-0.013,-0.014,-0.001,0.798,26,19,04*7A
$GTIMU,2292,525662.500,0.0116,-0.0362,0.0087,-0.0210,-0.0030,0.9994,20.1*4D
10:00::44.513,1702663262482,120.62960440,31.42699741,3478488.36292646,559860.85951987,294.98800000,6.00000000,-0.01300000,-0.01400000,-0.00100000,0.01160000,-0.03620000,0.00870000,-0.02100000,-0.00300000,0.99940000
$GPFPD,2292,525662.600,294.989,-0.205,1.067,31.42699739,120.62960445,16.089,-0.012,-0.012,-0.001,0.798,26,19,04*71
$GTIMU,2292,525662.600,0.0004,0.0354,-0.0032,-0.0161,-0.0035,1.0000,20.1*4B
10:00::44.613,1702663262582,120.62960445,31.42699739,3478488.36073610,559860.86428651,294.98900000,6.00000000,-0.01200000,-0.01200000,-0.00100000,0.00040000,0.03540000,-0.00320000,-0.01610000,-0.00350000,1.00000000
$GPFPD,2292,525662.700,294.988,-0.205,1.064,31.42699738,120.62960451,16.079,-0.013,-0.014,-0.001,0.798,26,19,04*7E
$GTIMU,2292,525662.700,0.0088,-0.0283,0.0070,-0.0203,-0.0030,0.9995,20.1*4C
10:00::44.713,1702663262682,120.62960451,31.42699738,3478488.35965999,559860.86999758,294.98800000,6.00000000,-0.01300000,-0.01400000,-0.00100000,0.00880000,-0.02830000,0.00700000,-0.02030000,-0.00300000,0.99950000
$GPFPD,2292,525662.800,294.989,-0.205,1.066,31.42699736,120.62960455,16.072,-0.012,-0.012,-0.001,0.798,26,19,04*74
$GTIMU,2292,525662.800,0.0009,0.0275,0.0002,-0.0166,-0.0031,0.9996,20.1*69
10:00::44.813,1702663262782,120.62960455,31.42699736,3478488.35746418,559860.87381344,294.98900000,6.00000000,-0.01200000,-0.01200000,-0.00100000,0.00090000,0.02750000,0.00020000,-0.01660000,-0.00310000,0.99960000
$GPFPD,2292,525662.900,294.988,-0.205,1.064,31.42699735,120.62960453,16.072,-0.014,-0.013,-0.000,0.799,26,19,04*74
$GTIMU,2292,525662.900,0.0037,-0.0192,0.0048,-0.0198,-0.0023,0.9998,20.1*40
10:00::44.913,1702663262882,120.62960453,31.42699735,3478488.35634449,559860.87191822,294.98800000,6.00000000,-0.01400000,-0.01300000,0.00000000,0.00370000,-0.01920000,0.00480000,-0.01980000,-0.00230000,0.99980000
$GPFPD,2292,525663.000,294.989,-0.205,1.066,31.42699734,120.62960452,16.072,-0.012,-0.013,-0.000,0.799,26,19,04*79
$GTIMU,2292,525663.000,0.0072,0.0195,-0.0004,-0.0174,-0.0041,0.9997,20.1*4F
10:00::45.013,1702663262982,120.62960452,31.42699734,3478488.35523024,559860.87097379,294.98900000,6.00000000,-0.01200000,-0.01300000,0.00000000,0.00720000,0.01950000,-0.00040000,-0.01740000,-0.00410000,0.99970000
$GPGGA,020045.00,3125.6197208,N,12037.7757411,E,1,19,0.9,7.368,M,7.80,M,,*6C
$GPFPD,2292,525663.100,294.988,-0.205,1.064,31.42699733,120.62960450,16.072,-0.013,-0.013,-0.000,0.799,26,19,04*7F
$GTIMU,2292,525663.100,-0.0059,-0.0163,0.0071,-0.0189,-0.0020,0.9996,20.1*65
10:00::45.113,1702663263082,120.62960450,31.42699733,3478488.35411054,559860.86907856,294.98800000,6.00000000,-0.01300000,-0.01300000,0.00000000,-0.00590000,-0.01630000,0.00710000,-0.01890000,-0.00200000,0.99960000
$GPFPD,2292,525663.200,294.988,-0.205,1.066,31.42699732,120.62960449,16.072,-0.013,-0.013,-0.000,0.800,26,19,04*78
$GTIMU,2292,525663.200,0.0060,0.0172,-0.0004,-0.0186,-0.0038,0.9995,20.1*46
10:00::45.213,1702663263182,120.62960449,31.42699732,3478488.35299630,559860.86813413,294.98800000,6.00000000,-0.01300000,-0.01300000,0.00000000,0.00600000,0.01720000,-0.00040000,-0.01860000,-0.00380000,0.99950000
$GPFPD,2292,525663.300,294.989,-0.206,1.064,31.42699731,120.62960448,16.069,-0.013,-0.011,-0.003,0.800,26,19,04*70
$GTIMU,2292,525663.300,-0.0048,-0.0191,-0.0020,-0.0182,-0.0018,0.9991,20.1*44
10:00::45.313,1702663263282,120.62960448,31.42699731,3478488.35188205,559860.86718970,294.98900000,6.00000000,-0.01300000,-0.01100000,-0.00300000,-0.00480000,-0.01910000,-0.00200000,-0.01820000,-0.00180000,0.99910000
$GPFPD,2292,525663.400,294.988,-0.205,1.064,31.42699730,120.62960451,16.058,-0.011,-0.011,-0.002,0.800,26,19,04*7D
$GTIMU,2292,525663.400,0.0128,0.0064,0.0042,-0.0183,-0.0045,1.0002,20.1*64
10:00::45.413,1702663263382,120.62960451,31.42699730,3478488.35078959,559860.87004841,294.98800000,6.00000000,-0.01100000,-0.01100000,-0.00200000,0.01280000,0.00640000,0.00420000,-0.01830000,-0.00450000,1.00020000
$GPFPD,2292,525663.500,294.988,-0.206,1.065,31.42699730,120.62960454,16.047,-0.011,-0.010,-0.003,0.798,26,19,04*7B
$GTIMU,2292,525663.500,-0.0048,0.0064,0.0037,-0.0174,-0.0025,0.9990,20.1*49
10:00::45.513,1702663263482,120.62960454,31.42699730,3478488.35080594,559860.87290077,294.98800000,6.00000000,-0.01100000,-0.01000000,-0.00300000,-0.00480000,0.00640000,0.00370000,-0.01740000,-0.00250000,0.99900000
$GPFPD,2292,525663.600,294.988,-0.204,1.065,31.42699729,120.62960456,16.035,-0.012,-0.012,-0.002,0.798,26,19,04*75
$GTIMU,2292,525663.600,0.0168,0.0070,0.0047,-0.0199,-0.0029,1.0000,20.1*61
10:00::45.613,1702663263582,120.62960456,31.42699729,3478488.34970803,559860.87480870,294.98800000,6.00000000,-0.01200000,-0.01200000,-0.00200000,0.01680000,0.00700000,0.00470000,-0.01990000,-0.00290000,1.00000000
$GPFPD,2292,525663.700,294.989,-0.206,1.066,31.42699729,120.62960459,16.024,-0.013,-0.010,-0.002,0.798,26,19,04*78
$GTIMU,2292,525663.700,-0.0127,0.0036,-0.0049,-0.0174,-0.0020,0.9997,20.1*62
10:00::45.713,1702663263682,120.62960459,31.42699729,3478488.34972438,559860.87766106,294.98900000,6.00000000,-0.01300000,-0.01000000,-0.00200000,-0.01270000,0.00360000,-0.00490000,-0.01740000,-0.00200000,0.99970000
$GPFPD,2292,525663.800,294.988,-0.205,1.062,31.42699728,120.62960461,16.015,-0.012,-0.013,-0.002,0.798,26,19,04*7B
$GTIMU,2292,525663.800,0.0156,-0.0357,0.0087,-0.0203,-0.0055,0.9993,20.1*45
10:00::45.813,1702663263782,120.62960461,31.42699728,3478488.34862647,559860.87956899,294.98800000,6.00000000,-0.01200000,-0.01300000,-0.00200000,0.01560000,-0.03570000,0.00870000,-0.02030000,-0.00550000,0.99930000
$GPFPD,2292,525663.900,294.989,-0.205,1.065,31.42699727,120.62960460,16.015,-0.012,-0.010,-0.002,0.801,26,19,04*7E
$GTIMU,2292,525663.900,0.0026,0.0303,-0.0021,-0.0151,-0.0017,0.9998,20.1*46
10:00::45.913,1702663263882,120.62960460,31.42699727,3478488.34751223,559860.87862455,294.98900000,6.00000000,-0.01200000,-0.01000000,-0.00200000,0.00260000,0.03030000,-0.00210000,-0.01510000,-0.00170000,0.99980000
$GPFPD,2292,525664.000,294.988,-0.205,1.062,31.42699726,120.62960458,16.015,-0.013,-0.012,-0.002,0.801,26,19,04*7F
$GTIMU,2292,525664.000,0.0014,-0.0265,0.0054,-0.0214,-0.0024,1.0001,20.1*49
10:00::46.013,1702663263982,120.62960458,31.42699726,3478488.34639253,559860.87672933,294.98800000,6.00000000,-0.01300000,-0.01200000,-0.00200000,0.00140000,-0.02650000,0.00540000,-0.02140000,-0.00240000,1.00010000
$GPFPD,2292,525664$GPGGA,02.100,294.0046.00,3988,-0.20125.619726,1.066,336,N,12031.42699727.77578535,120.629,E,1,19,060457,16..9,7.547,014,-0.01M,7.80,M,2,-0.010,,*63
-0.003,0.801,26,19,04*76
$GTIMU,2292,525664.100,-0.0104,0.0411,0.0008,-0.0155,-0.0034,0.9989,20.1*42
10:00::46.113,1702663264082,120.62960457,31.42699725,3478488.34527829,559860.87578490,294.98800000,6.00000000,-0.01200000,-0.01000000,-0.00300000,-0.01040000,0.04110000,0.00080000,-0.01550000,-0.00340000,0.99890000
$GPFPD,2292,525664.200,294.988,-0.205,1.062,31.42699724,120.62960456,16.014,-0.013,-0.013,-0.002,0.800,26,19,04*70
$GTIMU,2292,525664.200,0.0184,-0.0413,0.0065,-0.0215,-0.0036,0.9998,20.1*45
10:00::46.213,1702663264182,120.62960456,31.42699724,3478488.34416404,559860.87484047,294.98800000,6.00000000,-0.01300000,-0.01300000,-0.00200000,0.01840000,-0.04130000,0.00650000,-0.02150000,-0.00360000,0.99980000
$GPFPD,2292,525664.300,294.988,-0.205,1.066,31.42699723,120.62960456,16.013,-0.010,-0.010,-0.000,0.800,26,19,04*77
$GTIMU,2292,525664.300,0.0010,0.0406,-0.0043,-0.0154,-0.0024,0.9995,20.1*40
10:00::46.313,1702663264282,120.62960456,31.42699723,3478488.34305524,559860.87484682,294.98800000,6.00000000,-0.01000000,-0.01000000,0.00000000,0.00100000,0.04060000,-0.00430000,-0.01540000,-0.00240000,0.99950000
$GPFPD,2292,525664.400,294.987,-0.205,1.062,31.42699721,120.62960461,16.009,-0.011,-0.012,-0.000,0.800,26,19,04*75
$GTIMU,2292,525664.400,0.0048,-0.0328,0.0122,-0.0207,-0.0025,0.9993,20.1*45
10:00::46.413,1702663264382,120.62960461,31.42699721,3478488.34086488,559860.87961346,294.98700000,6.00000000,-0.01100000,-0.01200000,0.00000000,0.00480000,-0.03280000,0.01220000,-0.02070000,-0.00250000,0.99930000
$GPFPD,2292,525664.500,294.988,-0.205,1.067,31.42699718,120.62960466,16.004,-0.010,-0.010,0.000,0.797,26,19,04*51
$GTIMU,2292,525664.500,0.0032,0.0468,-0.0032,-0.0159,-0.0036,0.9999,20.1*4A
10:00::46.513,1702663264482,120.62960466,31.42699718,3478488.33756572,559860.88438645,294.98800000,6.00000000,-0.01000000,-0.01000000,0.00000000,0.00320000,0.04680000,-0.00320000,-0.01590000,-0.00360000,0.99990000
$GPFPD,2292,525664.600,294.987,-0.204,1.062,31.42699716,120.62960471,16.000,-0.011,-0.013,0.000,0.797,26,19,04*57
$GTIMU,2292,525664.600,0.0145,-0.0447,0.0065,-0.0217,-0.0032,0.9996,20.1*45
10:00::46.613,1702663264582,120.62960471,31.42699716,3478488.33537536,559860.88915310,294.98700000,6.00000000,-0.01100000,-0.01300000,0.00000000,0.01450000,-0.04470000,0.00650000,-0.02170000,-0.00320000,0.99960000
$GPFPD,2292,525664.700,294.987,-0.205,1.065,31.42699714,120.62960475,15.996,-0.009,-0.010,0.000,0.799,26,19,04*57
$GTIMU,2292,525664.700,-0.0081,0.0280,0.0014,-0.0150,-0.0034,0.9998,20.1*4E
10:00::46.713,1702663264682,120.62960475,31.42699714,3478488.33317956,559860.89296895,294.98700000,6.00000000,-0.00900000,-0.01000000,0.00000000,-0.00810000,0.02800000,0.00140000,-0.01500000,-0.00340000,0.99980000
$GPFPD,2292,525664.800,294.988,-0.204,1.061,31.42699712,120.62960479,15.993,-0.011,-0.012,0.000,0.799,26,19,04*56
$GTIMU,2292,525664.800,0.0110,-0.0373,0.0013,-0.0211,-0.0028,0.9997,20.1*46
10:00::46.813,1702663264782,120.62960479,31.42699712,3478488.33098375,559860.89678481,294.98800000,6.00000000,-0.01100000,-0.01200000,0.00000000,0.01100000,-0.03730000,0.00130000,-0.02110000,-0.00280000,0.99970000
$GPFPD,2292,525664.900,294.988,-0.205,1.066,31.42699711,120.62960478,15.993,-0.010,-0.009,-0.000,0.800,26,19,04*7A
$GTIMU,2292,525664.900,-0.0035,0.0548,-0.0003,-0.0151,-0.0020,0.9991,20.1*6A
10:00::46.913,1702663264882,120.62960478,31.42699711,3478488.32986950,559860.89584037,294.98800000,6.00000000,-0.01000000,-0.00900000,0.00000000,-0.00350000,0.05480000,-0.00030000,-0.01510000,-0.00200000,0.99910000
$GPFPD,2292,525665.000,294.987,-0.203,1.062,31.42699710,120.62960477,15.993,-0.011,-0.013,0.001,0.800,26,19,04*57
$GTIMU,2292,525665.000,0.0179,-0.0442,0.0122,-0.0221,-0.0038,1.0005,20.1*4E
10:00::47.013,1702663264982,120.62960477,31.42699710,3478488.32875526,559860.89489594,294.98700000,6.00000000,-0.01100000,-0.01300000,0.00100000,0.01790000,-0.04420000,0.01220000,-0.02210000,-0.00380000,1.00050000
$GPGGA,020047.00,3125.6197341,N,12037.7758099,E,1,19,0.9,7.570,M,7.80,M,,*66
$GPFPD,2292,525665.100,294.988,-0.205,1.065,31.42699709,120.62960476,15.993,-0.010,-0.010,0.000,0.800,26,19,04*52
$GTIMU,2292,525665.100,-0.0167,0.0343,-0.0123,-0.0150,-0.0028,0.9989,20.1*6B
10:00::47.113,1702663265082,120.62960476,31.42699709,3478488.32764101,559860.89395151,294.98800000,6.00000000,-0.01000000,-0.01000000,0.00000000,-0.01670000,0.03430000,-0.01230000,-0.01500000,-0.00280000,0.99890000
$GPFPD,2292,525665.200,294.987,-0.203,1.061,31.42699708,120.62960475,15.993,-0.010,-0.012,-0.000,0.801,26,19,04*70
$GTIMU,2292,525665.200,0.0230,-0.0340,0.0150,-0.0206,-0.0038,0.9995,20.1*4F
10:00::47.213,1702663265182,120.62960475,31.42699708,3478488.32652676,559860.89300707,294.98700000,6.00000000,-0.01000000,-0.01200000,0.00000000,0.02300000,-0.03400000,0.01500000,-0.02060000,-0.00380000,0.99950000
$GPFPD,2292,525665.300,294.988,-0.204,1.066,31.42699707,120.62960475,15.992,-0.007,-0.008,0.002,0.801,26,19,04*52
$GTIMU,2292,525665.300,-0.0042,0.0400,-0.0049,-0.0165,-0.0021,0.9993,20.1*66
10:00::47.313,1702663265282,120.62960475,31.42699707,3478488.32541796,559860.89301342,294.98800000,6.00000000,-0.00700000,-0.00800000,0.00200000,-0.00420000,0.04000000,-0.00490000,-0.01650000,-0.00210000,0.99930000
$GPFPD,2292,525665.400,294.987,-0.202,1.063,31.42699707,120.62960482,15.988,-0.008,-0.010,0.003,0.801,26,19,04*5D
$GTIMU,2292,525665.400,0.0196,-0.0283,0.0042,-0.0200,-0.0030,1.0005,20.1*4C
10:00::47.413,1702663265382,120.62960482,31.42699707,3478488.32545610,559860.89966893,294.98700000,6.00000000,-0.00800000,-0.01000000,0.00300000,0.01960000,-0.02830000,0.00420000,-0.02000000,-0.00300000,1.00050000
$GPFPD,2292,525665.500,294.987,-0.205,1.066,31.42699708,120.62960488,15.984,-0.008,-0.008,0.003,0.800,26,19,04*5F
$GTIMU,2292,525665.500,-0.0229,0.0343,0.0048,-0.0167,-0.0028,0.9998,20.1*43
10:00::47.513,1702663265482,120.62960488,31.42699708,3478488.32659758,559860.90536730,294.98700000,6.00000000,-0.00800000,-0.00800000,0.00300000,-0.02290000,0.03430000,0.00480000,-0.01670000,-0.00280000,0.99980000
$GPFPD,2292,525665.600,294.988,-0.204,1.060,31.42699708,120.62960494,15.980,-0.008,-0.011,0.002,0.800,26,19,04*54
$GTIMU,2292,525665.600,0.0155,-0.0527,-0.0027,-0.0212,-0.0043,0.9988,20.1*65
10:00::47.613,1702663265582,120.62960494,31.42699708,3478488.32663027,559860.91107202,294.98800000,6.00000000,-0.00800000,-0.01100000,0.00200000,0.01550000,-0.05270000,-0.00270000,-0.02120000,-0.00430000,0.99880000
$GPFPD,2292,525665.700,294.988,-0.204,1.065,31.42699708,120.62960501,15.975,-0.007,-0.007,0.002,0.800,26,19,04*5F
$GTIMU,2292,525665.700,0.0032,0.0428,-0.0049,-0.0145,-0.0019,0.9991,20.1*49
10:00::47.713,1702663265682,120.62960501,31.42699708,3478488.32666841,559860.91772753,294.98800000,6.00000000,-0.00700000,-0.00700000,0.00200000,0.00320000,0.04280000,-0.00490000,-0.01450000,-0.00190000,0.99910000
$GPFPD,2292,525665.800,294.987,-0.203,1.062,31.42699708,120.62960505,15.972,-0.009,-0.009,0.003,0.800,26,19,04*5D
$GTIMU,2292,525665.800,0.0077,-0.0243,0.0116,-0.0206,-0.0020,1.0010,20.1*41
10:00::47.813,1702663265782,120.62960505,31.42699708,3478488.32669020,559860.92153068,294.98700000,6.00000000,-0.00900000,-0.00900000,0.00300000,0.00770000,-0.02430000,0.01160000,-0.02060000,-0.00200000,1.00100000
$GPFPD,2292,525665.900,294.988,-0.205,1.068,31.42699707,120.62960505,15.973,-0.007,-0.008,0.003,0.799,26,19,04*51
$GTIMU,2292,525665.900,-0.0194,0.0633,-0.0020,-0.0166,-0.0041,0.9989,20.1*65
10:00::47.913,1702663265882,120.62960505,31.42699707,3478488.32558140,559860.92153703,294.98800000,6.00000000,-0.00700000,-0.00800000,0.00300000,-0.01940000,0.06330000,-0.00200000,-0.01660000,-0.00410000,0.99890000
$GPFPD,2292,525666.000,294.988,-0.204,1.062,31.42699706,120.62960504,15.973,-0.008,-0.011,0.002,0.799,26,19,04*56
$GTIMU,2292,525666.000,0.0201,-0.0550,0.0053,-0.0217,-0.0037,0.9988,20.2*49
10:00::48.013,1702663265982,120.62960504,31.42699706,3478488.32446715,559860.92059260,294.98800000,6.00000000,-0.00800000,-0.01100000,0.00200000,0.02010000,-0.05500000,0.00530000,-0.02170000,-0.00370000,0.99880000
$GPGGA,020048.00,3125.6197341,N,12037.7758168,E,1,19,0.9,7.760,M,7.80,M,,*65
$GPFPD,2292,525666.100,294.988,-0.204,1.065,31.42699705,120.62960503,15.973,-0.008,-0.008,0.003,0.799,26,19,04*5D
$GTIMU,2292,525666.100,0.0038,0.0241,-0.0072,-0.0154,-0.0018,1.0007,20.2*4B
10:00::48.113,1702663266082,120.62960503,31.42699705,3478488.32335291,559860.91964817,294.98800000,6.00000000,-0.00800000,-0.00800000,0.00300000,0.00380000,0.02410000,-0.00720000,-0.01540000,-0.00180000,1.00070000
$GPFPD,2292,525666.200,294.988,-0.204,1.060,31.42699705,120.62960502,15.973,-0.008,-0.011,0.003,0.800,26,19,04*5D
$GTIMU,2292,525666.200,0.0025,-0.0430,0.0111,-0.0203,-0.0043,0.9994,20.2*44
10:00::48.213,1702663266182,120.62960502,31.42699705,3478488.32334746,559860.91869738,294.98800000,6.00000000,-0.00800000,-0.01100000,0.00300000,0.00250000,-0.04300000,0.01110000,-0.02030000,-0.00430000,0.99940000
$GPFPD,2292,525666.300,294.988,-0.204,1.067,31.42699704,120.62960502,15.972,-0.006,-0.005,0.005,0.802,26,20,04*5E
$GTIMU,2292,525666.300,-0.0007,0.0707,-0.0106,-0.0152,-0.0025,0.9995,20.2*6F
10:00::48.313,1702663266282,120.62960502,31.42699704,3478488.32223866,559860.91870373,294.98800000,6.00000000,-0.00600000,-0.00500000,0.00500000,-0.00070000,0.07070000,-0.01060000,-0.01520000,-0.00250000,0.99950000
$GPFPD,2292,525666.400,294.988,-0.204,1.065,31.42699705,120.62960505,15.968,-0.008,-0.008,0.006,0.802,26,20,04*56
$GTIMU,2292,525666.400,0.0071,-0.0226,0.0099,-0.0217,-0.0024,1.0002,20.2*49
10:00::48.413,1702663266382,120.62960505,31.42699705,3478488.32336380,559860.92154974,294.98800000,6.00000000,-0.00800000,-0.00800000,0.00600000,0.00710000,-0.02260000,0.00990000,-0.02170000,-0.00240000,1.00020000
$GPFPD,2292,525666.500,294.988,-0.205,1.068,31.42699706,120.62960508,15.965,-0.007,-0.006,0.005,0.799,26,20,04*57
$GTIMU,2292,525666.500,-0.0070,0.0303,0.0002,-0.0161,-0.0034,0.9987,20.2*42
10:00::48.513,1702663266482,120.62960508,31.42699706,3478488.32448894,559860.92439575,294.98800000,6.00000000,-0.00700000,-0.00600000,0.00500000,-0.00700000,0.03030000,0.00020000,-0.01610000,-0.00340000,0.99870000
$GPFPD,2292,525666.600,294.988,-0.204,1.065,31.42699706,120.62960511,15.961,-0.007,-0.008,0.005,0.799,26,20,04*5A
$GTIMU,2292,525666.600,0.0167,-0.0311,0.0025,-0.0205,-0.0037,0.9998,20.2*4C
10:00::48.613,1702663266582,120.62960511,31.42699706,3478488.32450529,559860.92724811,294.98800000,6.00000000,-0.00700000,-0.00800000,0.00500000,0.01670000,-0.03110000,0.00250000,-0.02050000,-0.00370000,0.99980000
$GPFPD,2292,525666.700,294.988,-0.203,1.068,31.42699707,120.62960515,15.957,-0.007,-0.006,0.005,0.799,26,20,04*5F
$GTIMU,2292,525666.700,0.0072,0.0326,-0.0004,-0.0161,-0.0023,0.9999,20.2*4A
10:00::48.713,1702663266682,120.62960515,31.42699707,3478488.32563588,559860.93104490,294.98800000,6.00000000,-0.00700000,-0.00600000,0.00500000,0.00720000,0.03260000,-0.00040000,-0.01610000,-0.00230000,0.99990000
$GPFPD,2292,525666.800,294.988,-0.203,1.065,31.42699707,120.62960517,15.954,-0.009,-0.007,0.005,0.799,26,20,04*53
$GTIMU,2292,525666.800,0.0026,-0.0248,0.0059,-0.0202,-0.0022,0.9989,20.2*43
10:00::48.813,1702663266782,120.62960517,31.42699707,3478488.32564677,559860.93294648,294.98800000,6.00000000,-0.00900000,-0.00700000,0.00500000,0.00260000,-0.02480000,0.00590000,-0.02020000,-0.00220000,0.99890000
$GPFPD,2292,525666.900,294.988,-0.202,1.068,31.42699707,120.62960516,15.954,-0.007,-0.007,0.005,0.799,26,20,04*51
$GTIMU,2292,525666.900,0.0129,0.0286,-0.0044,-0.0169,-0.0045,1.0000,20.2*4D
10:00::48.912,1702663266882,120.62960516,31.42699707,3478488.32564133,559860.93199569,294.98800000,6.00000000,-0.00700000,-0.00700000,0.00500000,0.01290000,0.02860000,-0.00440000,-0.01690000,-0.00450000,1.00000000
$GPFPD,2292,525667.000,294.988,-0.202,1.066,31.42699706,120.62960515,15.955,-0.008,-0.008,0.005,0.799,26,20,04*54
$GTIMU,2292,525667.000,0.0054,-0.0118,0.0042,-0.0198,-0.0024,0.9995,20.2*48
10:00::49.013,1702663266982,120.62960515,31.42699706,3478488.32452708,559860.93105126,294.98800000,6.00000000,-0.00800000,-0.00800000,0.00500000,0.00540000,-0.01180000,0.00420000,-0.01980000,-0.00240000,0.99950000
$GPFPD,2292,525667$GPGGA,02.100,294.0049.00,3989,-0.20125.619762,1.068,389,N,12031.42699707.77580185,120.629,E,1,20,060514,15..9,7.655,955,-0.00M,7.80,M,7,-0.008,,*6E
0.005,0.799,26,20,04*57
$GTIMU,2292,525667.100,0.0026,0.0144,-0.0009,-0.0181,-0.0034,1.0001,20.2*4F
10:00::49.113,1702663267082,120.62960514,31.42699705,3478488.32341283,559860.93010682,294.98900000,6.00000000,-0.00700000,-0.00800000,0.00500000,0.00260000,0.01440000,-0.00090000,-0.01810000,-0.00340000,1.00010000
$GPFPD,2292,525667.200,294.989,-0.202,1.064,31.42699705,120.62960513,15.956,-0.008,-0.008,0.005,0.800,26,20,04*5C
$GTIMU,2292,525667.200,0.0025,-0.0322,-0.0004,-0.0187,-0.0021,0.9992,20.2*64
10:00::49.213,1702663267182,120.62960513,31.42699705,3478488.32340738,559860.92915604,294.98900000,6.00000000,-0.00800000,-0.00800000,0.00500000,0.00250000,-0.03220000,-0.00040000,-0.01870000,-0.00210000,0.99920000
$GPFPD,2292,525667.300,294.989,-0.201,1.069,31.42699704,120.62960513,15.953,-0.008,-0.006,0.003,0.799,26,20,04*50
$GTIMU,2292,525667.300,0.0146,0.0440,-0.0038,-0.0166,-0.0036,0.9994,20.2*4F
10:00::49.312,1702663267282,120.62960513,31.42699704,3478488.32229858,559860.92916239,294.98900000,6.00000000,-0.00800000,-0.00600000,0.00300000,0.01460000,0.04400000,-0.00380000,-0.01660000,-0.00360000,0.99940000
$GPFPD,2292,525667.400,294.989,-0.199,1.067,31.42699703,120.62960512,15.942,-0.012,-0.007,0.002,0.799,26,20,04*56
$GTIMU,2292,525667.400,0.0225,-0.0101,0.0019,-0.0206,-0.0001,0.9995,20.2*4D
10:00::49.413,1702663267382,120.62960512,31.42699703,3478488.32118434,559860.92821796,294.98900000,6.00000000,-0.01200000,-0.00700000,0.00200000,0.02250000,-0.01010000,0.00190000,-0.02060000,-0.00010000,0.99950000
$GPFPD,2292,525667.500,294.990,-0.196,1.067,31.42699702,120.62960512,15.930,-0.010,-0.007,0.002,0.797,26,20,04*58
$GTIMU,2292,525667.500,0.0338,-0.0015,-0.0027,-0.0179,-0.0043,0.9993,20.2*6E
10:00::49.513,1702663267482,120.62960512,31.42699702,3478488.32007554,559860.92822431,294.99000000,6.00000000,-0.01000000,-0.00700000,0.00200000,0.03380000,-0.00150000,-0.00270000,-0.01790000,-0.00430000,0.99930000
$GPFPD,2292,525667.600,294.991,-0.190,1.067,31.42699702,120.62960511,15.918,-0.010,-0.007,-0.001,0.797,26,20,04*7B
$GTIMU,2292,525667.600,0.0622,-0.0021,-0.0096,-0.0184,-0.0028,0.9960,20.2*6D
10:00::49.613,1702663267582,120.62960511,31.42699702,3478488.32007009,559860.92727352,294.99100000,6.00000000,-0.01000000,-0.00700000,-0.00100000,0.06220000,-0.00210000,-0.00960000,-0.01840000,-0.00280000,0.99600000
$GPFPD,2292,525667.700,294.991,-0.149,1.069,31.42699701,120.62960510,15.905,-0.038,0.007,-0.027,0.799,26,20,04*53
$GTIMU,2292,525667.700,0.4171,0.0272,0.0095,-0.0171,0.0290,0.9730,20.2*43
10:00::49.713,1702663267682,120.62960510,31.42699701,3478488.31895585,559860.92632909,294.99100000,6.00000000,-0.03800000,0.00700000,-0.02700000,0.41710000,0.02720000,0.00950000,-0.01710000,0.02900000,0.97300000
$GPFPD,2292,525667.800,294.994,-0.057,1.073,31.42699702,120.62960504,15.892,-0.074,0.023,-0.036,0.799,26,20,04*5B
$GTIMU,2292,525667.800,0.9207,0.0355,-0.0048,-0.0190,0.0394,0.9910,20.2*6C
10:00::49.813,1702663267782,120.62960504,31.42699702,3478488.32003196,559860.92061801,294.99400000,6.00000000,-0.07400000,0.02300000,-0.03600000,0.92070000,0.03550000,-0.00480000,-0.01900000,0.03940000,0.99100000
$GPFPD,2292,525667.900,294.994,0.004,1.081,31.42699706,120.62960494,15.889,-0.122,0.046,-0.015,0.798,26,20,04*7B
$GTIMU,2292,525667.900,0.6177,0.0880,0.0136,-0.0176,0.0538,1.0206,20.2*4C
10:00::49.913,1702663267882,120.62960494,31.42699706,3478488.32441267,559860.91108473,294.99400000,6.00000000,-0.12200000,0.04600000,-0.01500000,0.61770000,0.08800000,0.01360000,-0.01760000,0.05380000,1.02060000
$GPFPD,2292,525668.000,294.985,0.021,1.086,31.42699711,120.62960479,15.889,-0.169,0.070,0.006,0.798,26,20,04*5D
$GTIMU,2292,525668.000,0.1664,0.0455,0.0899,-0.0175,0.0543,1.0219,20.2*41
10:00::50.012,1702663267982,120.62960479,31.42699711,3478488.32987495,559860.89679116,294.98500000,6.00000000,-0.16900000,0.07000000,0.00600000,0.16640000,0.04550000,0.08990000,-0.01750000,0.05430000,1.02190000
$GPGGA,020050.00,3125.6197735,N,12037.7757548,E,1,20,0.9,7.388,M,7.80,M,,*6A
$GPFPD,2292,525668.100,294.974,0.022,1.088,31.42699718,120.62960458,15.890,-0.224,0.094,0.006,0.798,26,20,04*5D
$GTIMU,2292,525668.100,0.0115,0.0262,0.1114,-0.0202,0.0621,0.9990,20.2*49
10:00::50.112,1702663268082,120.62960458,31.42699718,3478488.33752214,559860.87678016,294.97400000,6.00000000,-0.22400000,0.09400000,0.00600000,0.01150000,0.02620000,0.11140000,-0.02020000,0.06210000,0.99900000
$GPFPD,2292,525668.200,294.952,0.020,1.090,31.42699728,120.62960432,15.891,-0.267,0.118,0.010,0.802,26,20,04*56
$GTIMU,2292,525668.200,-0.0217,0.0238,0.2216,-0.0150,0.0519,1.0035,20.2*69
10:00::50.213,1702663268182,120.62960432,31.42699728,3478488.34846849,559860.85199616,294.95200000,6.00000000,-0.26700000,0.11800000,0.01000000,-0.02170000,0.02380000,0.22160000,-0.01500000,0.05190000,1.00350000
$GPFPD,2292,525668.300,294.917,0.006,1.096,31.42699739,120.62960401,15.889,-0.308,0.135,0.005,0.800,26,21,04*5D
$GTIMU,2292,525668.300,-0.1400,0.0595,0.3485,-0.0206,0.0439,0.9957,20.2*62
10:00::50.312,1702663268282,120.62960401,31.42699739,3478488.36049639,559860.82245188,294.91700000,6.00000000,-0.30800000,0.13500000,0.00500000,-0.14000000,0.05950000,0.34850000,-0.02060000,0.04390000,0.99570000
$GPFPD,2292,525668.400,294.875,0.017,1.091,31.42699752,120.62960367,15.879,-0.349,0.154,-0.000,0.800,26,21,04*77
$GTIMU,2292,525668.400,0.1098,-0.0516,0.4220,-0.0188,0.0477,0.9943,20.2*6F
10:00::50.413,1702663268382,120.62960367,31.42699752,3478488.37472555,559860.79004253,294.87500000,6.00000000,-0.34900000,0.15400000,0.00000000,0.10980000,-0.05160000,0.42200000,-0.01880000,0.04770000,0.99430000
$GPFPD,2292,525668.500,294.818,0.020,1.091,31.42699766,120.62960328,15.869,-0.388,0.176,0.006,0.799,26,21,04*5D
$GTIMU,2292,525668.500,0.0229,0.0000,0.5762,-0.0154,0.0462,1.0058,20.2*44
10:00::50.512,1702663268482,120.62960328,31.42699766,3478488.39003627,559860.75287289,294.81800000,6.00000000,-0.38800000,0.17600000,0.00600000,0.02290000,0.00000000,0.57620000,-0.01540000,0.04620000,1.00580000
$GPFPD,2292,525668.600,294.746,0.015,1.091,31.42699781,120.62960286,15.860,-0.425,0.191,0.006,0.799,26,21,04*50
$GTIMU,2292,525668.600,-0.0647,0.0062,0.7202,-0.0197,0.0414,1.0004,20.2*64
10:00::50.613,1702663268582,120.62960286,31.42699781,3478488.40643945,559860.71284454,294.74600000,6.00000000,-0.42500000,0.19100000,0.00600000,-0.06470000,0.00620000,0.72020000,-0.01970000,0.04140000,1.00040000
$GPFPD,2292,525668.700,294.663,0.016,1.090,31.42699799,120.62960239,15.850,-0.460,0.207,0.005,0.796,26,21,04*5A
$GTIMU,2292,525668.700,-0.0025,-0.0054,0.8335,-0.0188,0.0398,0.9981,20.2*44
10:00::50.713,1702663268682,120.62960239,31.42699799,3478488.42614179,559860.66804320,294.66300000,6.00000000,-0.46000000,0.20700000,0.00500000,-0.00250000,-0.00540000,0.83350000,-0.01880000,0.03980000,0.99810000
$GPFPD,2292,525668.800,294.562,0.015,1.088,31.42699817,120.62960189,15.843,-0.497,0.226,0.004,0.796,26,21,04*54
$GTIMU,2292,525668.800,-0.0265,-0.0255,1.0104,-0.0177,0.0431,0.9990,20.2*43
10:00::50.813,1702663268782,120.62960189,31.42699817,3478488.44582778,559860.62038949,294.56200000,6.00000000,-0.49700000,0.22600000,0.00400000,-0.02650000,-0.02550000,1.01040000,-0.01770000,0.04310000,0.99900000
$GPFPD,2292,525668.900,294.440,0.017,1.085,31.42699839,120.62960135,15.843,-0.534,0.243,0.002,0.797,26,21,04*5C
$GTIMU,2292,525668.900,0.0030,-0.0235,1.2242,-0.0179,0.0424,0.9977,20.2*6B
10:00::50.912,1702663268882,120.62960135,31.42699839,3478488.46992717,559860.56890722,294.44000000,6.00000000,-0.53400000,0.24300000,0.00200000,0.00300000,-0.02350000,1.22420000,-0.01790000,0.04240000,0.99770000
$GPFPD,2292,525669.000,294.294,0.026,1.089,31.42699862,120.62960076,15.843,-0.572,0.265,0.001,0.797,26,21,04*58
$GTIMU,2292,525669.000,0.0640,0.0405,1.4590,-0.0146,0.0454,0.9978,20.2*40
10:00::51.012,1702663268982,120.62960076,31.42699862,3478488.49510813,559860.51266466,294.29400000,6.00000000,-0.57200000,0.26500000,0.00100000,0.06400000,0.04050000,1.45900000,-0.01460000,0.04540000,0.99780000
$GPGGA,020051.00,3125.6198755,N,12037.7755476,E,1,21,0.9,7.563,M,7.80,M,,*6E
$GPFPD,2292,525669.100,294.129,0.036,1.098,31.42699886,120.62960014,15.843,-0.615,0.281,0.000,0.797,26,21,04*5A
$GTIMU,2292,525669.100,0.0737,0.0925,1.6632,-0.0218,0.0474,0.9993,20.2*49
10:00::51.113,1702663269082,120.62960014,31.42699886,3478488.52138154,559860.45356339,294.12900000,6.00000000,-0.61500000,0.28100000,0.00000000,0.07370000,0.09250000,1.66320000,-0.02180000,0.04740000,0.99930000
$GPFPD,2292,525669.200,293.947,0.060,1.118,31.42699912,120.62959947,15.843,-0.661,0.302,-0.004,0.800,26,21,04*7C
$GTIMU,2292,525669.200,0.2072,0.1974,1.8254,-0.0180,0.0530,0.9947,20.2*4B
10:00::51.213,1702663269182,120.62959947,31.42699912,3478488.54984531,559860.38969548,293.94700000,6.00000000,-0.66100000,0.30200000,-0.00400000,0.20720000,0.19740000,1.82540000,-0.01800000,0.05300000,0.99470000
$GPFPD,2292,525669.300,293.736,0.100,1.133,31.42699941,120.62959875,15.839,-0.722,0.332,-0.017,0.802,26,21,04*75
$GTIMU,2292,525669.300,0.3617,0.1612,2.1097,-0.0193,0.0721,0.9928,20.2*4F
10:00::51.313,1702663269282,120.62959875,31.42699941,3478488.58160825,559860.32105458,293.73600000,6.00000000,-0.72200000,0.33200000,-0.01700000,0.36170000,0.16120000,2.10970000,-0.01930000,0.07210000,0.99280000
$GPFPD,2292,525669.400,293.497,0.159,1.148,31.42699974,120.62959799,15.819,-0.805,0.367,-0.023,0.802,26,21,04*7E
$GTIMU,2292,525669.400,0.5448,0.1505,2.4069,-0.0211,0.0945,0.9930,20.2*4B
10:00::51.413,1702663269382,120.62959799,31.42699974,3478488.61778458,559860.24858511,293.49700000,6.00000000,-0.80500000,0.36700000,-0.02300000,0.54480000,0.15050000,2.40690000,-0.02110000,0.09450000,0.99300000
$GPFPD,2292,525669.500,293.228,0.223,1.151,31.42700011,120.62959713,15.800,-0.905,0.407,-0.018,0.798,25,21,04*7D
$GTIMU,2292,525669.500,0.5896,0.0404,2.7086,-0.0229,0.1137,1.0043,20.2*44
10:00::51.513,1702663269482,120.62959713,31.42700011,3478488.65834164,559860.16658236,293.22800000,6.00000000,-0.90500000,0.40700000,-0.01800000,0.58960000,0.04040000,2.70860000,-0.02290000,0.11370000,1.00430000
$GPFPD,2292,525669.600,292.921,0.260,1.139,31.42700051,120.62959617,15.782,-1.008,0.448,-0.002,0.798,25,21,04*75
$GTIMU,2292,525669.600,0.3065,-0.0980,3.0800,-0.0222,0.1177,1.0149,20.2*6D
10:00::51.613,1702663269582,120.62959617,31.42700051,3478488.70217061,559860.07505269,292.92100000,6.00000000,-1.00800000,0.44800000,-0.00200000,0.30650000,-0.09800000,3.08000000,-0.02220000,0.11770000,1.01490000
$GPFPD,2292,525669.700,292.587,0.269,1.129,31.42700095,120.62959510,15.765,-1.108,0.484,0.003,0.799,25,21,04*55
$GTIMU,2292,525669.700,0.0273,-0.0920,3.3430,-0.0250,0.1135,1.0045,20.2*62
10:00::51.713,1702663269682,120.62959510,31.42700095,3478488.75037486,559859.97303895,292.58700000,6.00000000,-1.10800000,0.48400000,0.00300000,0.02730000,-0.09200000,3.34300000,-0.02500000,0.11350000,1.00450000
$GPFPD,2292,525669.800,292.231,0.279,1.132,31.42700141,120.62959392,15.751,-1.206,0.520,-0.004,0.799,25,21,04*70
$GTIMU,2292,525669.800,0.0384,0.0567,3.5569,-0.0233,0.1120,0.9915,20.2*48
10:00::51.813,1702663269782,120.62959392,31.42700141,3478488.80073678,559859.86055384,292.23100000,6.00000000,-1.20600000,0.52000000,-0.00400000,0.03840000,0.05670000,3.55690000,-0.02330000,0.11200000,0.99150000
$GPFPD,2292,525669.900,291.843,0.309,1.134,31.42700190,120.62959259,15.750,-1.308,0.556,-0.015,0.803,25,21,04*74
$GTIMU,2292,525669.900,0.2289,0.0403,3.8923,-0.0248,0.1151,0.9875,20.2*46
10:00::51.912,1702663269882,120.62959259,31.42700190,3478488.85434338,559859.73378787,291.84300000,6.00000000,-1.30800000,0.55600000,-0.01500000,0.22890000,0.04030000,3.89230000,-0.02480000,0.11510000,0.98750000
$GPFPD,2292,525670.000,291.421,0.345,1.127,31.42700241,120.62959116,15.748,-1.411,0.583,-0.011,0.803,25,21,04*7A
$GTIMU,2292,525670.000,0.2705,-0.0522,4.2259,-0.0322,0.1149,1.0037,20.2*60
10:00::52.013,1702663269982,120.62959116,31.42700241,3478488.91011310,559859.59750133,291.42100000,6.00000000,-1.41100000,0.58300000,-0.01100000,0.27050000,-0.05220000,4.22590000,-0.03220000,0.11490000,1.00370000
$GPGGA,020052.00,3125.6200803,N,12037.7749838,E,1,21,0.9,7.634,M,7.80,M,,*69
$GPFPD,2292,525670.100,290.985,0.364,1.120,31.42700295,120.62958962,15.748,-1.507,0.609,0.006,0.803,25,21,04*52
$GTIMU,2292,525670.100,0.1176,-0.0381,4.3609,-0.0309,0.1072,1.0154,20.2*6B
10:00::52.112,1702663270082,120.62958962,31.42700295,3478488.96914930,559859.45073707,290.98500000,6.00000000,-1.50700000,0.60900000,0.00600000,0.11760000,-0.03810000,4.36090000,-0.03090000,0.10720000,1.01540000
$GPFPD,2292,525670.200,290.525,0.372,1.128,31.42700351,120.62958799,15.749,-1.599,0.638,0.013,0.803,26,21,04*58
$GTIMU,2292,525670.200,-0.0080,0.1146,4.6110,-0.0246,0.1050,1.0066,20.2*69
10:00::52.212,1702663270182,120.62958799,31.42700351,3478489.03035407,559859.29540303,290.52500000,6.00000000,-1.59900000,0.63800000,0.01300000,-0.00800000,0.11460000,4.61100000,-0.02460000,0.10500000,1.00660000
$GPFPD,2292,525670.300,290.028,0.372,1.153,31.42700409,120.62958626,15.749,-1.691,0.659,0.008,0.802,25,21,04*56
$GTIMU,2292,525670.300,-0.0993,0.2848,4.9660,-0.0298,0.1032,0.9915,20.2*6A
10:00::52.312,1702663270282,120.62958626,31.42700409,3478489.09372196,559859.13054841,290.02800000,6.00000000,-1.69100000,0.65900000,0.00800000,-0.09930000,0.28480000,4.96600000,-0.02980000,0.10320000,0.99150000
$GPFPD,2292,525670.400,289.518,0.357,1.173,31.42700466,120.62958444,15.745,-1.780,0.671,0.016,0.802,25,21,04*5D
$GTIMU,2292,525670.400,-0.2478,0.2296,5.0952,-0.0397,0.0961,1.0058,20.2*60
10:00::52.413,1702663270382,120.62958444,31.42700466,3478489.15593203,559858.95714307,289.51800000,6.00000000,-1.78000000,0.67100000,0.01600000,-0.24780000,0.22960000,5.09520000,-0.03970000,0.09610000,1.00580000
$GPFPD,2292,525670.500,289.003,0.347,1.186,31.42700524,120.62958254,15.742,-1.860,0.683,0.015,0.805,25,20,04*56
$GTIMU,2292,525670.500,-0.2035,0.1641,5.1550,-0.0355,0.0875,0.9983,20.2*63
10:00::52.513,1702663270482,120.62958254,31.42700524,3478489.21920731,559858.77612508,289.00300000,6.00000000,-1.86000000,0.68300000,0.01500000,-0.20350000,0.16410000,5.15500000,-0.03550000,0.08750000,0.99830000
$GPFPD,2292,525670.600,288.476,0.365,1.200,31.42700583,120.62958055,15.738,-1.933,0.693,0.009,0.805,25,20,04*57
$GTIMU,2292,525670.600,0.0682,0.1724,5.2661,-0.0348,0.0809,0.9925,20.2*4E
10:00::52.612,1702663270582,120.62958055,31.42700583,3478489.28354237,559858.58654365,288.47600000,6.00000000,-1.93300000,0.69300000,0.00900000,0.06820000,0.17240000,5.26610000,-0.03480000,0.08090000,0.99250000
$GPFPD,2292,525670.700,287.967,0.386,1.194,31.42700642,120.62957849,15.733,-2.010,0.686,-0.000,0.801,25,21,04*76
$GTIMU,2292,525670.700,0.1117,-0.0259,5.0961,-0.0510,0.0791,0.9889,20.2*69
10:00::52.713,1702663270682,120.62957849,31.42700642,3478489.34783931,559858.39030672,287.96700000,6.00000000,-2.01000000,0.68600000,0.00000000,0.11170000,-0.02590000,5.09610000,-0.05100000,0.07910000,0.98890000
$GPFPD,2292,525670.800,287.482,0.393,1.166,31.42700701,120.62957635,15.730,-2.071,0.685,0.020,0.801,25,21,04*5D
$GTIMU,2292,525670.800,-0.0234,-0.2450,4.8546,-0.0410,0.0661,1.0196,20.2*45
10:00::52.813,1702663270782,120.62957635,31.42700701,3478489.41209266,559858.18646350,287.48200000,6.00000000,-2.07100000,0.68500000,0.02000000,-0.02340000,-0.24500000,4.85460000,-0.04100000,0.06610000,1.01960000
$GPFPD,2292,525670.900,286.991,0.375,1.153,31.42700763,120.62957414,15.733,-2.129,0.691,0.031,0.805,25,21,04*57
$GTIMU,2292,525670.900,-0.2807,-0.0988,4.9054,-0.0324,0.0661,1.0105,20.2*4B
10:00::52.913,1702663270882,120.62957414,31.42700763,3478489.47963428,559857.97594571,286.99100000,6.00000000,-2.12900000,0.69100000,0.03100000,-0.28070000,-0.09880000,4.90540000,-0.03240000,0.06610000,1.01050000
$GPFPD,2292,525671.000,286.516,0.333,1.136,31.42700825,120.62957187,15.736,-2.188,0.684,0.028,0.805,25,21,04*5D
$GTIMU,2292,525671.000,-0.5078,-0.1394,4.7457,-0.0441,0.0624,0.9951,20.2*4F
10:00::53.013,1702663270982,120.62957187,31.42700825,3478489.54714322,559857.75972321,286.51600000,6.00000000,-2.18800000,0.68400000,0.02800000,-0.50780000,-0.13940000,4.74570000,-0.04410000,0.06240000,0.99510000
$GPGGA,020053.00,3125.6204176,N,12037.7738799,E,1,21,0.9,7.705,M,7.80,M,,*66
$GPFPD,2292,525671.100,286.066,0.317,1.148,31.42700887,120.62956953,15.738,-2.241,0.681,0.011,0.805,25,21,04*5E
$GTIMU,2292,525671.100,-0.2530,0.1490,4.4969,-0.0371,0.0566,0.9821,20.2*6A
10:00::53.113,1702663271082,120.62956953,31.42700887,3478489.61461403,559857.53684520,286.06600000,6.00000000,-2.24100000,0.68100000,0.01100000,-0.25300000,0.14900000,4.49690000,-0.03710000,0.05660000,0.98210000
$GPFPD,2292,525671.200,285.633,0.337,1.179,31.42700948,120.62956715,15.739,-2.298,0.677,0.008,0.802,25,21,04*55
$GTIMU,2292,525671.200,0.1222,0.3395,4.3335,-0.0389,0.0611,0.9961,20.2*46
10:00::53.212,1702663271182,120.62956715,31.42700948,3478489.68095425,559857.31017040,285.63300000,6.00000000,-2.29800000,0.67700000,0.00800000,0.12220000,0.33950000,4.33350000,-0.03890000,0.06110000,0.99610000
$GPFPD,2292,525671.300,285.234,0.353,1.174,31.42701009,120.62956472,15.738,-2.352,0.669,0.010,0.804,25,21,04*51
$GTIMU,2292,525671.300,0.0764,-0.0263,3.9982,-0.0471,0.0613,1.0013,20.2*6A
10:00::53.312,1702663271282,120.62956472,31.42701009,3478489.74726725,559857.07874166,285.23400000,6.00000000,-2.35200000,0.66900000,0.01000000,0.07640000,-0.02630000,3.99820000,-0.04710000,0.06130000,1.00130000
$GPFPD,2292,525671.400,284.889,0.370,1.165,31.42701071,120.62956229,15.728,-2.412,0.655,0.011,0.804,25,21,04*51
$GTIMU,2292,525671.400,0.1038,-0.0666,3.4620,-0.0497,0.0615,0.9999,20.2*64
10:00::53.413,1702663271382,120.62956229,31.42701071,3478489.81468904,559856.84730658,284.88900000,6.00000000,-2.41200000,0.65500000,0.01100000,0.10380000,-0.06660000,3.46200000,-0.04970000,0.06150000,0.99990000
$GPFPD,2292,525671.500,284.592,0.406,1.126,31.42701133,120.62955980,15.719,-2.488,0.661,-0.007,0.804,25,21,04*76
$GTIMU,2292,525671.500,0.3034,-0.3731,2.9813,-0.0326,0.0840,0.9808,20.2*63
10:00::53.513,1702663271482,120.62955980,31.42701133,3478489.88207816,559856.61016678,284.59200000,6.00000000,-2.48800000,0.66100000,-0.00700000,0.30340000,-0.37310000,2.98130000,-0.03260000,0.08400000,0.98080000
$GPFPD,2292,525671.600,284.326,0.512,1.137,31.42701196,120.62955721,15.707,-2.602,0.687,-0.021,0.804,25,21,04*71
$GTIMU,2292,525671.600,1.0059,0.1312,2.6733,-0.0227,0.1277,0.9843,20.2*41
10:00::53.613,1702663271582,120.62955721,31.42701196,3478489.95052161,559856.36351276,284.32600000,6.00000000,-2.60200000,0.68700000,-0.02100000,1.00590000,0.13120000,2.67330000,-0.02270000,0.12770000,0.98430000
$GPFPD,2292,525671.700,284.082,0.599,1.146,31.42701262,120.62955449,15.696,-2.737,0.708,-0.002,0.796,25,21,04*70
$GTIMU,2292,525671.700,0.8259,0.1190,2.4684,-0.0330,0.1487,1.0167,20.2*45
10:00::53.713,1702663271682,120.62955449,31.42701262,3478490.02222064,559856.10447946,284.08200000,6.00000000,-2.73700000,0.70800000,-0.00200000,0.82590000,0.11900000,2.46840000,-0.03300000,0.14870000,1.01670000
$GPFPD,2292,525671.800,283.844,0.589,1.126,31.42701329,120.62955160,15.690,-2.872,0.726,0.034,0.796,25,21,04*51
$GTIMU,2292,525671.800,-0.1355,-0.1777,2.3772,-0.0360,0.1496,1.0347,20.2*4B
10:00::53.813,1702663271782,120.62955160,31.42701329,3478490.09493588,559855.82927643,283.84400000,6.00000000,-2.87200000,0.72600000,0.03400000,-0.13550000,-0.17770000,2.37720000,-0.03600000,0.14960000,1.03470000
$GPFPD,2292,525671.900,283.650,0.535,1.052,31.42701394,120.62954851,15.694,-3.006,0.729,0.041,0.808,25,21,04*59
$GTIMU,2292,525671.900,-0.5778,-0.7199,1.9277,-0.0481,0.1436,1.0052,20.2*49
10:00::53.913,1702663271882,120.62954851,31.42701394,3478490.16532457,559855.53507037,283.65000000,6.00000000,-3.00600000,0.72900000,0.04100000,-0.57780000,-0.71990000,1.92770000,-0.04810000,0.14360000,1.00520000
$GPFPD,2292,525672.000,283.538,0.508,0.992,31.42701460,120.62954528,15.697,-3.130,0.744,0.022,0.808,25,21,04*52
$GTIMU,2292,525672.000,-0.2822,-0.5878,1.1205,-0.0324,0.1366,0.9782,20.2*45
10:00::54.013,1702663271982,120.62954528,31.42701460,3478490.23674581,559855.22754695,283.53800000,6.00000000,-3.13000000,0.74400000,0.02200000,-0.28220000,-0.58780000,1.12050000,-0.03240000,0.13660000,0.97820000
$GPGGA,020054.00,3125.6207767,N,12037.7722675,E,1,21,0.9,7.709,M,7.80,M,,*60
$GPFPD,2292,525672.100,283.471,0.475,0.974,31.42701529,120.62954192,15.699,-3.248,0.780,0.025,0.808,25,21,04*58
$GTIMU,2292,525672.100,-0.3423,-0.1704,0.6644,-0.0088,0.1340,1.0021,20.2*48
10:00::54.113,1702663272082,120.62954192,31.42701529,3478490.31142264,559854.90764425,283.47100000,6.00000000,-3.24800000,0.78000000,0.02500000,-0.34230000,-0.17040000,0.66440000,-0.00880000,0.13400000,1.00210000
$GPFPD,2292,525672.200,283.411,0.394,0.991,31.42701601,120.62953844,15.702,-3.362,0.814,0.032,0.793,25,21,04*51
$GTIMU,2292,525672.200,-0.8125,0.1727,0.5862,-0.0103,0.1294,1.0056,20.2*6C
10:00::54.212,1702663272182,120.62953844,31.42701601,3478490.38936051,559854.57631306,283.41100000,6.00000000,-3.36200000,0.81400000,0.03200000,-0.81250000,0.17270000,0.58620000,-0.01030000,0.12940000,1.00560000
$GPFPD,2292,525672.300,283.374,0.333,1.117,31.42701676,120.62953487,15.705,-3.453,0.842,0.042,0.804,25,21,04*5A
$GTIMU,2292,525672.300,-0.6213,1.2594,0.3667,-0.0128,0.1075,1.0064,20.2*65
10:00::54.312,1702663272282,120.62953487,31.42701676,3478490.47057576,559854.23640573,283.37400000,6.00000000,-3.45300000,0.84200000,0.04200000,-0.62130000,1.25940000,0.36670000,-0.01280000,0.10750000,1.00640000
$GPFPD,2292,525672.400,283.317,0.188,1.000,31.42701752,120.62953125,15.706,-3.559,0.839,0.062,0.804,25,21,04*51
$GTIMU,2292,525672.400,-1.4567,-1.1692,0.5444,-0.0474,0.1104,1.0194,20.2*4E
10:00::54.413,1702663272382,120.62953125,31.42701752,3478490.55287258,559853.89173812,283.31700000,6.00000000,-3.55900000,0.83900000,0.06200000,-1.45670000,-1.16920000,0.54440000,-0.04740000,0.11040000,1.01940000
$GPFPD,2292,525672.500,283.264,0.009,0.854,31.42701826,120.62952753,15.707,-3.652,0.828,0.039,0.801,25,21,04*5D
$GTIMU,2292,525672.500,-1.7980,-1.4561,0.5059,-0.0482,0.0919,0.9755,20.2*44
10:00::54.513,1702663272482,120.62952753,31.42701826,3478490.63289735,559853.53757535,283.26400000,6.00000000,-3.65200000,0.82800000,0.03900000,-1.79800000,-1.45610000,0.50590000,-0.04820000,0.09190000,0.97550000
$GPFPD,2292,525672.600,283.247,-0.039,0.773,31.42701902,120.62952374,15.705,-3.706,0.851,0.003,0.801,25,21,04*78
$GTIMU,2292,525672.600,-0.4788,-0.8054,0.1656,-0.0020,0.0586,0.9632,20.2*46
10:00::54.613,1702663272582,120.62952374,31.42701902,3478490.71510159,559853.17674438,283.24700000,6.00000000,-3.70600000,0.85100000,0.00300000,-0.47880000,-0.80540000,0.16560000,-0.00200000,0.05860000,0.96320000
$GPFPD,2292,525672.700,283.241,0.013,0.844,31.42701981,120.62951990,15.702,-3.743,0.909,0.022,0.799,25,21,04*5E
$GTIMU,2292,525672.700,0.5287,0.7094,0.0680,0.0343,0.0510,1.0197,20.2*61
10:00::54.712,1702663272682,120.62951990,31.42701981,3478490.80060501,559852.81114042,283.24100000,6.00000000,-3.74300000,0.90900000,0.02200000,0.52870000,0.70940000,0.06800000,0.03430000,0.05100000,1.01970000
$GPFPD,2292,525672.800,283.204,0.021,0.942,31.42702063,120.62951600,15.702,-3.795,0.910,0.016,0.799,25,21,04*52
$GTIMU,2292,525672.800,0.0770,0.9833,0.3748,-0.0258,0.0523,0.9931,20.2*41
10:00::54.813,1702663272782,120.62951600,31.42702063,3478490.88940216,559852.43981269,283.20400000,6.00000000,-3.79500000,0.91000000,0.01600000,0.07700000,0.98330000,0.37480000,-0.02580000,0.05230000,0.99310000
$GPFPD,2292,525672.900,283.171,0.068,0.993,31.42702145,120.62951199,15.702,-3.833,0.902,-0.004,0.800,25,21,04*70
$GTIMU,2292,525672.900,0.4678,0.5095,0.3390,-0.0338,0.0370,0.9788,20.2*4F
10:00::54.912,1702663272882,120.62951199,31.42702145,3478490.97813940,559852.05802631,283.17100000,6.00000000,-3.83300000,0.90200000,-0.00400000,0.46780000,0.50950000,0.33900000,-0.03380000,0.03700000,0.97880000
$GPFPD,2292,525673.000,283.145,0.080,0.998,31.42702226,120.62950794,15.704,-3.854,0.905,0.033,0.800,25,21,04*57
$GTIMU,2292,525673.000,0.1215,0.0493,0.2674,-0.0191,0.0236,1.0374,20.2*49
10:00::55.012,1702663272982,120.62950794,31.42702226,3478491.06574607,559851.67244314,283.14500000,6.00000000,-3.85400000,0.90500000,0.03300000,0.12150000,0.04930000,0.26740000,-0.01910000,0.02360000,1.03740000
$GPGGA,020055.00,3125.6212285,N,12037.7699756,E,1,21,0.9,7.591,M,7.80,M,,*6E
$GPFPD,2292,525673.100,283.175,0.175,0.831,31.42702305,120.62950386,15.701,-3.893,0.856,-0.044,0.800,25,21,04*7F
$GTIMU,2292,525673.100,0.9536,-1.6675,-0.2838,-0.0723,0.0301,0.9204,20.2*49
10:00::55.113,1702663273082,120.62950386,31.42702305,3478491.15111882,559851.28402033,283.17500000,6.00000000,-3.89300000,0.85600000,-0.04400000,0.95360000,-1.66750000,-0.28380000,-0.07230000,0.03010000,0.92040000
$GPFPD,2292,525673.200,283.209,0.357,0.629,31.42702383,120.62949975,15.695,-3.920,0.880,-0.056,0.801,25,21,04*7D
$GTIMU,2292,525673.200,1.8288,-2.0176,-0.3150,0.0048,0.0374,0.9873,20.2*60
10:00::55.213,1702663273182,120.62949975,31.42702383,3478491.23536643,559850.89275151,283.20900000,6.00000000,-3.92000000,0.88000000,-0.05600000,1.82880000,-2.01760000,-0.31500000,0.00480000,0.03740000,0.98730000
$GPFPD,2292,525673.300,283.156,0.380,0.663,31.42702466,120.62949563,15.697,-3.931,0.953,0.072,0.799,25,21,04*5E
$GTIMU,2292,525673.300,0.2267,0.3451,0.5295,0.0629,0.0377,1.1283,20.2*68
10:00::55.313,1702663273282,120.62949563,31.42702466,3478491.32515262,559850.50050015,283.15600000,6.00000000,-3.93100000,0.95300000,0.07200000,0.22670000,0.34510000,0.52950000,0.06290000,0.03770000,1.12830000
$GPFPD,2292,525673.400,283.185,0.348,0.735,31.42702545,120.62949150,15.699,-3.991,0.932,0.049,0.799,25,21,04*5E
$GTIMU,2292,525673.400,-0.3142,0.7171,-0.2853,-0.0465,0.0615,0.9759,20.2*43
10:00::55.413,1702663273382,120.62949150,31.42702545,3478491.41049817,559850.10732343,283.18500000,6.00000000,-3.99100000,0.93200000,0.04900000,-0.31420000,0.71710000,-0.28530000,-0.04650000,0.06150000,0.97590000
$GPFPD,2292,525673.500,283.270,0.366,0.857,31.42702624,120.62948731,15.697,-4.054,0.958,0.017,0.802,24,21,04*57
$GTIMU,2292,525673.500,0.1980,1.2144,-0.8461,-0.0027,0.0753,0.9664,20.2*60
10:00::55.513,1702663273482,120.62948731,31.42702624,3478491.49581106,559849.70844198,283.27000000,6.00000000,-4.05400000,0.95800000,0.01700000,0.19800000,1.21440000,-0.84610000,-0.00270000,0.07530000,0.96640000
$GPFPD,2292,525673.600,283.331,0.375,0.818,31.42702705,120.62948304,15.695,-4.130,0.963,0.016,0.802,24,21,04*51
$GTIMU,2292,525673.600,0.1052,-0.3926,-0.6075,-0.0274,0.0838,0.9980,20.2*48
10:00::55.613,1702663273582,120.62948304,31.42702705,3478491.58329798,559849.30194155,283.33100000,6.00000000,-4.13000000,0.96300000,0.01600000,0.10520000,-0.39260000,-0.60750000,-0.02740000,0.08380000,0.99800000
$GPFPD,2292,525673.700,283.428,0.369,0.791,31.42702786,120.62947870,15.692,-4.197,0.978,0.014,0.798,24,21,04*5E
$GTIMU,2292,525673.700,-0.0511,-0.2767,-0.9664,-0.0148,0.0772,0.9970,20.2*66
10:00::55.713,1702663273682,120.62947870,31.42702786,3478491.67074679,559848.88878562,283.42800000,6.00000000,-4.19700000,0.97800000,0.01400000,-0.05110000,-0.27670000,-0.96640000,-0.01480000,0.07720000,0.99700000
$GPFPD,2292,525673.800,283.548,0.360,0.796,31.42702871,120.62947427,15.691,-4.281,1.018,0.039,0.798,24,21,04*57
$GTIMU,2292,525673.800,-0.0681,0.0403,-1.1962,0.0062,0.0997,1.0250,20.2*6D
10:00::55.813,1702663273782,120.62947427,31.42702871,3478491.76258180,559848.46704721,283.54800000,6.00000000,-4.28100000,1.01800000,0.03900000,-0.06810000,0.04030000,-1.19620000,0.00620000,0.09970000,1.02500000
$GPFPD,2292,525673.900,283.700,0.312,0.738,31.42702964,120.62946972,15.697,-4.369,1.039,0.057,0.798,24,21,04*5A
$GTIMU,2292,525673.900,-0.4512,-0.5839,-1.5272,-0.0143,0.0990,1.0176,20.2*6D
10:00::55.913,1702663273882,120.62946972,31.42702964,3478491.86322185,559848.03384855,283.70000000,6.00000000,-4.36900000,1.03900000,0.05700000,-0.45120000,-0.58390000,-1.52720000,-0.01430000,0.09900000,1.01760000
$GPFPD,2292,525674.000,283.909,0.262,0.748,31.42703060,120.62946507,15.702,-4.455,1.078,0.051,0.798,24,21,04*56
$GTIMU,2292,525674.000,-0.4724,0.0871,-2.0913,0.0057,0.1003,0.9937,20.2*64
10:00::56.012,1702663273982,120.62946507,31.42703060,3478491.96713386,559847.59112297,283.90900000,6.00000000,-4.45500000,1.07800000,0.05100000,-0.47240000,0.08710000,-2.09130000,0.00570000,0.10030000,0.99370000
$GPGGA,020056.00,3125.6217635,N,12037.7674336,E,1,21,0.9,7.543,M,7.80,M,,*69
$GPFPD,2292,525674.100,284.162,0.224,0.713,31.42703159,120.62946034,15.706,-4.543,1.111,0.023,0.798,24,21,04*5E
$GTIMU,2292,525674.100,-0.3433,-0.3542,-2.5319,-0.0016,0.0996,0.9707,20.2*60
10:00::56.113,1702663274082,120.62946034,31.42703159,3478492.07432870,559847.14077206,284.16200000,6.00000000,-4.54300000,1.11100000,0.02300000,-0.34330000,-0.35420000,-2.53190000,-0.00160000,0.09960000,0.97070000
$GPFPD,2292,525674.200,284.470,0.225,0.710,31.42703261,120.62945551,15.707,-4.626,1.152,0.007,0.807,24,21,04*5D
$GTIMU,2292,525674.200,0.0464,-0.0468,-3.0792,0.0077,0.0969,0.9836,20.2*61
10:00::56.212,1702663274182,120.62945551,31.42703261,3478492.18479550,559846.68089424,284.47000000,6.00000000,-4.62600000,1.15200000,0.00700000,0.04640000,-0.04680000,-3.07920000,0.00770000,0.09690000,0.98360000
$GPFPD,2292,525674.300,284.825,0.196,0.654,31.42703366,120.62945061,15.708,-4.702,1.197,0.020,0.800,24,21,04*59
$GTIMU,2292,525674.300,-0.2431,-0.5674,-3.5559,0.0140,0.0920,1.0103,20.2*4A
10:00::56.313,1702663274282,120.62945061,31.42703366,3478492.29855059,559846.21434186,284.82500000,6.00000000,-4.70200000,1.19700000,0.02000000,-0.24310000,-0.56740000,-3.55590000,0.01400000,0.09200000,1.01030000
$GPFPD,2292,525674.400,285.244,0.225,0.678,31.42703475,120.62944568,15.705,-4.767,1.250,0.021,0.800,24,21,04*58
$GTIMU,2292,525674.400,0.3472,0.2262,-4.1779,0.0239,0.0820,1.0003,20.2*41
10:00::56.412,1702663274382,120.62944568,31.42703475,3478492.41672455,559845.74491173,285.24400000,6.00000000,-4.76700000,1.25000000,0.02100000,0.34720000,0.22620000,-4.17790000,0.02390000,0.08200000,1.00030000
$GPFPD,2292,525674.500,285.681,0.281,0.734,31.42703589,120.62944067,15.704,-4.828,1.321,0.032,0.794,24,21,04*59
$GTIMU,2292,525674.500,0.6096,0.5446,-4.3593,0.0408,0.0842,1.0109,20.2*43
10:00::56.513,1702663274482,120.62944067,31.42703589,3478492.54039896,559845.26784356,285.68100000,6.00000000,-4.82800000,1.32100000,0.03200000,0.60960000,0.54460000,-4.35930000,0.04080000,0.08420000,1.01090000
$GPFPD,2292,525674.600,286.094,0.339,0.767,31.42703709,120.62943560,15.702,-4.893,1.372,0.022,0.794,24,21,04*51
$GTIMU,2292,525674.600,0.6433,0.3061,-4.1216,0.0197,0.0844,0.9897,20.2*47
10:00::56.613,1702663274582,120.62943560,31.42703709,3478492.67069351,559844.78503257,286.09400000,6.00000000,-4.89300000,1.37200000,0.02200000,0.64330000,0.30610000,-4.12160000,0.01970000,0.08440000,0.98970000
$GPFPD,2292,525674.700,286.504,0.405,0.755,31.42703833,120.62943046,15.700,-4.957,1.415,0.010,0.805,24,21,04*59
$GTIMU,2292,525674.700,0.7134,-0.1505,-4.0898,0.0105,0.0819,0.9879,20.2*63
10:00::56.713,1702663274682,120.62943046,31.42703833,3478492.80538515,559844.29554068,286.50400000,6.00000000,-4.95700000,1.41500000,0.01000000,0.71340000,-0.15050000,-4.08980000,0.01050000,0.08190000,0.98790000
$GPFPD,2292,525674.800,286.920,0.504,0.717,31.42703962,120.62942525,15.696,-5.011,1.472,-0.007,0.805,24,21,04*70
$GTIMU,2292,525674.800,1.0461,-0.4076,-4.1453,0.0275,0.0781,0.9824,20.2*63
10:00::56.813,1702663274782,120.62942525,31.42703962,3478492.94558269,559843.79936154,286.92000000,6.00000000,-5.01100000,1.47200000,-0.00700000,1.04610000,-0.40760000,-4.14530000,0.02750000,0.07810000,0.98240000
$GPFPD,2292,525674.900,287.343,0.532,0.709,31.42704098,120.62941995,15.698,-5.060,1.536,0.054,0.799,24,21,04*52
$GTIMU,2292,525674.900,0.3379,-0.1229,-4.2218,0.0345,0.0767,1.0611,20.2*63
10:00::56.913,1702663274882,120.62941995,31.42704098,3478493.09349283,559843.29458088,287.34300000,6.00000000,-5.06000000,1.53600000,0.05400000,0.33790000,-0.12290000,-4.22180000,0.03450000,0.07670000,1.06110000
$GPFPD,2292,525675.000,287.734,0.496,0.773,31.42704240,120.62941461,15.705,-5.106,1.606,0.082,0.799,24,21,04*52
$GTIMU,2292,525675.000,-0.3048,0.6083,-3.9088,0.0410,0.0761,1.0290,20.2*64
10:00::57.013,1702663274982,120.62941461,31.42704240,3478493.24803400,559842.78595897,287.73400000,6.00000000,-5.10600000,1.60600000,0.08200000,-0.30480000,0.60830000,-3.90880000,0.04100000,0.07610000,1.02900000
$GPGGA,020057.00,3125.6225164,N,12037.7643936,E,1,21,0.9,7.490,M,7.80,M,,*6B
$GPFPD,2292,525675.100,288.125,0.418,0.847,31.42704387,120.62940920,15.713,-5.161,1.649,0.066,0.799,24,21,04*50
$GTIMU,2292,525675.100,-0.7174,0.7097,-3.9192,0.0106,0.0753,0.9832,20.2*68
10:00::57.113,1702663275082,120.62940920,31.42704387,3478493.40808106,559842.27064983,288.12500000,6.00000000,-5.16100000,1.64900000,0.06600000,-0.71740000,0.70970000,-3.91920000,0.01060000,0.07530000,0.98320000
$GPFPD,2292,525675.200,288.488,0.348,0.852,31.42704538,120.62940375,15.718,-5.213,1.700,0.048,0.808,24,21,04*55
$GTIMU,2292,525675.200,-0.6504,0.0265,-3.6428,0.0192,0.0738,0.9807,20.2*6C
10:00::57.213,1702663275182,120.62940375,31.42704538,3478493.57254157,559841.75151214,288.48800000,6.00000000,-5.21300000,1.70000000,0.04800000,-0.65040000,0.02650000,-3.64280000,0.01920000,0.07380000,0.98070000
$GPFPD,2292,525675.300,288.757,0.292,0.898,31.42704694,120.62939823,15.721,-5.262,1.770,0.043,0.802,25,21,04*5D
$GTIMU,2292,525675.300,-0.5097,0.4534,-2.6969,0.0396,0.0740,0.9971,20.2*66
10:00::57.312,1702663275282,120.62939823,31.42704694,3478493.74250797,559841.22568721,288.75700000,6.00000000,-5.26200000,1.77000000,0.04300000,-0.50970000,0.45340000,-2.69690000,0.03960000,0.07400000,0.99710000
$GPFPD,2292,525675.400,288.964,0.215,0.937,31.42704853,120.62939264,15.716,-5.317,1.807,0.055,0.802,25,21,04*5C
$GTIMU,2292,525675.400,-0.7381,0.3743,-2.0815,0.0021,0.0699,1.0112,20.2*61
10:00::57.412,1702663275382,120.62939264,31.42704853,3478493.91576267,559840.69318774,288.96400000,6.00000000,-5.31700000,1.80700000,0.05500000,-0.73810000,0.37430000,-2.08150000,0.00210000,0.06990000,1.01120000
$GPFPD,2292,525675.500,289.158,0.159,0.989,31.42705016,120.62938699,15.711,-5.371,1.845,0.044,0.800,25,21,04*59
$GTIMU,2292,525675.500,-0.5177,0.5219,-1.9446,0.0019,0.0686,0.9895,20.2*6E
10:00::57.513,1702663275482,120.62938699,31.42705016,3478494.09341992,559840.15495817,289.15800000,6.00000000,-5.37100000,1.84500000,0.04400000,-0.51770000,0.52190000,-1.94460000,0.00190000,0.06860000,0.98950000
$GPFPD,2292,525675.600,289.320,0.178,1.009,31.42705181,120.62938129,15.704,-5.426,1.885,0.017,0.800,25,21,04*5C
$GTIMU,2292,525675.600,0.2161,0.1976,-1.6173,0.0032,0.0696,0.9722,20.2*41
10:00::57.613,1702663275582,120.62938129,31.42705181,3478494.27326757,559839.61196198,289.32000000,6.00000000,-5.42600000,1.88500000,0.01700000,0.21610000,0.19760000,-1.61730000,0.00320000,0.06960000,0.97220000
$GPFPD,2292,525675.700,289.445,0.178,1.032,31.42705351,120.62937553,15.696,-5.478,1.924,0.025,0.809,25,21,04*5B
$GTIMU,2292,525675.700,0.0252,0.2285,-1.2438,0.0027,0.0673,1.0077,20.2*4B
10:00::57.713,1702663275682,120.62937553,31.42705351,3478494.45862657,559839.06322934,289.44500000,6.00000000,-5.47800000,1.92400000,0.02500000,0.02520000,0.22850000,-1.24380000,0.00270000,0.06730000,1.00770000
$GPFPD,2292,525675.800,289.517,0.213,1.069,31.42705524,120.62936972,15.689,-5.530,1.957,0.007,0.809,25,21,04*5F
$GTIMU,2292,525675.800,0.3687,0.3619,-0.7113,-0.0041,0.0649,0.9816,20.2*60
10:00::57.813,1702663275782,120.62936972,31.42705524,3478494.64728476,559838.50972373,289.51700000,6.00000000,-5.53000000,1.95700000,0.00700000,0.36870000,0.36190000,-0.71130000,-0.00410000,0.06490000,0.98160000
$GPFPD,2292,525675.900,289.578,0.248,1.042,31.42705701,120.62936387,15.691,-5.589,1.969,0.030,0.796,25,21,04*5E
$GTIMU,2292,525675.900,0.3644,-0.2665,-0.5984,-0.0271,0.0654,1.0220,20.2*47
10:00::57.913,1702663275882,120.62936387,31.42705701,3478494.84035639,559837.95238959,289.57800000,6.00000000,-5.58900000,1.96900000,0.03000000,0.36440000,-0.26650000,-0.59840000,-0.02710000,0.06540000,1.02200000
$GPFPD,2292,525676.000,289.647,0.220,1.026,31.42705880,120.62935796,15.695,-5.642,1.996,0.044,0.796,25,21,04*55
$GTIMU,2292,525676.000,-0.2636,-0.1683,-0.6995,-0.0107,0.0646,1.0139,20.2*66
10:00::58.013,1702663275982,120.62935796,31.42705880,3478495.03561298,559837.38933806,289.64700000,6.00000000,-5.64200000,1.99600000,0.04400000,-0.26360000,-0.16830000,-0.69950000,-0.01070000,0.06460000,1.01390000
$GPGGA,020058.00,3125.6235503,N,12037.7610208,E,1,21,0.9,7.531,M,7.80,M,,*6A
$GPFPD,2292,525676.100,289.711,0.214,0.989,31.42706061,120.62935200,15.699,-5.688,2.026,0.025,0.796,25,21,04*5E
$GTIMU,2292,525676.100,-0.0407,-0.3658,-0.6311,-0.0034,0.0590,0.9802,20.2*67
10:00::58.113,1702663276082,120.62935200,31.42706061,3478495.23305997,559836.82151991,289.71100000,6.00000000,-5.68800000,2.02600000,0.02500000,-0.04070000,-0.36580000,-0.63110000,-0.00340000,0.05900000,0.98020000
$GPFPD,2292,525676.200,289.779,0.235,1.027,31.42706246,120.62934599,15.702,-5.732,2.052,0.037,0.801,25,21,04*5F
