$GPFPD,2292,542112.200,108.369,-0.294,0.965,31.42736459,120.62750321,10.879,-0.001,-0.007,-0.001,0.801,18,15,04*74
$GTIMU,2292,542112.200,-0.0184,0.0138,0.0003,-0.0154,-0.0046,0.9988,30.9*47
14:34::54.219,1702679712182,120.62750321,31.42736459,3478527.93301467,559660.84862470,108.36900000,6.00000000,-0.00100000,-0.00700000,-0.00100000,-0.01840000,0.01380000,0.00030000,-0.01540000,-0.00460000,0.99880000
$GPFPD,2292,542112.300,108.370,-0.294,0.968,31.42736457,120.62750320,10.881,-0.002,-0.011,0.004,0.796,18,15,04*55
$GTIMU,2292,542112.300,0.0004,0.0280,-0.0004,-0.0169,-0.0050,1.0003,30.9*43
14:34::54.318,1702679712282,120.62750320,31.42736457,3478527.93079165,559660.84768658,108.37000000,6.00000000,-0.00200000,-0.01100000,0.00400000,0.00040000,0.02800000,-0.00040000,-0.01690000,-0.00500000,1.00030000
$GPFPD,2292,542112.400,108.369,-0.293,0.962,31.42736449,120.62750320,10.891,-0.001,-0.009,0.004,0.796,18,15,04*53
$GTIMU,2292,542112.400,0.0048,-0.0573,0.0082,-0.0185,-0.0041,0.9994,30.9*44
14:34::54.418,1702679712382,120.62750320,31.42736449,3478527.92192125,559660.84773724,108.36900000,6.00000000,-0.00100000,-0.00900000,0.00400000,0.00480000,-0.05730000,0.00820000,-0.01850000,-0.00410000,0.99940000
$GPFPD,2292,542112.500,108.370,-0.294,0.966,31.42736441,120.62750319,10.900,-0.001,-0.012,0.003,0.799,18,15,04*50
$GTIMU,2292,542112.500,-0.0178,0.0388,-0.0054,-0.0139,-0.0037,0.9991,30.9*60
14:34::54.519,1702679712482,120.62750319,31.42736441,3478527.91304543,559660.84683711,108.37000000,6.00000000,-0.00100000,-0.01200000,0.00300000,-0.01780000,0.03880000,-0.00540000,-0.01390000,-0.00370000,0.99910000
$GPFPD,2292,542112.600,108.370,-0.293,0.966,31.42736434,120.62750319,10.910,-0.002,-0.010,0.004,0.799,18,15,04*51
$GTIMU,2292,542112.600,0.0105,-0.0055,0.0042,-0.0187,-0.0062,1.0005,30.9*49
14:34::54.618,1702679712582,120.62750319,31.42736434,3478527.90528384,559660.84688144,108.37000000,6.00000000,-0.00200000,-0.01000000,0.00400000,0.01050000,-0.00550000,0.00420000,-0.01870000,-0.00620000,1.00050000
$GPFPD,2292,542112.700,108.369,-0.293,0.961,31.42736426,120.62750318,10.919,-0.001,-0.010,0.004,0.798,18,15,04*56
$GTIMU,2292,542112.700,-0.0020,-0.0487,0.0076,-0.0168,-0.0036,0.9992,30.9*60
14:34::54.718,1702679712682,120.62750318,31.42736426,3478527.89640802,559660.84598131,108.36900000,6.00000000,-0.00100000,-0.01000000,0.00400000,-0.00200000,-0.04870000,0.00760000,-0.01680000,-0.00360000,0.99920000
$GPFPD,2292,542112.800,108.370,-0.294,0.967,31.42736420,120.62750317,10.927,-0.002,-0.012,0.004,0.798,18,15,04*55
$GTIMU,2292,542112.800,-0.0200,0.0599,-0.0049,-0.0146,-0.0042,1.0000,30.9*68
14:34::54.819,1702679712782,120.62750317,31.42736420,3478527.88974980,559660.84506852,108.37000000,6.00000000,-0.00200000,-0.01200000,0.00400000,-0.02000000,0.05990000,-0.00490000,-0.01460000,-0.00420000,1.00000000
$GPFPD,2292,542112.900,108.369,-0.293,0.964,31.42736419,120.62750317,10.927,-0.002,-0.010,0.004,0.794,18,15,04*5C
$GTIMU,2292,542112.900,0.0133,-0.0345,0.0065,-0.0193,-0.0056,0.9997,30.9*4C
14:34::54.918,1702679712882,120.62750317,31.42736419,3478527.88864100,559660.84507485,108.36900000,6.00000000,-0.00200000,-0.01000000,0.00400000,0.01330000,-0.03450000,0.00650000,-0.01930000,-0.00560000,0.99970000
$GPFPD,2292,542113.000,108.369,-0.294,0.964,31.42736418,120.62750317,10.927,-0.002,-0.011,0.003,0.794,18,15,04*54
$GTIMU,2292,542113.000,-0.0139,0.0025,0.0020,-0.0154,-0.0039,0.9990,30.9*4F
14:34::55.018,1702679712982,120.62750317,31.42736418,3478527.88753220,559660.84508118,108.36900000,6.00000000,-0.00200000,-0.01100000,0.00300000,-0.01390000,0.00250000,0.00200000,-0.01540000,-0.00390000,0.99900000
$GPGGA,063455.00,3125.6417502,N,12037.6508533,E,1,15,1.2,4.270,M,7.80,M,,*6B
$GPFPD,2292,542113.100,108.370,-0.294,0.967,31.42736417,120.62750317,10.928,-0.002,-0.012,0.004,0.794,18,15,04*5A
$GTIMU,2292,542113.100,-0.0025,0.0275,-0.0021,-0.0165,-0.0051,1.0005,30.9*68
14:34::55.118,1702679713082,120.62750317,31.42736417,3478527.88642340,559660.84508752,108.37000000,6.00000000,-0.00200000,-0.01200000,0.00400000,-0.00250000,0.02750000,-0.00210000,-0.01650000,-0.00510000,1.00050000
$GPFPD,2292,542113.200,108.369,-0.292,0.962,31.42736416,120.62750317,10.928,-0.002,-0.010,0.004,0.795,18,15,04*50
$GTIMU,2292,542113.200,0.0087,-0.0555,0.0082,-0.0183,-0.0052,0.9998,30.9*4C
14:34::55.218,1702679713182,120.62750317,31.42736416,3478527.88531460,559660.84509385,108.36900000,6.00000000,-0.00200000,-0.01000000,0.00400000,0.00870000,-0.05550000,0.00820000,-0.01830000,-0.00520000,0.99980000
$GPFPD,2292,542113.300,108.370,-0.294,0.965,31.42736414,120.62750318,10.930,0.002,-0.014,0.005,0.797,18,15,04*76
$GTIMU,2292,542113.300,-0.0218,0.0337,-0.0014,-0.0150,-0.0030,0.9984,30.9*6E
14:34::55.318,1702679713282,120.62750318,31.42736414,3478527.88310243,559660.84605730,108.37000000,6.00000000,0.00200000,-0.01400000,0.00500000,-0.02180000,0.03370000,-0.00140000,-0.01500000,-0.00300000,0.99840000
$GPFPD,2292,542113.400,108.370,-0.294,0.967,31.42736409,120.62750323,10.934,0.001,-0.013,0.006,0.797,18,15,04*74
$GTIMU,2292,542113.400,0.0043,0.0127,0.0019,-0.0175,-0.0050,1.0004,30.9*63
14:34::55.418,1702679713382,120.62750323,31.42736409,3478527.87758558,559660.85084287,108.37000000,6.00000000,0.00100000,-0.01300000,0.00600000,0.00430000,0.01270000,0.00190000,-0.01750000,-0.00500000,1.00040000
$GPFPD,2292,542113.500,108.370,-0.293,0.962,31.42736404,120.62750328,10.939,0.002,-0.012,0.006,0.804,18,15,04*7B
$GTIMU,2292,542113.500,0.0008,-0.0436,0.0053,-0.0179,-0.0043,0.9996,30.9*4F
14:34::55.518,1702679713482,120.62750328,31.42736404,3478527.87206874,559660.85562845,108.37000000,6.00000000,0.00200000,-0.01200000,0.00600000,0.00080000,-0.04360000,0.00530000,-0.01790000,-0.00430000,0.99960000
$GPFPD,2292,542113.600,108.370,-0.294,0.967,31.42736399,120.62750333,10.944,0.001,-0.015,0.006,0.804,18,15,04*7D
$GTIMU,2292,542113.600,-0.0155,0.0434,-0.0043,-0.0143,-0.0047,0.9998,30.9*68
14:34::55.618,1702679713582,120.62750333,31.42736399,3478527.86655189,559660.86041402,108.37000000,6.00000000,0.00100000,-0.01500000,0.00600000,-0.01550000,0.04340000,-0.00430000,-0.01430000,-0.00470000,0.99980000
$GPFPD,2292,542113.700,108.370,-0.293,0.965,31.42736394,120.62750338,10.949,0.000,-0.013,0.006,0.796,18,15,04*71
$GTIMU,2292,542113.700,0.0116,-0.0231,0.0059,-0.0185,-0.0060,1.0004,30.9*40
14:34::55.718,1702679713682,120.62750338,31.42736394,3478527.86103505,559660.86519960,108.37000000,6.00000000,0.00000000,-0.01300000,0.00600000,0.01160000,-0.02310000,0.00590000,-0.01850000,-0.00600000,1.00040000
$GPFPD,2292,542113.800,108.370,-0.293,0.963,31.42736390,120.62750341,10.953,0.000,-0.013,0.005,0.796,18,15,04*7A
$GTIMU,2292,542113.800,-0.0071,-0.0197,0.0065,-0.0167,-0.0041,0.9984,30.9*64
14:34::55.818,1702679713782,120.62750341,31.42736390,3478527.85661614,559660.86807728,108.37000000,6.00000000,0.00000000,-0.01300000,0.00500000,-0.00710000,-0.01970000,0.00650000,-0.01670000,-0.00410000,0.99840000
$GPFPD,2292,542113.900,108.370,-0.294,0.967,31.42736389,120.62750341,10.953,0.001,-0.015,0.005,0.802,18,15,04*75
$GTIMU,2292,542113.900,-0.0132,0.0445,-0.0020,-0.0154,-0.0037,0.9996,30.9*6A
14:34::55.918,1702679713882,120.62750341,31.42736389,3478527.85550734,559660.86808361,108.37000000,6.00000000,0.00100000,-0.01500000,0.00500000,-0.01320000,0.04450000,-0.00200000,-0.01540000,-0.00370000,0.99960000
$GPFPD,2292,542114.000,108.370,-0.292,0.963,31.42736388,120.62750342,10.954,0.001,-0.013,0.006,0.802,18,15,04*79
$GTIMU,2292,542114.000,0.0144,-0.0430,0.0053,-0.0189,-0.0045,1.0008,30.9*4D
14:34::56.018,1702679713982,120.62750342,31.42736388,3478527.85440397,559660.86904073,108.37000000,6.00000000,0.00100000,-0.01300000,0.00600000,0.01440000,-0.04300000,0.00530000,-0.01890000,-0.00450000,1.00080000
$GPGGA,063456.00,3125.6417492,N,12037.6508501,E,1,15,1.2,4.258,M,7.80,M,,*6B
$GPFPD,2292,542114.100,108.370,-0.294,0.963,31.42736386,120.62750342,10.954,0.001,-0.015,0.006,0.802,18,15,04*76
$GTIMU,2292,542114.100,-0.0201,-0.0015,-0.0014,-0.0148,-0.0039,0.9990,30.9*48
14:34::56.118,1702679714082,120.62750342,31.42736386,3478527.85218637,559660.86905339,108.37000000,6.00000000,0.00100000,-0.01500000,0.00600000,-0.02010000,-0.00150000,-0.00140000,-0.01480000,-0.00390000,0.99900000
$GPFPD,2292,542114.200,108.370,-0.294,0.966,31.42736385,120.62750342,10.955,0.000,-0.015,0.006,0.796,18,15,04*71
$GTIMU,2292,542114.200,-0.0047,0.0292,0.0008,-0.0166,-0.0057,1.0001,30.9*46
14:34::56.218,1702679714182,120.62750342,31.42736385,3478527.85107757,559660.86905972,108.37000000,6.00000000,0.00000000,-0.01500000,0.00600000,-0.00470000,0.02920000,0.00080000,-0.01660000,-0.00570000,1.00010000
$GPFPD,2292,542114.300,108.370,-0.292,0.962,31.42736383,120.62750341,10.954,-0.002,-0.015,0.002,0.798,18,15,04*53
$GTIMU,2292,542114.300,0.0127,-0.0459,0.0099,-0.0185,-0.0055,0.9994,30.9*4B
14:34::56.318,1702679714282,120.62750341,31.42736383,3478527.84885455,559660.86812160,108.37000000,6.00000000,-0.00200000,-0.01500000,0.00200000,0.01270000,-0.04590000,0.00990000,-0.01850000,-0.00550000,0.99940000
$GPFPD,2292,542114.400,108.370,-0.294,0.966,31.42736376,120.62750337,10.950,-0.002,-0.017,0.001,0.798,18,15,04*58
$GTIMU,2292,542114.400,-0.0183,0.0434,-0.0026,-0.0149,-0.0037,0.9989,30.9*68
14:34::56.419,1702679714382,120.62750337,31.42736376,3478527.84107124,559660.86436280,108.37000000,6.00000000,-0.00200000,-0.01700000,0.00100000,-0.01830000,0.04340000,-0.00260000,-0.01490000,-0.00370000,0.99890000
$GPFPD,2292,542114.500,108.371,-0.293,0.966,31.42736370,120.62750334,10.945,-0.002,-0.017,0.002,0.792,18,15,04*57
$GTIMU,2292,542114.500,0.0082,-0.0072,0.0002,-0.0178,-0.0044,1.0006,30.9*44
14:34::56.518,1702679714482,120.62750334,31.42736370,3478527.83440215,559660.86154844,108.37100000,6.00000000,-0.00200000,-0.01700000,0.00200000,0.00820000,-0.00720000,0.00020000,-0.01780000,-0.00440000,1.00060000
$GPFPD,2292,542114.600,108.370,-0.293,0.962,31.42736364,120.62750330,10.941,-0.000,-0.017,0.001,0.792,18,15,04*55
$GTIMU,2292,542114.600,-0.0065,-0.0391,0.0111,-0.0167,-0.0032,0.9986,30.9*68
14:34::56.618,1702679714582,120.62750330,31.42736364,3478527.82772764,559660.85778330,108.37000000,6.00000000,0.00000000,-0.01700000,0.00100000,-0.00650000,-0.03910000,0.01110000,-0.01670000,-0.00320000,0.99860000
$GPFPD,2292,542114.700,108.371,-0.294,0.968,31.42736358,120.62750327,10.936,-0.001,-0.019,0.002,0.798,18,15,04*57
$GTIMU,2292,542114.700,-0.0143,0.0610,-0.0072,-0.0153,-0.0048,1.0004,30.9*65
14:34::56.718,1702679714682,120.62750327,31.42736358,3478527.82105856,559660.85496894,108.37100000,6.00000000,-0.00100000,-0.01900000,0.00200000,-0.01430000,0.06100000,-0.00720000,-0.01530000,-0.00480000,1.00040000
$GPFPD,2292,542114.800,108.370,-0.293,0.963,31.42736353,120.62750324,10.933,-0.002,-0.015,0.002,0.798,18,15,04*57
$GTIMU,2292,542114.800,0.0076,-0.0561,0.0042,-0.0199,-0.0062,0.9998,30.9*4C
14:34::56.818,1702679714782,120.62750324,31.42736353,3478527.81549827,559660.85214825,108.37000000,6.00000000,-0.00200000,-0.01500000,0.00200000,0.00760000,-0.05610000,0.00420000,-0.01990000,-0.00620000,0.99980000
$GPFPD,2292,542114.900,108.370,-0.294,0.963,31.42736352,120.62750324,10.933,-0.003,-0.018,0.001,0.797,18,15,04*50
$GTIMU,2292,542114.900,-0.0093,0.0059,0.0037,-0.0136,-0.0046,0.9986,30.9*46
14:34::56.918,1702679714882,120.62750324,31.42736352,3478527.81438947,559660.85215459,108.37000000,6.00000000,-0.00300000,-0.01800000,0.00100000,-0.00930000,0.00590000,0.00370000,-0.01360000,-0.00460000,0.99860000
$GPFPD,2292,542115.000,108.370,-0.293,0.968,31.42736350,120.62750324,10.933,-0.003,-0.018,0.002,0.797,18,15,04*55
$GTIMU,2292,542115.000,-0.0007,0.0428,0.0025,-0.0170,-0.0046,1.0008,30.9*47
14:34::57.018,1702679714982,120.62750324,31.42736350,3478527.81217188,559660.85216725,108.37000000,6.00000000,-0.00300000,-0.01800000,0.00200000,-0.00070000,0.04280000,0.00250000,-0.01700000,-0.00460000,1.00080000
$GPGGA,063457.00,3125.6417595,N,12037.6508337,E,1,15,1.2,4.189,M,7.80,M,,*60
$GPFPD,2292,542115.100,108.370,-0.293,0.962,31.42736348,120.62750323,10.933,-0.001,-0.017,0.002,0.797,18,15,04*5D
$GTIMU,2292,542115.100,0.0031,-0.0538,0.0053,-0.0190,-0.0033,0.9993,30.9*4D
14:34::57.118,1702679715082,120.62750323,31.42736348,3478527.80994885,559660.85122913,108.37000000,6.00000000,-0.00100000,-0.01700000,0.00200000,0.00310000,-0.05380000,0.00530000,-0.01900000,-0.00330000,0.99930000
$GPFPD,2292,542115.200,108.370,-0.294,0.966,31.42736347,120.62750323,10.933,-0.001,-0.020,0.001,0.793,18,15,04*51
$GTIMU,2292,542115.200,-0.0184,0.0366,-0.0026,-0.0139,-0.0039,0.9990,30.9*69
14:34::57.218,1702679715182,120.62750323,31.42736347,3478527.80884005,559660.85123546,108.37000000,6.00000000,-0.00100000,-0.02000000,0.00100000,-0.01840000,0.03660000,-0.00260000,-0.01390000,-0.00390000,0.99900000
$GPFPD,2292,542115.300,108.371,-0.292,0.965,31.42736344,120.62750323,10.933,-0.002,-0.021,0.001,0.797,18,15,04*51
$GTIMU,2292,542115.300,0.0151,-0.0163,0.0059,-0.0187,-0.0063,1.0008,30.9*48
14:34::57.318,1702679715282,120.62750323,31.42736344,3478527.80551365,559660.85125446,108.37100000,6.00000000,-0.00200000,-0.02100000,0.00100000,0.01510000,-0.01630000,0.00590000,-0.01870000,-0.00630000,1.00080000
$GPFPD,2292,542115.400,108.371,-0.293,0.962,31.42736335,120.62750323,10.932,-0.002,-0.022,0.001,0.797,18,15,04*54
$GTIMU,2292,542115.400,-0.0054,-0.0248,0.0037,-0.0166,-0.0046,0.9993,30.9*6F
14:34::57.418,1702679715382,120.62750323,31.42736335,3478527.79553446,559660.85131145,108.37100000,6.00000000,-0.00200000,-0.02200000,0.00100000,-0.00540000,-0.02480000,0.00370000,-0.01660000,-0.00460000,0.99930000
$GPFPD,2292,542115.500,108.371,-0.294,0.968,31.42736327,120.62750323,10.931,-0.003,-0.023,0.001,0.793,18,15,04*5C
$GTIMU,2292,542115.500,-0.0143,0.0548,-0.0020,-0.0150,-0.0044,0.9996,30.9*6A
14:34::57.518,1702679715482,120.62750323,31.42736327,3478527.78666407,559660.85136211,108.37100000,6.00000000,-0.00300000,-0.02300000,0.00100000,-0.01430000,0.05480000,-0.00200000,-0.01500000,-0.00440000,0.99960000
$GPFPD,2292,542115.600,108.370,-0.292,0.963,31.42736319,120.62750323,10.930,-0.001,-0.021,0.001,0.793,18,15,04*5F
$GTIMU,2292,542115.600,0.0122,-0.0527,0.0076,-0.0193,-0.0041,0.9999,30.9*4C
14:34::57.618,1702679715582,120.62750323,31.42736319,3478527.77779368,559660.85141276,108.37000000,6.00000000,-0.00100000,-0.02100000,0.00100000,0.01220000,-0.05270000,0.00760000,-0.01930000,-0.00410000,0.99990000
$GPFPD,2292,542115.700,108.371,-0.294,0.965,31.42736311,120.62750323,10.929,-0.001,-0.024,0.000,0.797,18,15,04*5F
$GTIMU,2292,542115.700,-0.0252,0.0235,-0.0060,-0.0146,-0.0035,0.9988,30.9*6C
14:34::57.718,1702679715682,120.62750323,31.42736311,3478527.76892329,559660.85146342,108.37100000,6.00000000,-0.00100000,-0.02400000,0.00000000,-0.02520000,0.02350000,-0.00600000,-0.01460000,-0.00350000,0.99880000
$GPFPD,2292,542115.800,108.371,-0.294,0.967,31.42736304,120.62750323,10.929,-0.002,-0.022,0.001,0.797,18,15,04*52
$GTIMU,2292,542115.800,-0.0019,0.0167,-0.0003,-0.0179,-0.0058,1.0004,30.9*6D
14:34::57.818,1702679715782,120.62750323,31.42736304,3478527.76116169,559660.85150775,108.37100000,6.00000000,-0.00200000,-0.02200000,0.00100000,-0.00190000,0.01670000,-0.00030000,-0.01790000,-0.00580000,1.00040000
$GPFPD,2292,542115.900,108.370,-0.293,0.960,31.42736302,120.62750323,10.929,-0.002,-0.021,0.001,0.800,18,15,04*56
$GTIMU,2292,542115.900,0.0082,-0.0703,0.0122,-0.0177,-0.0053,0.9994,30.9*48
14:34::57.918,1702679715882,120.62750323,31.42736302,3478527.75894410,559660.85152041,108.37000000,6.00000000,-0.00200000,-0.02100000,0.00100000,0.00820000,-0.07030000,0.01220000,-0.01770000,-0.00530000,0.99940000
$GPFPD,2292,542116.000,108.371,-0.294,0.965,31.42736300,120.62750323,10.929,-0.003,-0.024,0.000,0.800,18,15,04*58
$GTIMU,2292,542116.000,-0.0098,0.0491,-0.0009,-0.0137,-0.0039,0.9992,30.9*6A
14:34::58.018,1702679715982,120.62750323,31.42736300,3478527.75672650,559660.85153307,108.37100000,6.00000000,-0.00300000,-0.02400000,0.00000000,-0.00980000,0.04910000,-0.00090000,-0.01370000,-0.00390000,0.99920000
$GPFPD,2292,542116$GPGGA,06.100,108.3458.00,3371,-0.29125.641741,0.964,380,N,12031.42736297.65082608,120.627,E,1,15,150322,10..2,4.143,929,-0.00M,7.80,M,2,-0.022,,*6F
0.001,0.800,18,15,04*5A
$GTIMU,2292,542116.100,0.0179,-0.0129,0.0002,-0.0190,-0.0046,1.0006,30.9*4C
14:34::58.118,1702679716082,120.62750322,31.42736298,3478527.75450347,559660.85059495,108.37100000,6.00000000,-0.00200000,-0.02200000,0.00100000,0.01790000,-0.01290000,0.00020000,-0.01900000,-0.00460000,1.00060000
$GPFPD,2292,542116.200,108.372,-0.293,0.963,31.42736296,120.62750322,10.929,-0.001,-0.023,0.002,0.800,18,15,04*50
$GTIMU,2292,542116.200,-0.0179,-0.0140,-0.0032,-0.0165,-0.0035,1.0008,30.9*43
14:34::58.218,1702679716182,120.62750322,31.42736296,3478527.75228587,559660.85060762,108.37200000,6.00000000,-0.00100000,-0.02300000,0.00200000,-0.01790000,-0.01400000,-0.00320000,-0.01650000,-0.00350000,1.00080000
$GPFPD,2292,542116.300,108.373,-0.297,0.970,31.42736295,120.62750323,10.931,0.000,-0.021,0.007,0.794,18,15,04*74
$GTIMU,2292,542116.300,-0.0444,0.0724,-0.0054,-0.0151,-0.0042,0.9998,30.9*6F
14:34::58.318,1702679716282,120.62750323,31.42736295,3478527.75118250,559660.85156473,108.37300000,6.00000000,0.00000000,-0.02100000,0.00700000,-0.04440000,0.07240000,-0.00540000,-0.01510000,-0.00420000,0.99980000
$GPFPD,2292,542116.400,108.372,-0.296,0.965,31.42736297,120.62750325,10.939,-0.001,-0.018,0.004,0.794,18,15,04*5E
$GTIMU,2292,542116.400,0.0036,-0.0533,0.0088,-0.0191,-0.0068,0.9974,30.9*47
14:34::58.418,1702679716382,120.62750325,31.42736297,3478527.75341096,559660.85345364,108.37200000,6.00000000,-0.00100000,-0.01800000,0.00400000,0.00360000,-0.05330000,0.00880000,-0.01910000,-0.00680000,0.99740000
$GPFPD,2292,542116.500,108.371,-0.293,0.965,31.42736300,120.62750326,10.947,-0.002,-0.020,0.002,0.796,18,15,04*50
$GTIMU,2292,542116.500,0.0253,-0.0021,0.0156,-0.0153,-0.0054,0.9973,30.9*45
14:34::58.519,1702679716482,120.62750326,31.42736300,3478527.75674279,559660.85438542,108.37100000,6.00000000,-0.00200000,-0.02000000,0.00200000,0.02530000,-0.00210000,0.01560000,-0.01530000,-0.00540000,0.99730000
$GPFPD,2292,542116.600,108.371,-0.292,0.964,31.42736302,120.62750328,10.954,-0.002,-0.019,0.006,0.796,18,15,04*53
$GTIMU,2292,542116.600,0.0156,-0.0106,0.0047,-0.0173,-0.0045,1.0036,30.9*47
14:34::58.618,1702679716582,120.62750328,31.42736302,3478527.75897124,559660.85627433,108.37100000,6.00000000,-0.00200000,-0.01900000,0.00600000,0.01560000,-0.01060000,0.00470000,-0.01730000,-0.00450000,1.00360000
$GPFPD,2292,542116.700,108.371,-0.293,0.960,31.42736304,120.62750329,10.962,-0.001,-0.020,0.006,0.797,18,15,04*5D
$GTIMU,2292,542116.700,-0.0151,-0.0442,-0.0037,-0.0166,-0.0031,1.0000,30.9*41
14:34::58.718,1702679716682,120.62750329,31.42736304,3478527.76119427,559660.85721244,108.37100000,6.00000000,-0.00100000,-0.02000000,0.00600000,-0.01510000,-0.04420000,-0.00370000,-0.01660000,-0.00310000,1.00000000
$GPFPD,2292,542116.800,108.371,-0.294,0.968,31.42736306,120.62750331,10.968,-0.001,-0.022,0.004,0.797,18,15,04*5C
$GTIMU,2292,542116.800,-0.0148,0.0854,0.0054,-0.0144,-0.0040,0.9974,30.9*4C
14:34::58.818,1702679716782,120.62750331,31.42736306,3478527.76342273,559660.85910135,108.37100000,6.00000000,-0.00100000,-0.02200000,0.00400000,-0.01480000,0.08540000,0.00540000,-0.01440000,-0.00400000,0.99740000
$GPFPD,2292,542116.900,108.371,-0.292,0.966,31.42736304,120.62750331,10.969,-0.001,-0.019,0.006,0.799,18,15,04*52
$GTIMU,2292,542116.900,0.0099,-0.0192,0.0002,-0.0208,-0.0053,1.0013,30.9*49
14:34::58.918,1702679716882,120.62750331,31.42736304,3478527.76120513,559660.85911401,108.37100000,6.00000000,-0.00100000,-0.01900000,0.00600000,0.00990000,-0.01920000,0.00020000,-0.02080000,-0.00530000,1.00130000
$GPFPD,2292,542117.000,108.371,-0.293,0.962,31.42736302,120.62750331,10.969,-0.001,-0.020,0.005,0.799,18,15,04*50
$GTIMU,2292,542117.000,-0.0100,-0.0413,0.0042,-0.0153,-0.0046,0.9992,30.9*64
14:34::59.018,1702679716982,120.62750331,31.42736302,3478527.75898753,559660.85912667,108.37100000,6.00000000,-0.00100000,-0.02000000,0.00500000,-0.01000000,-0.04130000,0.00420000,-0.01530000,-0.00460000,0.99920000
$GPFPD,2292,542117$GPGGA,06.100,108.3459.00,3371,-0.29125.641754,0.967,379,N,12031.42736307.65081310,120.627,E,1,15,150331,10.2,4.054,.970,-0.0M,7.80,M,01,-0.022,*69
,0.005,0.799,18,15,04*5B
$GTIMU,2292,542117.100,-0.0155,0.0434,-0.0003,-0.0147,-0.0036,0.9993,30.9*66
14:34::59.118,1702679717082,120.62750331,31.42736300,3478527.75676994,559660.85913934,108.37100000,6.00000000,-0.00100000,-0.02200000,0.00500000,-0.01550000,0.04340000,-0.00030000,-0.01470000,-0.00360000,0.99930000
$GPFPD,2292,542117.200,108.371,-0.292,0.964,31.42736298,120.62750330,10.970,-0.001,-0.020,0.006,0.796,18,15,04*52
$GTIMU,2292,542117.200,0.0150,-0.0339,0.0025,-0.0189,-0.0051,1.0002,30.9*49
14:34::59.218,1702679717182,120.62750330,31.42736298,3478527.75454691,559660.85820122,108.37100000,6.00000000,-0.00100000,-0.02000000,0.00600000,0.01500000,-0.03390000,0.00250000,-0.01890000,-0.00510000,1.00020000
$GPFPD,2292,542117.300,108.371,-0.294,0.965,31.42736298,120.62750331,10.971,0.001,-0.017,0.007,0.796,18,15,04*7C
$GTIMU,2292,542117.300,-0.0155,0.0121,0.0031,-0.0157,-0.0038,0.9991,30.9*44
14:34::59.318,1702679717282,120.62750331,31.42736298,3478527.75455234,559660.85915200,108.37100000,6.00000000,0.00100000,-0.01700000,0.00700000,-0.01550000,0.01210000,0.00310000,-0.01570000,-0.00380000,0.99910000
$GPFPD,2292,542117.400,108.371,-0.294,0.968,31.42736301,120.62750332,10.975,-0.000,-0.017,0.007,0.796,18,15,04*5C
$GTIMU,2292,542117.400,-0.0087,0.0280,0.0014,-0.0170,-0.0058,0.9999,30.9*49
14:34::59.418,1702679717382,120.62750332,31.42736301,3478527.75788416,559660.86008379,108.37100000,6.00000000,0.00000000,-0.01700000,0.00700000,-0.00870000,0.02800000,0.00140000,-0.01700000,-0.00580000,0.99990000
$GPFPD,2292,542117.500,108.371,-0.292,0.962,31.42736305,120.62750333,10.978,-0.000,-0.016,0.008,0.797,18,15,04*56
$GTIMU,2292,542117.500,0.0138,-0.0561,0.0053,-0.0182,-0.0046,0.9998,30.9*45
14:34::59.518,1702679717482,120.62750333,31.42736305,3478527.76232479,559660.86100924,108.37100000,6.00000000,0.00000000,-0.01600000,0.00800000,0.01380000,-0.05610000,0.00530000,-0.01820000,-0.00460000,0.99980000
$GPFPD,2292,542117.600,108.371,-0.294,0.966,31.42736308,120.62750334,10.982,-0.000,-0.018,0.007,0.797,18,15,04*59
$GTIMU,2292,542117.600,-0.0195,0.0377,-0.0003,-0.0142,-0.0037,0.9987,30.9*6C
14:34::59.619,1702679717582,120.62750334,31.42736308,3478527.76565662,559660.86194103,108.37100000,6.00000000,0.00000000,-0.01800000,0.00700000,-0.01950000,0.03770000,-0.00030000,-0.01420000,-0.00370000,0.99870000
$GPFPD,2292,542117.700,108.371,-0.293,0.966,31.42736312,120.62750336,10.985,0.000,-0.017,0.008,0.796,18,15,04*7D
$GTIMU,2292,542117.700,0.0054,0.0013,0.0002,-0.0184,-0.0046,1.0008,30.9*6B
14:34::59.718,1702679717682,120.62750336,31.42736312,3478527.77010267,559660.86381727,108.37100000,6.00000000,0.00000000,-0.01700000,0.00800000,0.00540000,0.00130000,0.00020000,-0.01840000,-0.00460000,1.00080000
$GPFPD,2292,542117.800,108.371,-0.293,0.961,31.42736314,120.62750337,10.988,0.001,-0.017,0.007,0.796,18,15,04*71
$GTIMU,2292,542117.800,0.0014,-0.0516,0.0065,-0.0173,-0.0042,0.9991,30.9*41
14:34::59.818,1702679717782,120.62750337,31.42736314,3478527.77232570,559660.86475539,108.37100000,6.00000000,0.00100000,-0.01700000,0.00700000,0.00140000,-0.05160000,0.00650000,-0.01730000,-0.00420000,0.99910000
$GPFPD,2292,542117.900,108.371,-0.294,0.967,31.42736313,120.62750337,10.989,0.000,-0.019,0.007,0.793,18,15,04*7D
$GTIMU,2292,542117.900,-0.0200,0.0582,-0.0014,-0.0144,-0.0045,0.9995,30.9*66
14:34::59.918,1702679717882,120.62750337,31.42736313,3478527.77121690,559660.86476172,108.37100000,6.00000000,0.00000000,-0.01900000,0.00700000,-0.02000000,0.05820000,-0.00140000,-0.01440000,-0.00450000,0.99950000
$GPFPD,2292,542118.000,108.371,-0.293,0.965,31.42736311,120.62750337,10.990,-0.001,-0.016,0.008,0.793,18,15,04*58
$GTIMU,2292,542118.000,0.0111,-0.0226,0.0036,-0.0194,-0.0067,1.0006,30.9*41
14:35::00.018,1702679717982,120.62750337,31.42736311,3478527.76899930,559660.86477438,108.37100000,6.00000000,-0.00100000,-0.01600000,0.00800000,0.01110000,-0.02260000,0.00360000,-0.01940000,-0.00670000,1.00060000
$GPGGA,063500.00,3125.6417376,N,12037.6508149,E,1,15,1.2,4.067,M,7.80,M,,*62
$GPFPD,2292,542118.100,108.371,-0.293,0.962,31.42736309,120.62750336,10.990,-0.000,-0.017,0.007,0.793,18,15,04*59
$GTIMU,2292,542118.100,-0.0031,-0.0277,0.0042,-0.0158,-0.0037,0.9985,30.9*66
14:35::00.118,1702679718082,120.62750336,31.42736309,3478527.76677627,559660.86383627,108.37100000,6.00000000,0.00000000,-0.01700000,0.00700000,-0.00310000,-0.02770000,0.00420000,-0.01580000,-0.00370000,0.99850000
$GPFPD,2292,542118.200,108.371,-0.294,0.968,31.42736308,120.62750336,10.991,-0.000,-0.019,0.007,0.798,18,15,04*52
$GTIMU,2292,542118.200,-0.0143,0.0536,-0.0009,-0.0150,-0.0038,1.0003,30.9*64
14:35::00.218,1702679718182,120.62750336,31.42736308,3478527.76566748,559660.86384260,108.37100000,6.00000000,0.00000000,-0.01900000,0.00700000,-0.01430000,0.05360000,-0.00090000,-0.01500000,-0.00380000,1.00030000
$GPFPD,2292,542118.300,108.372,-0.293,0.963,31.42736307,120.62750337,10.993,0.004,-0.013,0.012,0.799,18,15,04*76
$GTIMU,2292,542118.300,0.0059,-0.0521,0.0048,-0.0196,-0.0041,1.0004,30.9*42
14:35::00.318,1702679718282,120.62750337,31.42736307,3478527.76456411,559660.86479971,108.37200000,6.00000000,0.00400000,-0.01300000,0.01200000,0.00590000,-0.05210000,0.00480000,-0.01960000,-0.00410000,1.00040000
$GPFPD,2292,542118.400,108.372,-0.294,0.965,31.42736311,120.62750341,11.000,0.003,-0.015,0.011,0.799,18,15,04*76
$GTIMU,2292,542118.400,-0.0155,0.0258,-0.0026,-0.0142,-0.0046,0.9980,30.9*67
14:35::00.418,1702679718382,120.62750341,31.42736311,3478527.76902102,559660.86857752,108.37200000,6.00000000,0.00300000,-0.01500000,0.01100000,-0.01550000,0.02580000,-0.00260000,-0.01420000,-0.00460000,0.99800000
$GPFPD,2292,542118.500,108.372,-0.293,0.967,31.42736314,120.62750345,11.007,0.002,-0.014,0.012,0.789,18,15,04*76
$GTIMU,2292,542118.500,0.0094,0.0172,0.0025,-0.0181,-0.0058,1.0013,30.9*69
14:35::00.518,1702679718482,120.62750345,31.42736314,3478527.77236914,559660.87236165,108.37200000,6.00000000,0.00200000,-0.01400000,0.01200000,0.00940000,0.01720000,0.00250000,-0.01810000,-0.00580000,1.00130000
$GPFPD,2292,542118.600,108.371,-0.293,0.962,31.42736318,120.62750349,11.015,0.002,-0.013,0.012,0.789,18,15,04*77
$GTIMU,2292,542118.600,-0.0015,-0.0533,0.0088,-0.0175,-0.0048,0.9992,30.9*67
14:35::00.618,1702679718582,120.62750349,31.42736318,3478527.77682605,559660.87613946,108.37100000,6.00000000,0.00200000,-0.01300000,0.01200000,-0.00150000,-0.05330000,0.00880000,-0.01750000,-0.00480000,0.99920000
$GPFPD,2292,542118.700,108.372,-0.294,0.967,31.42736321,120.62750353,11.022,0.001,-0.015,0.011,0.797,18,15,04*7B
$GTIMU,2292,542118.700,-0.0172,0.0457,-0.0049,-0.0144,-0.0045,0.9993,30.9*66
14:35::00.718,1702679718682,120.62750353,31.42736321,3478527.78017417,559660.87992359,108.37200000,6.00000000,0.00100000,-0.01500000,0.01100000,-0.01720000,0.04570000,-0.00490000,-0.01440000,-0.00450000,0.99930000
$GPFPD,2292,542118.800,108.372,-0.293,0.964,31.42736323,120.62750356,11.027,0.003,-0.013,0.011,0.797,18,15,04*76
$GTIMU,2292,542118.800,0.0116,-0.0311,0.0059,-0.0194,-0.0036,0.9994,30.9*4C
14:35::00.818,1702679718782,120.62750356,31.42736323,3478527.78240805,559660.88276328,108.37200000,6.00000000,0.00300000,-0.01300000,0.01100000,0.01160000,-0.03110000,0.00590000,-0.01940000,-0.00360000,0.99940000
$GPFPD,2292,542118.900,108.372,-0.293,0.963,31.42736322,120.62750356,11.028,0.003,-0.014,0.011,0.797,18,15,04*79
$GTIMU,2292,542118.900,-0.0054,-0.0072,-0.0009,-0.0157,-0.0039,0.9991,30.9*4C
14:35::00.919,1702679718882,120.62750356,31.42736322,3478527.78129926,559660.88276961,108.37200000,6.00000000,0.00300000,-0.01400000,0.01100000,-0.00540000,-0.00720000,-0.00090000,-0.01570000,-0.00390000,0.99910000
$GPFPD,2292,542119.000,108.373,-0.294,0.967,31.42736321,120.62750357,11.029,0.003,-0.015,0.012,0.797,18,15,04*72
$GTIMU,2292,542119.000,-0.0144,0.0360,-0.0049,-0.0162,-0.0047,1.0007,30.9*6C
14:35::01.018,1702679718982,120.62750357,31.42736321,3478527.78019589,559660.88372673,108.37300000,6.00000000,0.00300000,-0.01500000,0.01200000,-0.01440000,0.03600000,-0.00490000,-0.01620000,-0.00470000,1.00070000
$GPGGA,063501.00,3125.6417339,N,12037.6508038,E,1,15,1.2,4.063,M,7.80,M,,*6B
$GPFPD,2292,542119.100,108.372,-0.293,0.961,31.42736319,120.62750357,11.031,0.002,-0.013,0.013,0.797,18,15,04*77
$GTIMU,2292,542119.100,0.0104,-0.0629,0.0110,-0.0186,-0.0062,1.0010,30.9*4A
14:35::01.118,1702679719082,120.62750357,31.42736319,3478527.77797829,559660.88373939,108.37200000,6.00000000,0.00200000,-0.01300000,0.01300000,0.01040000,-0.06290000,0.01100000,-0.01860000,-0.00620000,1.00100000
$GPFPD,2292,542119.200,108.372,-0.295,0.962,31.42736318,120.62750357,11.032,0.002,-0.016,0.012,0.800,18,15,04*76
$GTIMU,2292,542119.200,-0.0229,0.0144,-0.0020,-0.0138,-0.0036,0.9983,30.9*69
14:35::01.218,1702679719182,120.62750357,31.42736318,3478527.77686949,559660.88374572,108.37200000,6.00000000,0.00200000,-0.01600000,0.01200000,-0.02290000,0.01440000,-0.00200000,-0.01380000,-0.00360000,0.99830000
$GPFPD,2292,542119.300,108.372,-0.294,0.965,31.42736318,120.62750358,11.035,0.003,-0.011,0.016,0.795,17,15,04*77
$GTIMU,2292,542119.300,0.0009,0.0252,0.0031,-0.0173,-0.0056,1.0000,30.9*6F
14:35::01.318,1702679719282,120.62750358,31.42736318,3478527.77687492,559660.88469650,108.37200000,6.00000000,0.00300000,-0.01100000,0.01600000,0.00090000,0.02520000,0.00310000,-0.01730000,-0.00560000,1.00000000
$GPFPD,2292,542119.400,108.372,-0.293,0.962,31.42736321,120.62750361,11.042,0.005,-0.010,0.015,0.795,17,15,04*74
$GTIMU,2292,542119.400,0.0026,-0.0277,0.0082,-0.0183,-0.0033,0.9990,30.9*43
14:35::01.418,1702679719382,120.62750361,31.42736321,3478527.78021761,559660.88752986,108.37200000,6.00000000,0.00500000,-0.01000000,0.01500000,0.00260000,-0.02770000,0.00820000,-0.01830000,-0.00330000,0.99900000
$GPFPD,2292,542119.500,108.373,-0.295,0.968,31.42736325,120.62750364,11.049,0.005,-0.012,0.015,0.792,17,15,04*77
$GTIMU,2292,542119.500,-0.0189,0.0565,-0.0060,-0.0148,-0.0042,0.9997,30.9*65
14:35::01.519,1702679719482,120.62750364,31.42736325,3478527.78466909,559660.89035688,108.37300000,6.00000000,0.00500000,-0.01200000,0.01500000,-0.01890000,0.05650000,-0.00600000,-0.01480000,-0.00420000,0.99970000
$GPFPD,2292,542119.600,108.372,-0.293,0.965,31.42736328,120.62750367,11.056,0.004,-0.010,0.017,0.792,17,15,04*7F
$GTIMU,2292,542119.600,0.0139,-0.0339,0.0053,-0.0189,-0.0059,1.0011,30.9*47
14:35::01.619,1702679719582,120.62750367,31.42736328,3478527.78801178,559660.89319023,108.37200000,6.00000000,0.00400000,-0.01000000,0.01700000,0.01390000,-0.03390000,0.00530000,-0.01890000,-0.00590000,1.00110000
$GPFPD,2292,542119.700,108.373,-0.294,0.962,31.42736332,120.62750370,11.063,0.005,-0.011,0.015,0.797,17,15,04*73
$GTIMU,2292,542119.700,-0.0071,-0.0243,0.0002,-0.0160,-0.0039,0.9981,30.9*67
14:35::01.718,1702679719682,120.62750370,31.42736332,3478527.79246326,559660.89601725,108.37300000,6.00000000,0.00500000,-0.01100000,0.01500000,-0.00710000,-0.02430000,0.00020000,-0.01600000,-0.00390000,0.99810000
$GPFPD,2292,542119.800,108.373,-0.295,0.966,31.42736334,120.62750372,11.068,0.004,-0.012,0.016,0.797,17,15,04*77
$GTIMU,2292,542119.800,-0.0127,0.0383,-0.0049,-0.0155,-0.0051,1.0006,30.9*6E
14:35::01.818,1702679719782,120.62750372,31.42736334,3478527.79469172,559660.89790616,108.37300000,6.00000000,0.00400000,-0.01200000,0.01600000,-0.01270000,0.03830000,-0.00490000,-0.01550000,-0.00510000,1.00060000
$GPFPD,2292,542119.900,108.372,-0.293,0.962,31.42736333,120.62750373,11.070,0.004,-0.010,0.016,0.799,17,15,04*76
$GTIMU,2292,542119.900,0.0122,-0.0442,0.0122,-0.0188,-0.0050,0.9993,30.9*4D
14:35::01.918,1702679719882,120.62750373,31.42736333,3478527.79358835,559660.89886327,108.37200000,6.00000000,0.00400000,-0.01000000,0.01600000,0.01220000,-0.04420000,0.01220000,-0.01880000,-0.00500000,0.99930000
$GPFPD,2292,542120.000,108.372,-0.294,0.966,31.42736332,120.62750373,11.071,0.004,-0.013,0.015,0.799,17,15,04*76
$GTIMU,2292,542120.000,-0.0161,0.0371,-0.0003,-0.0145,-0.0034,0.9990,30.9*61
14:35::02.018,1702679719982,120.62750373,31.42736332,3478527.79247955,559660.89886960,108.37200000,6.00000000,0.00400000,-0.01300000,0.01500000,-0.01610000,0.03710000,-0.00030000,-0.01450000,-0.00340000,0.99900000
$GPGGA,063502.00,3125.6417574,N,12037.6508080,E,1,15,1.2,4.022,M,7.80,M,,*61
$GPFPD,2292,542120.100,108.373,-0.294,0.967,31.42736331,120.62750373,11.073,0.004,-0.011,0.016,0.799,17,15,04*77
$GTIMU,2292,542120.100,0.0043,0.0115,0.0013,-0.0183,-0.0049,1.0010,30.9*69
14:35::02.118,1702679720082,120.62750373,31.42736331,3478527.79137075,559660.89887593,108.37300000,6.00000000,0.00400000,-0.01100000,0.01600000,0.00430000,0.01150000,0.00130000,-0.01830000,-0.00490000,1.00100000
$GPFPD,2292,542120.200,108.372,-0.294,0.961,31.42736330,120.62750374,11.075,0.005,-0.011,0.016,0.798,17,15,04*73
$GTIMU,2292,542120.200,-0.0049,-0.0601,0.0048,-0.0174,-0.0046,0.9991,30.9*63
14:35::02.219,1702679720182,120.62750374,31.42736330,3478527.79026738,559660.89983305,108.37200000,6.00000000,0.00500000,-0.01100000,0.01600000,-0.00490000,-0.06010000,0.00480000,-0.01740000,-0.00460000,0.99910000
$GPFPD,2292,542120.300,108.373,-0.295,0.966,31.42736327,120.62750372,11.074,-0.000,-0.017,0.011,0.792,17,15,04*57
$GTIMU,2292,542120.300,-0.0155,0.0462,-0.0037,-0.0143,-0.0044,0.9993,30.9*65
14:35::02.319,1702679720282,120.62750372,31.42736327,3478527.78693013,559660.89795048,108.37300000,6.00000000,0.00000000,-0.01700000,0.01100000,-0.01550000,0.04620000,-0.00370000,-0.01430000,-0.00440000,0.99930000
$GPFPD,2292,542120.400,108.373,-0.293,0.964,31.42736320,120.62750365,11.067,-0.001,-0.015,0.012,0.792,17,15,04*57
$GTIMU,2292,542120.400,0.0150,-0.0266,0.0053,-0.0188,-0.0055,1.0007,30.9*41
14:35::02.418,1702679720382,120.62750365,31.42736320,3478527.77913052,559660.89133932,108.37300000,6.00000000,-0.00100000,-0.01500000,0.01200000,0.01500000,-0.02660000,0.00530000,-0.01880000,-0.00550000,1.00070000
$GPFPD,2292,542120.500,108.372,-0.294,0.963,31.42736313,120.62750357,11.059,-0.000,-0.016,0.011,0.797,17,15,04*5F
$GTIMU,2292,542120.500,-0.0133,-0.0101,0.0048,-0.0159,-0.0037,0.9988,30.9*6E
14:35::02.518,1702679720482,120.62750357,31.42736313,3478527.77132550,559660.88377738,108.37200000,6.00000000,0.00000000,-0.01600000,0.01100000,-0.01330000,-0.01010000,0.00480000,-0.01590000,-0.00370000,0.99880000
$GPFPD,2292,542120.600,108.373,-0.294,0.967,31.42736305,120.62750350,11.052,-0.001,-0.017,0.011,0.797,17,15,04*52
$GTIMU,2292,542120.600,-0.0093,0.0468,-0.0026,-0.0159,-0.0051,1.0001,30.9*64
14:35::02.619,1702679720582,120.62750350,31.42736305,3478527.76241709,559660.87717256,108.37300000,6.00000000,-0.00100000,-0.01700000,0.01100000,-0.00930000,0.04680000,-0.00260000,-0.01590000,-0.00510000,1.00010000
$GPFPD,2292,542120.700,108.372,-0.293,0.962,31.42736298,120.62750342,11.045,-0.001,-0.015,0.011,0.801,17,15,04*52
$GTIMU,2292,542120.700,0.0156,-0.0556,0.0093,-0.0188,-0.0049,0.9995,30.9*4B
14:35::02.719,1702679720682,120.62750342,31.42736298,3478527.75461207,559660.86961062,108.37200000,6.00000000,-0.00100000,-0.01500000,0.01100000,0.01560000,-0.05560000,0.00930000,-0.01880000,-0.00490000,0.99950000
$GPFPD,2292,542120.800,108.373,-0.294,0.964,31.42736292,120.62750336,11.040,0.000,-0.017,0.011,0.801,17,15,04*7F
$GTIMU,2292,542120.800,-0.0218,0.0224,-0.0032,-0.0148,-0.0031,0.9995,30.9*6A
14:35::02.818,1702679720782,120.62750336,31.42736292,3478527.74792669,559660.86394391,108.37300000,6.00000000,0.00000000,-0.01700000,0.01100000,-0.02180000,0.02240000,-0.00320000,-0.01480000,-0.00310000,0.99950000
$GPFPD,2292,542120.900,108.373,-0.294,0.965,31.42736290,120.62750336,11.041,-0.000,-0.016,0.012,0.801,17,15,04*53
$GTIMU,2292,542120.900,-0.0020,0.0025,-0.0003,-0.0177,-0.0054,1.0003,30.9*62
14:35::02.918,1702679720882,120.62750336,31.42736290,3478527.74570909,559660.86395658,108.37300000,6.00000000,0.00000000,-0.01600000,0.01200000,-0.00200000,0.00250000,-0.00030000,-0.01770000,-0.00540000,1.00030000
$GPFPD,2292,542121.000,108.373,-0.293,0.961,31.42736289,120.62750336,11.042,-0.000,-0.016,0.011,0.801,17,15,04*50
$GTIMU,2292,542121.000,0.0082,-0.0430,0.0065,-0.0172,-0.0047,0.9987,30.9*45
14:35::03.018,1702679720982,120.62750336,31.42736289,3478527.74460030,559660.86396291,108.37300000,6.00000000,0.00000000,-0.01600000,0.01100000,0.00820000,-0.04300000,0.00650000,-0.01720000,-0.00470000,0.99870000
$GPFPD,2292,542121.100,108.373,-0.294,0.966,31.42736287,120.62750336,11.043,-0.001,-0.018,0.011,0.801,17,15,04*51
$GTIMU,2292,542121.100,-0.0132,0.0530,-0.0009,-0.0148,-0.0042,1.0001,30.9*6B
$GPFPD,2292,542121.200,108.372,-0.293,0.962,31.42736286,120.62750336,11.044,-0.001,-0.015,0.012,0.800,17,15,04*59
$GTIMU,2292,542121.200,0.0042,-0.0396,0.0059,-0.0193,-0.0061,1.0003,30.9*49
$GPFPD,2292,542121.300,108.373,-0.293,0.960,31.42736286,120.62750336,11.044,-0.001,-0.013,0.007,0.792,18,15,04*52
$GTIMU,2292,542121.300,-0.0020,-0.0180,0.0025,-0.0149,-0.0038,0.9984,30.9*6A
$GPFPD,2292,542121.400,108.373,-0.294,0.966,31.42736290,120.62750336,11.038,0.000,-0.014,0.008,0.792,18,15,04*7C
$GTIMU,2292,542121.400,-0.0098,0.0604,0.0002,-0.0159,-0.0034,1.0004,30.9*49
$GPFPD,2292,542121.500,108.372,-0.293,0.962,31.42736294,120.62750337,11.032,0.001,-0.011,0.008,0.793,18,16,04*76
$GTIMU,2292,542121.500,0.0059,-0.0499,0.0059,-0.0196,-0.0045,0.9997,30.9*43
$GPFPD,2292,542121.600,108.373,-0.295,0.964,31.42736298,120.62750337,11.027,0.001,-0.013,0.007,0.793,18,16,04*71
$GTIMU,2292,542121.600,-0.0252,0.0178,0.0003,-0.0147,-0.0045,0.9991,30.9*46
$GPFPD,2292,542121.700,108.372,-0.294,0.962,31.42736302,120.62750337,11.021,-0.001,-0.012,0.009,0.800,18,16,04*55
$GTIMU,2292,542121.700,0.0020,-0.0129,0.0053,-0.0173,-0.0065,1.0010,30.9*4C
$GPFPD,2292,542121.800,108.372,-0.293,0.958,31.42736304,120.62750337,11.017,-0.001,-0.012,0.008,0.800,18,16,04*56
$GTIMU,2292,542121.800,0.0116,-0.0447,0.0030,-0.0172,-0.0050,0.9990,30.9*41
$GPFPD,2292,542121.900,108.373,-0.294,0.965,31.42736303,120.62750337,11.018,-0.001,-0.015,0.007,0.801,18,16,04*5E
$GTIMU,2292,542121.900,-0.0109,0.0707,-0.0083,-0.0142,-0.0029,0.9990,30.9*61
$GPFPD,2292,542122.000,108.372,-0.292,0.962,31.42736302,120.62750337,11.018,0.000,-0.012,0.008,0.801,18,16,04*71
$GTIMU,2292,542122.000,0.0094,-0.0300,0.0122,-0.0193,-0.0043,1.0005,30.9*47
$GPGGA,063503.00,3125.6417659,N,12037.6508154,E,1,15,1.2,4.026,M,7.80,M,,*60
$GPGGA,063504.00,3125.6417098,N,12037.6507667,E,1,16,1.2,3.938,M,7.80,M,,*66
$GPFPD,2292,542122.100,108.372,-0.292,0.965,31.42736301,120.62750337,11.019,-0.001,-0.014,0.007,0.801,18,16,04*50
$GTIMU,2292,542122.100,-0.0025,0.0297,0.0008,-0.0145,-0.0050,0.9982,30.9*4D
14:35::04.119,1702679722082,120.62750337,31.42736301,3478527.75791131,559660.86483771,108.37200000,6.00000000,-0.00100000,-0.01400000,0.00700000,-0.00250000,0.02970000,0.00080000,-0.01450000,-0.00500000,0.99820000
$GPFPD,2292,542122.200,108.373,-0.291,0.971,31.42736299,120.62750337,11.020,-0.001,-0.014,0.008,0.796,18,16,04*50
$GTIMU,2292,542122.200,0.0112,0.0559,-0.0004,-0.0170,-0.0047,1.0013,30.9*4B
14:35::04.219,1702679722182,120.62750337,31.42736299,3478527.75569372,559660.86485037,108.37300000,6.00000000,-0.00100000,-0.01400000,0.00800000,0.01120000,0.05590000,-0.00040000,-0.01700000,-0.00470000,1.00130000
$GPFPD,2292,542122.300,108.372,-0.289,0.967,31.42736299,120.62750337,11.019,0.000,-0.009,0.006,0.797,18,16,04*7B
$GTIMU,2292,542122.300,0.0144,-0.0459,0.0099,-0.0193,-0.0054,1.0001,30.9*40
14:35::04.318,1702679722282,120.62750337,31.42736299,3478527.75569372,559660.86485037,108.37200000,6.00000000,0.00000000,-0.00900000,0.00600000,0.01440000,-0.04590000,0.00990000,-0.01930000,-0.00540000,1.00010000
$GPFPD,2292,542122.400,108.372,-0.290,0.971,31.42736301,120.62750338,11.015,0.000,-0.012,0.005,0.797,18,16,04*79
$GTIMU,2292,542122.400,-0.0104,0.0451,-0.0003,-0.0142,-0.0037,0.9985,30.9*61
14:35::04.418,1702679722382,120.62750338,31.42736301,3478527.75791674,559660.86578849,108.37200000,6.00000000,0.00000000,-0.01200000,0.00500000,-0.01040000,0.04510000,-0.00030000,-0.01420000,-0.00370000,0.99850000
$GPFPD,2292,542122.500,108.373,-0.288,0.969,31.42736303,120.62750339,11.010,0.001,-0.009,0.006,0.799,18,16,04*79
$GTIMU,2292,542122.500,0.0145,-0.0271,-0.0004,-0.0192,-0.0047,1.0002,30.9*62
14:35::04.518,1702679722482,120.62750339,31.42736303,3478527.76013977,559660.86672661,108.37300000,6.00000000,0.00100000,-0.00900000,0.00600000,0.01450000,-0.02710000,-0.00040000,-0.01920000,-0.00470000,1.00020000
$GPFPD,2292,542122.600,108.372,-0.287,0.968,31.42736305,120.62750339,11.005,0.002,-0.012,0.005,0.799,18,16,04*7D
$GTIMU,2292,542122.600,0.0037,-0.0038,0.0053,-0.0149,-0.0031,0.9989,30.9*40
14:35::04.618,1702679722582,120.62750339,31.42736305,3478527.76235737,559660.86671394,108.37200000,6.00000000,0.00200000,-0.01200000,0.00500000,0.00370000,-0.00380000,0.00530000,-0.01490000,-0.00310000,0.99890000
$GPFPD,2292,542122.700,108.373,-0.288,0.973,31.42736307,120.62750340,11.000,0.001,-0.011,0.006,0.799,18,15,04*71
$GTIMU,2292,542122.700,-0.0110,0.0434,-0.0015,-0.0171,-0.0050,1.0012,30.9*6D
14:35::04.718,1702679722682,120.62750340,31.42736307,3478527.76458040,559660.86765206,108.37300000,6.00000000,0.00100000,-0.01100000,0.00600000,-0.01100000,0.04340000,-0.00150000,-0.01710000,-0.00500000,1.00120000
$GPFPD,2292,542122.800,108.372,-0.287,0.966,31.42736309,120.62750341,10.997,0.001,-0.009,0.006,0.799,18,15,04*74
$GTIMU,2292,542122.800,0.0042,-0.0715,0.0082,-0.0186,-0.0055,0.9994,30.9*45
14:35::04.818,1702679722782,120.62750341,31.42736309,3478527.76680342,559660.86859018,108.37200000,6.00000000,0.00100000,-0.00900000,0.00600000,0.00420000,-0.07150000,0.00820000,-0.01860000,-0.00550000,0.99940000
$GPFPD,2292,542122.900,108.372,-0.289,0.971,31.42736308,120.62750341,10.997,-0.001,-0.012,0.005,0.797,18,15,04*56
$GTIMU,2292,542122.900,-0.0223,0.0502,-0.0026,-0.0139,-0.0051,0.9983,30.9*60
14:35::04.919,1702679722882,120.62750341,31.42736308,3478527.76569462,559660.86859651,108.37200000,6.00000000,-0.00100000,-0.01200000,0.00500000,-0.02230000,0.05020000,-0.00260000,-0.01390000,-0.00510000,0.99830000
$GPFPD,2292,542123.000,108.372,-0.287,0.969,31.42736307,120.62750341,10.998,0.000,-0.010,0.005,0.797,18,15,04*77
$GTIMU,2292,542123.000,0.0213,-0.0249,0.0042,-0.0193,-0.0042,0.9998,30.9*44
14:35::05.019,1702679722982,120.62750341,31.42736307,3478527.76458583,559660.86860285,108.37200000,6.00000000,0.00000000,-0.01000000,0.00500000,0.02130000,-0.02490000,0.00420000,-0.01930000,-0.00420000,0.99980000
$GPGGA,063505.00,3125.6417253,N,12037.6507954,E,1,15,1.2,3.976,M,7.80,M,,*64
$GPFPD,2292,542123.100,108.372,-0.287,0.967,31.42736306,120.62750341,10.998,0.002,-0.012,0.005,0.797,18,15,04*79
$GTIMU,2292,542123.100,-0.0059,-0.0118,0.0025,-0.0153,-0.0022,0.9995,30.9*65
14:35::05.118,1702679723082,120.62750341,31.42736306,3478527.76347703,559660.86860918,108.37200000,6.00000000,0.00200000,-0.01200000,0.00500000,-0.00590000,-0.01180000,0.00250000,-0.01530000,-0.00220000,0.99950000
$GPFPD,2292,542123.200,108.373,-0.289,0.972,31.42736305,120.62750341,10.999,0.001,-0.012,0.006,0.795,18,15,04*71
$GTIMU,2292,542123.200,-0.0206,0.0457,-0.0032,-0.0165,-0.0049,1.0009,30.9*6A
14:35::05.219,1702679723182,120.62750341,31.42736305,3478527.76236823,559660.86861551,108.37300000,6.00000000,0.00100000,-0.01200000,0.00600000,-0.02060000,0.04570000,-0.00320000,-0.01650000,-0.00490000,1.00090000
$GPFPD,2292,542123.300,108.373,-0.287,0.966,31.42736302,120.62750342,11.001,0.003,-0.012,0.009,0.803,18,15,04*7B
$GTIMU,2292,542123.300,0.0121,-0.0607,0.0070,-0.0187,-0.0061,0.9992,30.9*44
14:35::05.318,1702679723282,120.62750342,31.42736302,3478527.75904726,559660.86958529,108.37300000,6.00000000,0.00300000,-0.01200000,0.00900000,0.01210000,-0.06070000,0.00700000,-0.01870000,-0.00610000,0.99920000
$GPFPD,2292,542123.400,108.373,-0.288,0.969,31.42736297,120.62750345,11.006,0.003,-0.015,0.008,0.803,18,15,04*77
$GTIMU,2292,542123.400,-0.0115,0.0292,0.0020,-0.0148,-0.0035,0.9987,30.9*4F
14:35::05.418,1702679723382,120.62750345,31.42736297,3478527.75351955,559660.87246930,108.37300000,6.00000000,0.00300000,-0.01500000,0.00800000,-0.01150000,0.02920000,0.00200000,-0.01480000,-0.00350000,0.99870000
$GPFPD,2292,542123.500,108.373,-0.288,0.970,31.42736292,120.62750348,11.012,0.002,-0.014,0.010,0.793,18,15,04*7C
$GTIMU,2292,542123.500,-0.0020,0.0081,-0.0038,-0.0176,-0.0057,1.0012,30.9*69
14:35::05.518,1702679723482,120.62750348,31.42736292,3478527.74799185,559660.87535331,108.37300000,6.00000000,0.00200000,-0.01400000,0.01000000,-0.00200000,0.00810000,-0.00380000,-0.01760000,-0.00570000,1.00120000
$GPFPD,2292,542123.600,108.373,-0.287,0.966,31.42736287,120.62750352,11.018,0.003,-0.013,0.009,0.793,18,15,04*7C
$GTIMU,2292,542123.600,0.0014,-0.0430,0.0099,-0.0175,-0.0040,0.9988,30.9*42
14:35::05.619,1702679723582,120.62750352,31.42736287,3478527.74246957,559660.87918810,108.37300000,6.00000000,0.00300000,-0.01300000,0.00900000,0.00140000,-0.04300000,0.00990000,-0.01750000,-0.00400000,0.99880000
$GPFPD,2292,542123.700,108.374,-0.288,0.970,31.42736281,120.62750355,11.024,0.003,-0.015,0.009,0.795,18,15,04*7C
$GTIMU,2292,542123.700,-0.0149,0.0417,-0.0066,-0.0152,-0.0035,0.9994,30.9*68
14:35::05.719,1702679723682,120.62750355,31.42736281,3478527.73583307,559660.88207844,108.37400000,6.00000000,0.00300000,-0.01500000,0.00900000,-0.01490000,0.04170000,-0.00660000,-0.01520000,-0.00350000,0.99940000
$GPFPD,2292,542123.800,108.373,-0.287,0.967,31.42736277,120.62750357,11.028,0.003,-0.013,0.010,0.795,18,15,04*74
$GTIMU,2292,542123.800,0.0093,-0.0317,0.0053,-0.0187,-0.0054,1.0010,30.9*4F
14:35::05.818,1702679723782,120.62750357,31.42736277,3478527.73140873,559660.88400534,108.37300000,6.00000000,0.00300000,-0.01300000,0.01000000,0.00930000,-0.03170000,0.00530000,-0.01870000,-0.00540000,1.00100000
$GPFPD,2292,542123.900,108.373,-0.288,0.966,31.42736276,120.62750358,11.029,0.003,-0.014,0.009,0.806,18,15,04*7E
$GTIMU,2292,542123.900,-0.0150,-0.0157,0.0031,-0.0161,-0.0038,0.9982,30.9*67
14:35::05.918,1702679723882,120.62750358,31.42736276,3478527.73030536,559660.88496245,108.37300000,6.00000000,0.00300000,-0.01400000,0.00900000,-0.01500000,-0.01570000,0.00310000,-0.01610000,-0.00380000,0.99820000
$GPFPD,2292,542124.000,108.374,-0.289,0.971,31.42736275,120.62750358,11.030,0.002,-0.015,0.009,0.806,18,15,04*7B
$GTIMU,2292,542124.000,-0.0087,0.0462,-0.0049,-0.0154,-0.0050,1.0003,30.9*6E
14:35::06.019,1702679723982,120.62750358,31.42736275,3478527.72919656,559660.88496879,108.37400000,6.00000000,0.00200000,-0.01500000,0.00900000,-0.00870000,0.04620000,-0.00490000,-0.01540000,-0.00500000,1.00030000
$GPGGA,063506.00,3125.6417077,N,12037.6507959,E,1,15,1.2,3.922,M,7.80,M,,*6F
$GPFPD,2292,542124.100,108.373,-0.287,0.965,31.42736273,120.62750358,11.031,0.003,-0.013,0.010,0.806,18,15,04*7E
$GTIMU,2292,542124.100,0.0133,-0.0521,0.0099,-0.0191,-0.0045,1.0003,30.9*4A
14:35::06.118,1702679724082,120.62750358,31.42736273,3478527.72697897,559660.88498145,108.37300000,6.00000000,0.00300000,-0.01300000,0.01000000,0.01330000,-0.05210000,0.00990000,-0.01910000,-0.00450000,1.00030000
$GPFPD,2292,542124.200,108.373,-0.289,0.968,31.42736272,120.62750359,11.032,0.002,-0.016,0.009,0.801,18,15,04*76
$GTIMU,2292,542124.200,-0.0229,0.0241,-0.0014,-0.0143,-0.0043,0.9987,30.9*6C
14:35::06.218,1702679724182,120.62750359,31.42736272,3478527.72587560,559660.88593857,108.37300000,6.00000000,0.00200000,-0.01600000,0.00900000,-0.02290000,0.02410000,-0.00140000,-0.01430000,-0.00430000,0.99870000
$GPFPD,2292,542124.300,108.374,-0.288,0.970,31.42736272,120.62750359,11.031,0.003,-0.011,0.005,0.798,18,15,04*7E
$GTIMU,2292,542124.300,0.0083,0.0184,-0.0004,-0.0180,-0.0050,1.0006,30.9*4C
14:35::06.318,1702679724282,120.62750359,31.42736272,3478527.72587560,559660.88593857,108.37400000,6.00000000,0.00300000,-0.01100000,0.00500000,0.00830000,0.01840000,-0.00040000,-0.01800000,-0.00500000,1.00060000
$GPFPD,2292,542124.400,108.373,-0.287,0.965,31.42736274,120.62750360,11.022,0.004,-0.010,0.005,0.798,18,15,04*7D
$GTIMU,2292,542124.400,0.0025,-0.0533,0.0116,-0.0182,-0.0042,0.9992,30.9*40
14:35::06.419,1702679724382,120.62750360,31.42736274,3478527.72809862,559660.88687668,108.37300000,6.00000000,0.00400000,-0.01000000,0.00500000,0.00250000,-0.05330000,0.01160000,-0.01820000,-0.00420000,0.99920000
$GPFPD,2292,542124.500,108.374,-0.290,0.968,31.42736277,120.62750361,11.014,0.004,-0.012,0.004,0.806,18,16,04*7F
$GTIMU,2292,542124.500,-0.0292,0.0292,-0.0043,-0.0145,-0.0038,0.9991,30.9*6A
14:35::06.518,1702679724482,120.62750361,31.42736277,3478527.73143045,559660.88780847,108.37400000,6.00000000,0.00400000,-0.01200000,0.00400000,-0.02920000,0.02920000,-0.00430000,-0.01450000,-0.00380000,0.99910000
$GPFPD,2292,542124.600,108.374,-0.288,0.963,31.42736279,120.62750362,11.006,0.004,-0.010,0.006,0.806,18,16,04*70
$GTIMU,2292,542124.600,0.0122,-0.0453,0.0036,-0.0188,-0.0053,1.0011,30.9*40
14:35::06.618,1702679724582,120.62750362,31.42736279,3478527.73365348,559660.88874659,108.37400000,6.00000000,0.00400000,-0.01000000,0.00600000,0.01220000,-0.04530000,0.00360000,-0.01880000,-0.00530000,1.00110000
$GPFPD,2292,542124.700,108.374,-0.290,0.961,31.42736282,120.62750363,10.998,0.004,-0.012,0.005,0.801,18,16,04*76
$GTIMU,2292,542124.700,-0.0156,-0.0226,0.0048,-0.0153,-0.0039,0.9983,30.9*62
14:35::06.719,1702679724682,120.62750363,31.42736282,3478527.73698531,559660.88967838,108.37400000,6.00000000,0.00400000,-0.01200000,0.00500000,-0.01560000,-0.02260000,0.00480000,-0.01530000,-0.00390000,0.99830000
$GPFPD,2292,542124.800,108.374,-0.290,0.968,31.42736283,120.62750364,10.992,0.003,-0.013,0.005,0.801,18,16,04*7A
$GTIMU,2292,542124.800,-0.0081,0.0667,-0.0032,-0.0154,-0.0050,1.0001,30.9*69
14:35::06.819,1702679724782,120.62750364,31.42736283,3478527.73809953,559660.89062283,108.37400000,6.00000000,0.00300000,-0.01300000,0.00500000,-0.00810000,0.06670000,-0.00320000,-0.01540000,-0.00500000,1.00010000
$GPFPD,2292,542124.900,108.374,-0.289,0.964,31.42736282,120.62750365,10.992,0.004,-0.010,0.006,0.802,18,16,04*7B
$GTIMU,2292,542124.900,0.0031,-0.0408,0.0065,-0.0200,-0.0046,1.0004,30.9*47
14:35::06.918,1702679724882,120.62750365,31.42736282,3478527.73699616,559660.89157994,108.37400000,6.00000000,0.00400000,-0.01000000,0.00600000,0.00310000,-0.04080000,0.00650000,-0.02000000,-0.00460000,1.00040000
$GPFPD,2292,542125.000,108.374,-0.291,0.966,31.42736281,120.62750365,10.993,0.003,-0.013,0.004,0.802,18,16,04*7C
$GTIMU,2292,542125.000,-0.0172,0.0241,-0.0003,-0.0138,-0.0042,0.9978,30.9*69
14:35::07.018,1702679724982,120.62750365,31.42736281,3478527.73588737,559660.89158627,108.37400000,6.00000000,0.00300000,-0.01300000,0.00400000,-0.01720000,0.02410000,-0.00030000,-0.01380000,-0.00420000,0.99780000
$GPGGA,063507.00,3125.6416931,N,12037.6507897,E,1,16,1.2,3.913,M,7.80,M,,*66
$GPFPD,2292,542125.100,108.374,-0.289,0.966,31.42736280,120.62750365,10.993,0.003,-0.011,0.006,0.802,18,16,04*75
$GTIMU,2292,542125.100,0.0145,-0.0027,0.0002,-0.0185,-0.0048,1.0019,30.9*48
14:35::07.118,1702679725082,120.62750365,31.42736280,3478527.73477857,559660.89159261,108.37400000,6.00000000,0.00300000,-0.01100000,0.00600000,0.01450000,-0.00270000,0.00020000,-0.01850000,-0.00480000,1.00190000
$GPFPD,2292,542125.200,108.374,-0.289,0.961,31.42736279,120.62750366,10.994,0.004,-0.012,0.005,0.797,18,16,04*77
$GTIMU,2292,542125.200,-0.0077,-0.0578,0.0071,-0.0167,-0.0039,0.9985,30.9*63
14:35::07.218,1702679725182,120.62750366,31.42736279,3478527.73367520,559660.89254972,108.37400000,6.00000000,0.00400000,-0.01200000,0.00500000,-0.00770000,-0.05780000,0.00710000,-0.01670000,-0.00390000,0.99850000
$GPFPD,2292,542125.300,108.375,-0.291,0.968,31.42736278,120.62750366,10.995,0.003,-0.013,0.009,0.799,18,16,04*73
$GTIMU,2292,542125.300,-0.0166,0.0758,-0.0020,-0.0144,-0.0046,1.0004,30.9*66
14:35::07.319,1702679725282,120.62750366,31.42736278,3478527.73256640,559660.89255606,108.37500000,6.00000000,0.00300000,-0.01300000,0.00900000,-0.01660000,0.07580000,-0.00200000,-0.01440000,-0.00460000,1.00040000
$GPFPD,2292,542125.400,108.374,-0.288,0.964,31.42736277,120.62750366,11.001,0.002,-0.010,0.008,0.799,18,16,04*78
$GTIMU,2292,542125.400,0.0235,-0.0482,0.0116,-0.0200,-0.0068,0.9984,30.9*4F
14:35::07.418,1702679725382,120.62750366,31.42736277,3478527.73145760,559660.89256239,108.37400000,6.00000000,0.00200000,-0.01000000,0.00800000,0.02350000,-0.04820000,0.01160000,-0.02000000,-0.00680000,0.99840000
$GPFPD,2292,542125.500,108.375,-0.289,0.967,31.42736275,120.62750365,11.006,0.003,-0.013,0.009,0.801,18,15,04*72
$GTIMU,2292,542125.500,-0.0116,0.0354,-0.0077,-0.0144,-0.0022,1.0006,30.9*6D
14:35::07.519,1702679725482,120.62750365,31.42736275,3478527.72923457,559660.89162427,108.37500000,6.00000000,0.00300000,-0.01300000,0.00900000,-0.01160000,0.03540000,-0.00770000,-0.01440000,-0.00220000,1.00060000
$GPFPD,2292,542125.600,108.374,-0.289,0.966,31.42736274,120.62750365,11.012,0.004,-0.011,0.009,0.801,18,15,04*70
$GTIMU,2292,542125.600,-0.0076,-0.0118,0.0076,-0.0184,-0.0043,0.9998,30.9*6F
14:35::07.619,1702679725582,120.62750365,31.42736274,3478527.72812577,559660.89163060,108.37400000,6.00000000,0.00400000,-0.01100000,0.00900000,-0.00760000,-0.01180000,0.00760000,-0.01840000,-0.00430000,0.99980000
$GPFPD,2292,542125.700,108.374,-0.290,0.962,31.42736273,120.62750365,11.017,0.005,-0.011,0.008,0.801,18,15,04*7F
$GTIMU,2292,542125.700,-0.0083,-0.0430,0.0054,-0.0170,-0.0038,0.9984,30.9*61
14:35::07.718,1702679725682,120.62750365,31.42736273,3478527.72701697,559660.89163693,108.37400000,6.00000000,0.00500000,-0.01100000,0.00800000,-0.00830000,-0.04300000,0.00540000,-0.01700000,-0.00380000,0.99840000
$GPFPD,2292,542125.800,108.374,-0.288,0.967,31.42736271,120.62750365,11.022,0.003,-0.014,0.009,0.801,18,15,04*7A
$GTIMU,2292,542125.800,0.0174,0.0502,-0.0044,-0.0142,-0.0058,1.0003,30.9*42
14:35::07.818,1702679725782,120.62750365,31.42736271,3478527.72479938,559660.89164960,108.37400000,6.00000000,0.00300000,-0.01400000,0.00900000,0.01740000,0.05020000,-0.00440000,-0.01420000,-0.00580000,1.00030000
$GPFPD,2292,542125.900,108.374,-0.282,0.968,31.42736270,120.62750365,11.022,0.008,-0.014,0.006,0.801,18,15,04*7B
$GTIMU,2292,542125.900,0.0492,0.0075,0.0041,-0.0186,0.0010,0.9973,30.9*4C
14:35::07.918,1702679725882,120.62750365,31.42736270,3478527.72369058,559660.89165593,108.37400000,6.00000000,0.00800000,-0.01400000,0.00600000,0.04920000,0.00750000,0.00410000,-0.01860000,0.00100000,0.99730000
$GPFPD,2292,542126.000,108.374,-0.281,0.965,31.42736269,120.62750366,11.023,0.004,-0.011,0.008,0.801,18,15,04*72
$GTIMU,2292,542126.000,0.0088,-0.0294,0.0053,-0.0176,-0.0098,1.0014,30.9*48
14:35::08.018,1702679725982,120.62750366,31.42736269,3478527.72258721,559660.89261304,108.37400000,6.00000000,0.00400000,-0.01100000,0.00800000,0.00880000,-0.02940000,0.00530000,-0.01760000,-0.00980000,1.00140000
$GPGGA,063508.00,3125.6417017,N,12037.6508004,E,1,15,1.2,3.933,M,7.80,M,,*69
$GPFPD,2292,542126.100,108.375,-0.278,0.965,31.42736268,120.62750366,11.024,0.001,-0.011,0.007,0.801,18,15,04*78
$GTIMU,2292,542126.100,0.0230,-0.0084,-0.0090,-0.0160,-0.0063,0.9988,30.9*6E
14:35::08.118,1702679726082,120.62750366,31.42736268,3478527.72147841,559660.89261938,108.37500000,6.00000000,0.00100000,-0.01100000,0.00700000,0.02300000,-0.00840000,-0.00900000,-0.01600000,-0.00630000,0.99880000
$GPFPD,2292,542126.200,108.374,-0.270,0.959,31.42736267,120.62750367,11.025,0.005,-0.012,0.007,0.797,18,15,04*75
$GTIMU,2292,542126.200,0.0820,-0.0579,0.0126,-0.0172,-0.0005,0.9996,30.9*4C
14:35::08.218,1702679726182,120.62750367,31.42736267,3478527.72037504,559660.89357649,108.37400000,6.00000000,0.00500000,-0.01200000,0.00700000,0.08200000,-0.05790000,0.01260000,-0.01720000,-0.00050000,0.99960000
$GPFPD,2292,542126.300,108.375,-0.270,0.960,31.42736265,120.62750367,11.023,0.005,-0.014,0.005,0.801,18,15,04*7F
$GTIMU,2292,542126.300,-0.0082,0.0087,0.0014,-0.0152,-0.0048,1.0018,30.9*45
14:35::08.318,1702679726282,120.62750367,31.42736265,3478527.71815744,559660.89358916,108.37500000,6.00000000,0.00500000,-0.01400000,0.00500000,-0.00820000,0.00870000,0.00140000,-0.01520000,-0.00480000,1.00180000
$GPFPD,2292,542126.400,108.375,-0.270,0.962,31.42736263,120.62750368,11.015,0.005,-0.013,0.002,0.801,18,15,04*76
$GTIMU,2292,542126.400,0.0004,0.0195,0.0008,-0.0171,-0.0040,0.9972,30.9*6A
14:35::08.418,1702679726382,120.62750368,31.42736263,3478527.71594527,559660.89455260,108.37500000,6.00000000,0.00500000,-0.01300000,0.00200000,0.00040000,0.01950000,0.00080000,-0.01710000,-0.00400000,0.99720000
$GPFPD,2292,542126.500,108.374,-0.264,0.962,31.42736261,120.62750369,11.007,0.004,-0.013,0.004,0.802,18,15,04*77
$GTIMU,2292,542126.500,0.0543,-0.0010,0.0098,-0.0173,-0.0057,1.0015,30.9*41
14:35::08.518,1702679726482,120.62750369,31.42736261,3478527.71373311,559660.89551605,108.37400000,6.00000000,0.00400000,-0.01300000,0.00400000,0.05430000,-0.00100000,0.00980000,-0.01730000,-0.00570000,1.00150000
$GPFPD,2292,542126.600,108.376,-0.264,0.963,31.42736258,120.62750371,10.998,0.006,-0.014,0.002,0.802,18,15,04*79
$GTIMU,2292,542126.600,0.0031,0.0121,-0.0106,-0.0165,-0.0018,0.9980,30.9*46
14:35::08.618,1702679726582,120.62750371,31.42736258,3478527.71041757,559660.89743661,108.37600000,6.00000000,0.00600000,-0.01400000,0.00200000,0.00310000,0.01210000,-0.01060000,-0.01650000,-0.00180000,0.99800000
$GPFPD,2292,542126.700,108.376,-0.256,0.965,31.42736256,120.62750372,10.990,0.012,-0.016,-0.000,0.800,18,15,04*50
$GTIMU,2292,542126.700,0.0713,0.0143,0.0018,-0.0159,0.0024,0.9970,30.9*45
14:35::08.718,1702679726682,120.62750372,31.42736256,3478527.70820540,559660.89840006,108.37600000,6.00000000,0.01200000,-0.01600000,0.00000000,0.07130000,0.01430000,0.00180000,-0.01590000,0.00240000,0.99700000
$GPFPD,2292,542126.800,108.373,-0.219,0.969,31.42736253,120.62750375,10.983,0.045,-0.027,-0.016,0.800,18,15,04*5A
$GTIMU,2292,542126.800,0.3706,0.0426,0.0404,-0.0168,0.0327,0.9839,30.9*4C
14:35::08.818,1702679726782,120.62750375,31.42736253,3478527.70489529,559660.90127141,108.37300000,6.00000000,0.04500000,-0.02700000,-0.01600000,0.37060000,0.04260000,0.04040000,-0.01680000,0.03270000,0.98390000
$GPFPD,2292,542126.900,108.370,-0.158,0.975,31.42736249,120.62750383,10.981,0.093,-0.046,-0.012,0.799,18,15,04*54
$GTIMU,2292,542126.900,0.6056,0.0527,0.0427,-0.0147,0.0497,1.0035,30.9*46
14:35::08.918,1702679726882,120.62750383,31.42736249,3478527.70050353,559660.90890300,108.37000000,6.00000000,0.09300000,-0.04600000,-0.01200000,0.60560000,0.05270000,0.04270000,-0.01470000,0.04970000,1.00350000
$GPFPD,2292,542127.000,108.362,-0.147,0.981,31.42736245,120.62750395,10.981,0.129,-0.057,0.010,0.799,18,15,04*7E
$GTIMU,2292,542127.000,0.1062,0.0637,0.0769,-0.0182,0.0361,1.0228,30.9*4C
14:35::09.018,1702679726982,120.62750395,31.42736245,3478527.69613350,559660.92033773,108.36200000,6.00000000,0.12900000,-0.05700000,0.01000000,0.10620000,0.06370000,0.07690000,-0.01820000,0.03610000,1.02280000
$GPGGA,063509.00,3125.6417082,N,12037.6508132,E,1,15,1.2,3.922,M,7.80,M,,*60
$GPFPD,2292,542127.100,108.357,-0.159,0.985,31.42736239,120.62750410,10.982,0.164,-0.067,0.010,0.799,18,15,04*7A
$GTIMU,2292,542127.100,-0.1238,0.0360,0.0490,-0.0181,0.0346,0.9992,30.9*6B
14:35::09.118,1702679727082,120.62750410,31.42736239,3478527.68956215,559660.93463747,108.35700000,6.00000000,0.16400000,-0.06700000,0.01000000,-0.12380000,0.03600000,0.04900000,-0.01810000,0.03460000,0.99920000
$GPFPD,2292,542127.200,108.349,-0.170,0.995,31.42736233,120.62750429,10.983,0.192,-0.079,0.012,0.803,18,15,04*75
