$GPFPD,2292,530484.000,293.802,-0.627,0.848,31.42689547,120.62988618,11.392,-0.014,-0.003,-0.015,0.801,22,20,04*76
$GTIMU,2292,530484.000,0.0020,-0.0265,0.0019,-0.0185,-0.0097,1.0004,27.9*46
11:21::06.011,1702668083982,120.62988618,31.42689547,3478477.21337268,559887.71559009,293.80200000,6.00000000,-0.01400000,-0.00300000,-0.01500000,0.00200000,-0.02650000,0.00190000,-0.01850000,-0.00970000,1.00040000
$GPGGA,032106.00,3125.6138204,N,12037.7924969,E,1,20,0.8,4.890,M,7.80,M,,*6C
$GPFPD,2292,530484.100,293.803,-0.627,0.851,31.42689547,120.62988616,11.391,-0.012,0.000,-0.015,0.801,22,20,04*5B
$GTIMU,2292,530484.100,0.0021,0.0320,-0.0038,-0.0109,-0.0112,0.9991,27.9*40
11:21::06.111,1702668084082,120.62988616,31.42689547,3478477.21336178,559887.71368851,293.80300000,6.00000000,-0.01200000,0.00000000,-0.01500000,0.00210000,0.03200000,-0.00380000,-0.01090000,-0.01120000,0.99910000
$GPFPD,2292,530484.200,293.802,-0.627,0.849,31.42689547,120.62988615,11.389,-0.013,-0.002,-0.015,0.803,22,20,04*76
$GTIMU,2292,530484.200,0.0020,-0.0180,0.0168,-0.0171,-0.0101,1.0002,27.9*48
11:21::06.211,1702668084182,120.62988615,31.42689547,3478477.21335632,559887.71273773,293.80200000,6.00000000,-0.01300000,-0.00200000,-0.01500000,0.00200000,-0.01800000,0.01680000,-0.01710000,-0.01010000,1.00020000
$GPFPD,2292,530484.300,293.802,-0.628,0.853,31.42689546,120.62988614,11.390,-0.011,-0.003,-0.010,0.803,22,20,04*7D
$GTIMU,2292,530484.300,-0.0047,0.0440,-0.0060,-0.0136,-0.0101,0.9995,27.9*69
11:21::06.312,1702668084282,120.62988614,31.42689546,3478477.21224208,559887.71179329,293.80200000,6.00000000,-0.01100000,-0.00300000,-0.01000000,-0.00470000,0.04400000,-0.00600000,-0.01360000,-0.01010000,0.99950000
$GPFPD,2292,530484.400,293.802,-0.627,0.849,31.42689544,120.62988616,11.399,-0.013,-0.004,-0.011,0.803,22,20,04*73
$GTIMU,2292,530484.400,0.0037,-0.0419,0.0059,-0.0171,-0.0096,0.9987,27.9*4D
11:21::06.411,1702668084382,120.62988616,31.42689544,3478477.21003538,559887.71370758,293.80200000,6.00000000,-0.01300000,-0.00400000,-0.01100000,0.00370000,-0.04190000,0.00590000,-0.01710000,-0.00960000,0.99870000
$GPFPD,2292,530484.500,293.802,-0.627,0.851,31.42689542,120.62988617,11.408,-0.011,-0.003,-0.010,0.801,22,20,04*75
$GTIMU,2292,530484.500,0.0038,0.0201,-0.0015,-0.0124,-0.0108,1.0008,27.9*44
11:21::06.511,1702668084482,120.62988617,31.42689542,3478477.20782323,559887.71467108,293.80200000,6.00000000,-0.01100000,-0.00300000,-0.01000000,0.00380000,0.02010000,-0.00150000,-0.01240000,-0.01080000,1.00080000
$GPFPD,2292,530484.600,293.802,-0.628,0.847,31.42689540,120.62988618,11.417,-0.011,-0.004,-0.009,0.801,22,20,04*72
$GTIMU,2292,530484.600,0.0008,-0.0425,0.0099,-0.0162,-0.0112,1.0005,27.9*44
11:21::06.611,1702668084582,120.62988618,31.42689540,3478477.20561108,559887.71563458,293.80200000,6.00000000,-0.01100000,-0.00400000,-0.00900000,0.00080000,-0.04250000,0.00990000,-0.01620000,-0.01120000,1.00050000
$GPFPD,2292,530484.700,293.802,-0.628,0.853,31.42689538,120.62988619,11.426,-0.010,-0.002,-0.010,0.802,22,20,04*76
$GTIMU,2292,530484.700,-0.0018,0.0616,-0.0055,-0.0125,-0.0103,0.9984,27.9*60
11:21::06.712,1702668084682,120.62988619,31.42689538,3478477.20339893,559887.71659808,293.80200000,6.00000000,-0.01000000,-0.00200000,-0.01000000,-0.00180000,0.06160000,-0.00550000,-0.01250000,-0.01030000,0.99840000
$GPFPD,2292,530484.800,293.802,-0.626,0.848,31.42689537,120.62988620,11.432,-0.013,-0.004,-0.010,0.802,22,20,04*78
$GTIMU,2292,530484.800,0.0286,-0.0442,0.0098,-0.0175,-0.0092,1.0000,27.9*44
11:21::06.811,1702668084782,120.62988620,31.42689537,3478477.20229558,559887.71755523,293.80200000,6.00000000,-0.01300000,-0.00400000,-0.01000000,0.02860000,-0.04420000,0.00980000,-0.01750000,-0.00920000,1.00000000
$GPFPD,2292,530484.900,293.802,-0.628,0.852,31.42689537,120.62988619,11.431,-0.012,-0.001,-0.010,0.803,22,20,04*70
$GTIMU,2292,530484.900,-0.0223,0.0406,-0.0020,-0.0120,-0.0098,0.9995,27.9*63
11:21::06.911,1702668084882,120.62988619,31.42689537,3478477.20229013,559887.71660444,293.80200000,6.00000000,-0.01200000,-0.00100000,-0.01000000,-0.02230000,0.04060000,-0.00200000,-0.01200000,-0.00980000,0.99950000
$GPFPD,2292,530485.000,293.802,-0.626,0.850,31.42689536,120.62988617,11.430,-0.011,-0.004,-0.010,0.803,22,20,04*7C
$GTIMU,2292,530485.000,0.0213,-0.0163,0.0064,-0.0171,-0.0126,0.9996,27.9*40
11:21::07.012,1702668084982,120.62988617,31.42689536,3478477.20117043,559887.71470922,293.80200000,6.00000000,-0.01100000,-0.00400000,-0.01000000,0.02130000,-0.01630000,0.00640000,-0.01710000,-0.01260000,0.99960000
$GPGGA,032107.00,3125.6138189,N,12037.7924929,E,1,20,0.8,4.866,M,7.80,M,,*66
$GPFPD,2292,530485.100,293.802,-0.627,0.856,31.42689536,120.62988616,11.429,-0.010,-0.001,-0.010,0.803,22,20,04*77
$GTIMU,2292,530485.100,0.0016,0.0547,0.0036,-0.0115,-0.0094,0.9992,27.9*60
11:21::07.111,1702668085082,120.62988616,31.42689536,3478477.20116498,559887.71375843,293.80200000,6.00000000,-0.01000000,-0.00100000,-0.01000000,0.00160000,0.05470000,0.00360000,-0.01150000,-0.00940000,0.99920000
$GPFPD,2292,530485.200,293.802,-0.625,0.854,31.42689536,120.62988615,11.428,-0.014,-0.005,-0.010,0.804,22,20,04*71
$GTIMU,2292,530485.200,0.0185,-0.0101,-0.0021,-0.0194,-0.0090,0.9999,27.9*6E
11:21::07.211,1702668085182,120.62988615,31.42689536,3478477.20115953,559887.71280764,293.80200000,6.00000000,-0.01400000,-0.00500000,-0.01000000,0.01850000,-0.01010000,-0.00210000,-0.01940000,-0.00900000,0.99990000
$GPFPD,2292,530485.300,293.802,-0.627,0.854,31.42689537,120.62988615,11.427,-0.008,0.001,-0.012,0.805,23,20,04*5A
$GTIMU,2292,530485.300,-0.0167,-0.0049,-0.0054,-0.0123,-0.0104,1.0009,27.9*49
11:21::07.312,1702668085282,120.62988615,31.42689537,3478477.20226833,559887.71280129,293.80200000,6.00000000,-0.00800000,0.00100000,-0.01200000,-0.01670000,-0.00490000,-0.00540000,-0.01230000,-0.01040000,1.00090000
$GPFPD,2292,530485.400,293.801,-0.627,0.850,31.42689541,120.62988621,11.423,-0.007,-0.001,-0.014,0.805,23,20,04*7C
$GTIMU,2292,530485.400,0.0042,-0.0374,0.0110,-0.0163,-0.0121,0.9980,27.9*47
11:21::07.411,1702668085382,120.62988621,31.42689541,3478477.20673623,559887.71848059,293.80100000,6.00000000,-0.00700000,-0.00100000,-0.01400000,0.00420000,-0.03740000,0.01100000,-0.01630000,-0.01210000,0.99800000
$GPFPD,2292,530485.500,293.802,-0.625,0.853,31.42689545,120.62988628,11.419,-0.006,0.001,-0.013,0.805,23,20,04*50
$GTIMU,2292,530485.500,0.0214,0.0275,0.0007,-0.0125,-0.0101,1.0001,27.9*65
11:21::07.511,1702668085482,120.62988628,31.42689545,3478477.21120958,559887.72511068,293.80200000,6.00000000,-0.00600000,0.00100000,-0.01300000,0.02140000,0.02750000,0.00070000,-0.01250000,-0.01010000,1.00010000
$GPFPD,2292,530485.600,293.802,-0.626,0.852,31.42689550,120.62988633,11.415,-0.009,0.000,-0.012,0.805,23,20,04*5C
$GTIMU,2292,530485.600,-0.0111,-0.0118,-0.0003,-0.0163,-0.0078,1.0010,27.9*4C
11:21::07.611,1702668085582,120.62988633,31.42689550,3478477.21678083,559887.72983284,293.80200000,6.00000000,-0.00900000,0.00000000,-0.01200000,-0.01110000,-0.01180000,-0.00030000,-0.01630000,-0.00780000,1.00100000
$GPFPD,2292,530485.700,293.801,-0.627,0.849,31.42689554,120.62988639,11.411,-0.008,-0.002,-0.013,0.803,23,20,04*76
$GTIMU,2292,530485.700,-0.0054,-0.0271,0.0059,-0.0164,-0.0126,0.9985,27.9*63
11:21::07.712,1702668085682,120.62988639,31.42689554,3478477.22124873,559887.73551215,293.80100000,6.00000000,-0.00800000,-0.00200000,-0.01300000,-0.00540000,-0.02710000,0.00590000,-0.01640000,-0.01260000,0.99850000
$GPFPD,2292,530485.800,293.802,-0.627,0.847,31.42689557,120.62988644,11.408,-0.006,0.000,-0.013,0.803,23,20,04*54
$GTIMU,2292,530485.800,0.0082,-0.0192,-0.0026,-0.0119,-0.0107,0.9998,27.9*64
11:21::07.811,1702668085782,120.62988644,31.42689557,3478477.22460237,559887.74024702,293.80200000,6.00000000,-0.00600000,0.00000000,-0.01300000,0.00820000,-0.01920000,-0.00260000,-0.01190000,-0.01070000,0.99980000
$GPFPD,2292,530485.900,293.802,-0.627,0.844,31.42689557,120.62988643,11.407,-0.009,-0.000,-0.012,0.803,23,20,04*7D
$GTIMU,2292,530485.900,-0.0003,-0.0254,0.0048,-0.0165,-0.0084,1.0001,27.9*6D
11:21::07.912,1702668085882,120.62988643,31.42689557,3478477.22459692,559887.73929623,293.80200000,6.00000000,-0.00900000,0.00000000,-0.01200000,-0.00030000,-0.02540000,0.00480000,-0.01650000,-0.00840000,1.00010000
$GPFPD,2292,530486.000,293.802,-0.629,0.847,31.42689557,120.62988642,11.405,-0.008,0.002,-0.013,0.803,23,20,04*56
$GTIMU,2292,530486.000,-0.0115,0.0275,0.0008,-0.0124,-0.0105,0.9991,27.9*4E
11:21::08.011,1702668085982,120.62988642,31.42689557,3478477.22459147,559887.73834544,293.80200000,6.00000000,-0.00800000,0.00200000,-0.01300000,-0.01150000,0.02750000,0.00080000,-0.01240000,-0.01050000,0.99910000
$GPGGA,032108.00,3125.6138162,N,12037.7924958,E,1,20,0.8,4.918,M,7.80,M,,*62
$GPFPD,2292,530486.100,293.802,-0.628,0.842,31.42689557,120.62988641,11.404,-0.008,-0.002,-0.013,0.803,23,20,04*7C
$GTIMU,2292,530486.100,0.0076,-0.0425,-0.0015,-0.0178,-0.0116,0.9995,27.9*66
11:21::08.111,1702668086082,120.62988641,31.42689557,3478477.22458602,559887.73739465,293.80200000,6.00000000,-0.00800000,-0.00200000,-0.01300000,0.00760000,-0.04250000,-0.00150000,-0.01780000,-0.01160000,0.99950000
$GPFPD,2292,530486.200,293.802,-0.629,0.844,31.42689557,120.62988640,11.403,-0.007,0.001,-0.012,0.805,23,20,04*58
$GTIMU,2292,530486.200,-0.0030,0.0212,0.0008,-0.0113,-0.0101,1.0003,27.9*41
11:21::08.211,1702668086182,120.62988640,31.42689557,3478477.22458057,559887.73644387,293.80200000,6.00000000,-0.00700000,0.00100000,-0.01200000,-0.00300000,0.02120000,0.00080000,-0.01130000,-0.01010000,1.00030000
$GPFPD,2292,530486.300,293.802,-0.629,0.842,31.42689558,120.62988640,11.402,-0.009,0.001,-0.015,0.802,23,20,04*5F
$GTIMU,2292,530486.300,0.0060,-0.0220,0.0093,-0.0164,-0.0089,0.9982,27.9*4F
11:21::08.311,1702668086282,120.62988640,31.42689558,3478477.22568937,559887.73643751,293.80200000,6.00000000,-0.00900000,0.00100000,-0.01500000,0.00600000,-0.02200000,0.00930000,-0.01640000,-0.00890000,0.99820000
$GPFPD,2292,530486.400,293.802,-0.630,0.847,31.42689560,120.62988639,11.401,-0.008,0.003,-0.014,0.802,23,20,04*51
$GTIMU,2292,530486.400,-0.0149,0.0530,0.0037,-0.0130,-0.0110,1.0011,27.9*41
11:21::08.411,1702668086382,120.62988639,31.42689560,3478477.22790152,559887.73547401,293.80200000,6.00000000,-0.00800000,0.00300000,-0.01400000,-0.01490000,0.05300000,0.00370000,-0.01300000,-0.01100000,1.00110000
$GPFPD,2292,530486.500,293.802,-0.629,0.842,31.42689562,120.62988638,11.401,-0.008,-0.001,-0.014,0.801,23,20,04*72
$GTIMU,2292,530486.500,0.0195,-0.0521,0.0070,-0.0179,-0.0115,0.9991,27.9*43
11:21::08.511,1702668086482,120.62988638,31.42689562,3478477.23011367,559887.73451051,293.80200000,6.00000000,-0.00800000,-0.00100000,-0.01400000,0.01950000,-0.05210000,0.00700000,-0.01790000,-0.01150000,0.99910000
$GPFPD,2292,530486.600,293.802,-0.630,0.843,31.42689564,120.62988637,11.401,-0.007,0.002,-0.015,0.801,23,20,04*51
$GTIMU,2292,530486.600,-0.0104,0.0184,-0.0043,-0.0114,-0.0105,0.9992,27.9*67
11:21::08.611,1702668086582,120.62988637,31.42689564,3478477.23232582,559887.73354701,293.80200000,6.00000000,-0.00700000,0.00200000,-0.01500000,-0.01040000,0.01840000,-0.00430000,-0.01140000,-0.01050000,0.99920000
$GPFPD,2292,530486.700,293.802,-0.627,0.841,31.42689566,120.62988636,11.400,-0.009,0.001,-0.015,0.803,23,20,04*59
$GTIMU,2292,530486.700,0.0298,-0.0254,0.0064,-0.0166,-0.0088,0.9996,27.9*43
11:21::08.711,1702668086682,120.62988636,31.42689566,3478477.23453796,559887.73258351,293.80200000,6.00000000,-0.00900000,0.00100000,-0.01500000,0.02980000,-0.02540000,0.00640000,-0.01660000,-0.00880000,0.99960000
$GPFPD,2292,530486.800,293.802,-0.631,0.845,31.42689567,120.62988635,11.399,-0.008,0.002,-0.013,0.803,23,20,04*54
$GTIMU,2292,530486.800,-0.0291,0.0406,-0.0020,-0.0131,-0.0106,1.0010,27.9*63
11:21::08.811,1702668086782,120.62988635,31.42689567,3478477.23564131,559887.73162637,293.80200000,6.00000000,-0.00800000,0.00200000,-0.01300000,-0.02910000,0.04060000,-0.00200000,-0.01310000,-0.01060000,1.00100000
$GPFPD,2292,530486.900,293.803,-0.631,0.839,31.42689567,120.62988634,11.398,-0.009,-0.001,-0.015,0.802,23,20,04*77
$GTIMU,2292,530486.900,0.0030,-0.0527,-0.0072,-0.0177,-0.0110,0.9979,27.9*65
11:21::08.912,1702668086882,120.62988634,31.42689567,3478477.23563586,559887.73067558,293.80300000,6.00000000,-0.00900000,-0.00100000,-0.01500000,0.00300000,-0.05270000,-0.00720000,-0.01770000,-0.01100000,0.99790000
$GPFPD,2292,530487.000,293.803,-0.631,0.839,31.42689568,120.62988633,11.397,-0.007,0.002,-0.013,0.802,23,20,04*5E
$GTIMU,2292,530487.000,0.0026,0.0007,0.0082,-0.0109,-0.0109,1.0017,27.9*6A
11:21::09.011,1702668086982,120.62988633,31.42689568,3478477.23673921,559887.72971843,293.80300000,6.00000000,-0.00700000,0.00200000,-0.01300000,0.00260000,0.00070000,0.00820000,-0.01090000,-0.01090000,1.00170000
$GPGGA,032109.00,3125.6138224,N,12037.7924888,E,1,20,0.8,4.976,M,7.80,M,,*66
$GPFPD,2292,530487.100,293.803,-0.634,0.839,31.42689568,120.62988632,11.395,-0.010,0.002,-0.015,0.802,23,20,04*59
$GTIMU,2292,530487.100,-0.0281,0.0025,-0.0071,-0.0156,-0.0083,0.9980,27.9*6E
11:21::09.111,1702668087082,120.62988632,31.42689568,3478477.23673376,559887.72876764,293.80300000,6.00000000,-0.01000000,0.00200000,-0.01500000,-0.02810000,0.00250000,-0.00710000,-0.01560000,-0.00830000,0.99800000
$GPFPD,2292,530487.200,293.803,-0.633,0.842,31.42689568,120.62988631,11.394,-0.008,0.001,-0.014,0.801,23,20,04*5B
$GTIMU,2292,530487.200,0.0089,0.0235,0.0048,-0.0147,-0.0125,1.0006,27.9*6C
11:21::09.211,1702668087182,120.62988631,31.42689568,3478477.23672831,559887.72781686,293.80300000,6.00000000,-0.00800000,0.00100000,-0.01400000,0.00890000,0.02350000,0.00480000,-0.01470000,-0.01250000,1.00060000
$GPFPD,2292,530487.300,293.803,-0.635,0.840,31.42689568,120.62988632,11.392,-0.004,0.001,-0.017,0.802,22,20,04*56
$GTIMU,2292,530487.300,-0.0133,-0.0163,0.0031,-0.0148,-0.0107,0.9994,27.9*66
11:21::09.311,1702668087282,120.62988632,31.42689568,3478477.23673376,559887.72876764,293.80300000,6.00000000,-0.00400000,0.00100000,-0.01700000,-0.01330000,-0.01630000,0.00310000,-0.01480000,-0.01070000,0.99940000
$GPFPD,2292,530487.400,293.803,-0.634,0.838,31.42689569,120.62988637,11.389,-0.006,0.001,-0.017,0.802,22,20,04*53
$GTIMU,2292,530487.400,0.0116,-0.0203,0.0008,-0.0153,-0.0085,0.9991,27.9*40
11:21::09.411,1702668087382,120.62988637,31.42689569,3478477.23786981,559887.73351523,293.80300000,6.00000000,-0.00600000,0.00100000,-0.01700000,0.01160000,-0.02030000,0.00080000,-0.01530000,-0.00850000,0.99910000
$GPFPD,2292,530487.500,293.803,-0.638,0.840,31.42689569,120.62988642,11.386,-0.005,0.002,-0.017,0.803,22,20,04*5D
$GTIMU,2292,530487.500,-0.0405,0.0224,0.0043,-0.0130,-0.0106,0.9999,27.9*4B
11:21::09.511,1702668087482,120.62988642,31.42689569,3478477.23789706,559887.73826917,293.80300000,6.00000000,-0.00500000,0.00200000,-0.01700000,-0.04050000,0.02240000,0.00430000,-0.01300000,-0.01060000,0.99990000
$GPFPD,2292,530487.600,293.806,-0.639,0.833,31.42689570,120.62988647,11.384,-0.004,-0.002,-0.014,0.803,22,20,04*7E
$GTIMU,2292,530487.600,-0.0033,-0.0680,-0.0254,-0.0177,-0.0139,1.0033,27.9*49
11:21::09.611,1702668087582,120.62988647,31.42689570,3478477.23903311,559887.74301675,293.80600000,6.00000000,-0.00400000,-0.00200000,-0.01400000,-0.00330000,-0.06800000,-0.02540000,-0.01770000,-0.01390000,1.00330000
$GPFPD,2292,530487.700,293.802,-0.641,0.832,31.42689570,120.62988652,11.381,-0.004,0.008,-0.013,0.799,22,20,04*58
$GTIMU,2292,530487.700,-0.0126,-0.0101,0.0407,-0.0060,-0.0060,1.0000,27.9*64
11:21::09.711,1702668087682,120.62988652,31.42689570,3478477.23906037,559887.74777069,293.80200000,6.00000000,-0.00400000,0.00800000,-0.01300000,-0.01260000,-0.01010000,0.04070000,-0.00600000,-0.00600000,1.00000000
$GPFPD,2292,530487.800,293.799,-0.639,0.845,31.42689571,120.62988655,11.379,-0.006,0.000,-0.021,0.799,22,20,04*5F
$GTIMU,2292,530487.800,0.0154,0.1354,0.0276,-0.0216,-0.0122,0.9917,27.9*6E
11:21::09.811,1702668087782,120.62988655,31.42689571,3478477.24018552,559887.75061670,293.79900000,6.00000000,-0.00600000,0.00000000,-0.02100000,0.01540000,0.13540000,0.02760000,-0.02160000,-0.01220000,0.99170000
$GPFPD,2292,530487.900,293.805,-0.633,0.854,31.42689571,120.62988655,11.376,-0.004,0.002,-0.023,0.800,22,20,04*5C
$GTIMU,2292,530487.900,0.0673,0.0883,-0.0535,-0.0125,-0.0112,0.9973,27.9*42
11:21::09.911,1702668087882,120.62988655,31.42689571,3478477.24018552,559887.75061670,293.80500000,6.00000000,-0.00400000,0.00200000,-0.02300000,0.06730000,0.08830000,-0.05350000,-0.01250000,-0.01120000,0.99730000
$GPFPD,2292,530488.000,293.801,-0.631,0.844,31.42689571,120.62988654,11.375,-0.005,-0.000,-0.009,0.800,22,20,04*79
$GTIMU,2292,530488.000,0.0269,-0.0977,0.0446,-0.0177,-0.0110,1.0140,27.9*41
11:21::10.011,1702668087982,120.62988654,31.42689571,3478477.24018007,559887.74966591,293.80100000,6.00000000,-0.00500000,0.00000000,-0.00900000,0.02690000,-0.09770000,0.04460000,-0.01770000,-0.01100000,1.01400000
$GPFPD,2292,530488.100,293.803,-0.640,0.842,31.42689571,120.62988654,11.373,-0.007,0.002,-0.016,0.800,22,20,04*5F
$GTIMU,2292,530488.100,-0.0895,-0.0162,-0.0241,-0.0131,-0.0079,0.9926,27.9*48
$GPFPD,2292,530488.200,293.802,-0.638,0.842,31.42689572,120.62988653,11.372,-0.004,0.003,-0.019,0.803,22,20,04*59
$GTIMU,2292,530488.200,0.0196,-0.0021,0.0110,-0.0129,-0.0126,0.9968,27.9*48
$GPFPD,2292,530488.300,293.802,-0.637,0.848,31.42689572,120.62988652,11.372,-0.005,0.003,-0.013,0.803,22,20,04*57
$GTIMU,2292,530488.300,0.0169,0.0604,0.0036,-0.0155,-0.0103,1.0023,27.9*62
$GPFPD,2292,530488.400,293.803,-0.636,0.845,31.42689575,120.62988651,11.379,-0.006,0.002,-0.012,0.803,22,20,04*51
$GTIMU,2292,530488.400,0.0088,-0.0300,0.0008,-0.0166,-0.0107,1.0002,27.9*4D
$GPFPD,2292,530488.500,293.802,-0.640,0.845,31.42689578,120.62988649,11.387,-0.006,0.004,-0.014,0.803,22,20,04*55
$GTIMU,2292,530488.500,-0.0337,0.0019,0.0100,-0.0121,-0.0094,0.9983,27.9*49
$GPFPD,2292,530488.600,293.802,-0.638,0.844,31.42689581,120.62988647,11.394,-0.006,0.002,-0.013,0.803,22,20,04*53
$GTIMU,2292,530488.600,0.0230,-0.0078,-0.0044,-0.0167,-0.0116,1.0001,27.9*65
$GPFPD,2292,530488.700,293.802,-0.639,0.847,31.42689584,120.62988646,11.401,-0.006,0.005,-0.013,0.805,22,20,04*5E
$GTIMU,2292,530488.700,-0.0013,0.0349,0.0031,-0.0120,-0.0096,0.9999,27.9*43
$GPFPD,2292,530488.800,293.801,-0.640,0.845,31.42689586,120.62988644,11.406,-0.006,0.003,-0.014,0.805,22,20,04*58
$GTIMU,2292,530488.800,-0.0099,-0.0214,0.0122,-0.0172,-0.0108,0.9991,27.9*60
$GPFPD,2292,530488.900,293.802,-0.640,0.845,31.42689587,120.62988644,11.405,-0.005,0.003,-0.014,0.803,22,20,04*5D
$GTIMU,2292,530488.900,0.0065,0.0019,-0.0089,-0.0140,-0.0115,0.9996,27.9*4A
$GPFPD,2292,530489.000,293.802,-0.641,0.844,31.42689587,120.62988643,11.403,-0.007,0.005,-0.013,0.803,22,20,04*57
$GTIMU,2292,530489.000,-0.0065,-0.0032,0.0031,-0.0136,-0.0081,0.9999,27.9*67
$GPGGA,032110.00,3125.6138258,N,12037.7924830,E,1,20,0.8,5.015,M,7.80,M,,*6B
$GPGGA,032111.00,3125.6138216,N,12037.7924856,E,1,20,0.8,5.029,M,7.80,M,,*6F
$GPFPD,2292,530489.100,293.803,-0.641,0.843,31.42689587,120.62988642,11.402,-0.006,0.002,-0.013,0.803,22,20,04*56
$GTIMU,2292,530489.100,0.0009,-0.0095,0.0008,-0.0165,-0.0124,1.0002,27.9*4D
11:21::11.111,1702668089082,120.62988642,31.42689587,3478477.25785545,559887.73815476,293.80300000,6.00000000,-0.00600000,0.00200000,-0.01300000,0.00090000,-0.00950000,0.00080000,-0.01650000,-0.01240000,1.00020000
$GPFPD,2292,530489.200,293.803,-0.643,0.843,31.42689587,120.62988642,11.401,-0.006,0.004,-0.014,0.805,22,20,04*53
$GTIMU,2292,530489.200,-0.0156,0.0013,-0.0049,-0.0125,-0.0105,0.9989,27.9*66
11:21::11.211,1702668089182,120.62988642,31.42689587,3478477.25785545,559887.73815476,293.80300000,6.00000000,-0.00600000,0.00400000,-0.01400000,-0.01560000,0.00130000,-0.00490000,-0.01250000,-0.01050000,0.99890000
$GPFPD,2292,530489.300,293.802,-0.641,0.843,31.42689586,120.62988641,11.399,-0.005,-0.001,-0.016,0.803,22,20,04*7A
$GTIMU,2292,530489.300,0.0179,-0.0021,0.0082,-0.0158,-0.0104,1.0001,27.9*4B
11:21::11.311,1702668089282,120.62988641,31.42689586,3478477.25674120,559887.73721033,293.80200000,6.00000000,-0.00500000,-0.00100000,-0.01600000,0.01790000,-0.00210000,0.00820000,-0.01580000,-0.01040000,1.00010000
$GPFPD,2292,530489.400,293.802,-0.643,0.844,31.42689581,120.62988642,11.398,-0.006,0.000,-0.016,0.803,22,20,04*52
$GTIMU,2292,530489.400,-0.0150,0.0121,-0.0015,-0.0136,-0.0091,0.9993,27.9*6A
11:21::11.411,1702668089382,120.62988642,31.42689581,3478477.25120265,559887.73819290,293.80200000,6.00000000,-0.00600000,0.00000000,-0.01600000,-0.01500000,0.01210000,-0.00150000,-0.01360000,-0.00910000,0.99930000
$GPFPD,2292,530489.500,293.802,-0.642,0.844,31.42689576,120.62988642,11.396,-0.005,-0.002,-0.015,0.801,22,20,04*79
$GTIMU,2292,530489.500,0.0117,0.0024,0.0036,-0.0158,-0.0132,1.0004,27.9*62
11:21::11.511,1702668089482,120.62988642,31.42689576,3478477.24565866,559887.73822468,293.80200000,6.00000000,-0.00500000,-0.00200000,-0.01500000,0.01170000,0.00240000,0.00360000,-0.01580000,-0.01320000,1.00040000
$GPFPD,2292,530489.600,293.802,-0.643,0.842,31.42689571,120.62988642,11.395,-0.006,-0.001,-0.016,0.801,22,20,04*7A
$GTIMU,2292,530489.600,-0.0025,-0.0192,0.0088,-0.0142,-0.0094,0.9988,27.9*6B
11:21::11.612,1702668089582,120.62988642,31.42689571,3478477.24011466,559887.73825646,293.80200000,6.00000000,-0.00600000,-0.00100000,-0.01600000,-0.00250000,-0.01920000,0.00880000,-0.01420000,-0.00940000,0.99880000
$GPFPD,2292,530489.700,293.803,-0.642,0.845,31.42689566,120.62988642,11.393,-0.005,-0.000,-0.015,0.803,22,20,04*7F
$GTIMU,2292,530489.700,0.0117,0.0280,-0.0072,-0.0139,-0.0106,1.0005,27.9*40
11:21::11.711,1702668089682,120.62988642,31.42689566,3478477.23457067,559887.73828824,293.80300000,6.00000000,-0.00500000,0.00000000,-0.01500000,0.01170000,0.02800000,-0.00720000,-0.01390000,-0.01060000,1.00050000
$GPFPD,2292,530489.800,293.802,-0.642,0.843,31.42689562,120.62988642,11.392,-0.007,-0.000,-0.016,0.803,22,20,04*73
$GTIMU,2292,530489.800,-0.0020,-0.0112,0.0082,-0.0154,-0.0091,0.9985,27.9*6D
11:21::11.811,1702668089782,120.62988642,31.42689562,3478477.23013547,559887.73831366,293.80200000,6.00000000,-0.00700000,0.00000000,-0.01600000,-0.00200000,-0.01120000,0.00820000,-0.01540000,-0.00910000,0.99850000
$GPFPD,2292,530489.900,293.802,-0.641,0.846,31.42689562,120.62988642,11.390,-0.006,-0.001,-0.015,0.802,22,20,04*74
$GTIMU,2292,530489.900,0.0129,0.0258,0.0008,-0.0143,-0.0120,1.0009,27.9*63
11:21::11.911,1702668089882,120.62988642,31.42689562,3478477.23013547,559887.73831366,293.80200000,6.00000000,-0.00600000,-0.00100000,-0.01500000,0.01290000,0.02580000,0.00080000,-0.01430000,-0.01200000,1.00090000
$GPFPD,2292,530490.000,293.802,-0.642,0.843,31.42689562,120.62988641,11.389,-0.006,-0.001,-0.016,0.802,22,20,04*7B
$GTIMU,2292,530490.000,0.0008,-0.0277,0.0025,-0.0152,-0.0108,0.9988,27.9*4D
11:21::12.011,1702668089982,120.62988641,31.42689562,3478477.23013002,559887.73736287,293.80200000,6.00000000,-0.00600000,-0.00100000,-0.01600000,0.00080000,-0.02770000,0.00250000,-0.01520000,-0.01080000,0.99880000
$GPGGA,032112.00,3125.6138186,N,12037.7924835,E,1,20,0.8,5.053,M,7.80,M,,*6E
$GPFPD,2292,530490.100,293.802,-0.641,0.845,31.42689562,120.62988640,11.387,-0.005,-0.001,-0.015,0.802,22,20,04*70
$GTIMU,2292,530490.100,0.0123,0.0235,0.0008,-0.0139,-0.0107,1.0000,27.9*63
11:21::12.111,1702668090082,120.62988640,31.42689562,3478477.23012457,559887.73641209,293.80200000,6.00000000,-0.00500000,-0.00100000,-0.01500000,0.01230000,0.02350000,0.00080000,-0.01390000,-0.01070000,1.00000000
$GPFPD,2292,530490.200,293.802,-0.642,0.843,31.42689562,120.62988640,11.386,-0.008,0.000,-0.015,0.804,22,20,04*50
$GTIMU,2292,530490.200,-0.0082,-0.0186,0.0065,-0.0150,-0.0082,0.9998,27.9*69
11:21::12.211,1702668090182,120.62988640,31.42689562,3478477.23012457,559887.73641209,293.80200000,6.00000000,-0.00800000,0.00000000,-0.01500000,-0.00820000,-0.01860000,0.00650000,-0.01500000,-0.00820000,0.99980000
$GPFPD,2292,530490.300,293.802,-0.641,0.843,31.42689563,120.62988641,11.386,-0.001,-0.001,-0.014,0.804,22,20,04*76
$GTIMU,2292,530490.300,0.0100,-0.0032,-0.0004,-0.0155,-0.0132,0.9997,27.9*6A
11:21::12.311,1702668090282,120.62988641,31.42689563,3478477.23123882,559887.73735652,293.80200000,6.00000000,-0.00100000,-0.00100000,-0.01400000,0.01000000,-0.00320000,-0.00040000,-0.01550000,-0.01320000,0.99970000
$GPFPD,2292,530490.400,293.802,-0.641,0.843,31.42689565,120.62988647,11.391,-0.000,0.002,-0.014,0.804,22,20,04*58
$GTIMU,2292,530490.400,0.0060,0.0064,0.0048,-0.0123,-0.0103,0.9989,27.9*6D
11:21::12.411,1702668090382,120.62988647,31.42689565,3478477.23348912,559887.74304853,293.80200000,6.00000000,0.00000000,0.00200000,-0.01400000,0.00600000,0.00640000,0.00480000,-0.01230000,-0.01030000,0.99890000
$GPFPD,2292,530490.500,293.801,-0.639,0.843,31.42689566,120.62988653,11.396,-0.002,-0.000,-0.013,0.804,22,20,04*7E
$GTIMU,2292,530490.500,0.0168,-0.0061,0.0053,-0.0173,-0.0094,1.0005,27.9*48
11:21::12.511,1702668090482,120.62988653,31.42689566,3478477.23463062,559887.74874691,293.80100000,6.00000000,-0.00200000,0.00000000,-0.01300000,0.01680000,-0.00610000,0.00530000,-0.01730000,-0.00940000,1.00050000
$GPFPD,2292,530490.600,293.802,-0.641,0.845,31.42689568,120.62988660,11.401,-0.002,0.002,-0.014,0.804,22,20,04*58
$GTIMU,2292,530490.600,-0.0178,0.0241,-0.0049,-0.0126,-0.0102,0.9994,27.9*6B
11:21::12.611,1702668090582,120.62988660,31.42689568,3478477.23688637,559887.75538971,293.80200000,6.00000000,-0.00200000,0.00200000,-0.01400000,-0.01780000,0.02410000,-0.00490000,-0.01260000,-0.01020000,0.99940000
$GPFPD,2292,530490.700,293.802,-0.639,0.839,31.42689570,120.62988666,11.406,-0.002,-0.001,-0.014,0.803,22,20,04*7C
$GTIMU,2292,530490.700,0.0280,-0.0521,0.0047,-0.0171,-0.0121,0.9994,27.9*4F
11:21::12.711,1702668090682,120.62988666,31.42689570,3478477.23913667,559887.76108173,293.80200000,6.00000000,-0.00200000,-0.00100000,-0.01400000,0.02800000,-0.05210000,0.00470000,-0.01710000,-0.01210000,0.99940000
$GPFPD,2292,530490.800,293.802,-0.640,0.842,31.42689572,120.62988671,11.409,-0.001,0.003,-0.013,0.803,22,20,04*51
$GTIMU,2292,530490.800,-0.0030,0.0269,0.0031,-0.0109,-0.0092,1.0005,27.9*4C
11:21::12.811,1702668090782,120.62988671,31.42689572,3478477.24138152,559887.76582295,293.80200000,6.00000000,-0.00100000,0.00300000,-0.01300000,-0.00300000,0.02690000,0.00310000,-0.01090000,-0.00920000,1.00050000
$GPFPD,2292,530490.900,293.802,-0.640,0.841,31.42689572,120.62988670,11.408,-0.002,0.000,-0.015,0.802,22,20,04*54
$GTIMU,2292,530490.900,0.0014,-0.0055,0.0002,-0.0172,-0.0107,0.9980,27.9*4B
11:21::12.911,1702668090882,120.62988670,31.42689572,3478477.24137607,559887.76487217,293.80200000,6.00000000,-0.00200000,0.00000000,-0.01500000,0.00140000,-0.00550000,0.00020000,-0.01720000,-0.01070000,0.99800000
$GPFPD,2292,530491.000,293.802,-0.641,0.846,31.42689572,120.62988670,11.407,-0.001,0.002,-0.014,0.802,22,20,04*55
$GTIMU,2292,530491.000,-0.0053,0.0451,0.0071,-0.0124,-0.0106,1.0003,27.9*4C
11:21::13.011,1702668090982,120.62988670,31.42689572,3478477.24137607,559887.76487217,293.80200000,6.00000000,-0.00100000,0.00200000,-0.01400000,-0.00530000,0.04510000,0.00710000,-0.01240000,-0.01060000,1.00030000
$GPFPD,2292,530491$GPGGA,03.100,293.2113.00,3801,-0.6125.6138239,0.84005,N,1203,31.42687.79250659572,120,E,1,20,0.62988670.8,5.113,,11.405,-M,7.80,M,0.003,-0.,*6E
002,-0.013,0.802,22,20,04*74
$GTIMU,2292,530491.100,0.0144,-0.0544,0.0065,-0.0187,-0.0111,1.0004,27.9*42
11:21::13.111,1702668091082,120.62988670,31.42689572,3478477.24137607,559887.76487217,293.80100000,6.00000000,-0.00300000,-0.00200000,-0.01300000,0.01440000,-0.05440000,0.00650000,-0.01870000,-0.01110000,1.00040000
$GPFPD,2292,530491.200,293.803,-0.641,0.842,31.42689572,120.62988670,11.404,-0.001,0.002,-0.014,0.804,22,20,04*57
$GTIMU,2292,530491.200,-0.0093,0.0184,-0.0174,-0.0108,-0.0104,0.9988,27.9*68
11:21::13.211,1702668091182,120.62988670,31.42689572,3478477.24137607,559887.76487217,293.80300000,6.00000000,-0.00100000,0.00200000,-0.01400000,-0.00930000,0.01840000,-0.01740000,-0.01080000,-0.01040000,0.99880000
$GPFPD,2292,530491.300,293.801,-0.639,0.839,31.42689572,120.62988669,11.402,-0.003,-0.000,-0.016,0.805,22,20,04*77
$GTIMU,2292,530491.300,0.0253,-0.0232,0.0218,-0.0163,-0.0110,1.0004,27.9*40
11:21::13.311,1702668091282,120.62988669,31.42689572,3478477.24137062,559887.76392138,293.80100000,6.00000000,-0.00300000,0.00000000,-0.01600000,0.02530000,-0.02320000,0.02180000,-0.01630000,-0.01100000,1.00040000
$GPFPD,2292,530491.400,293.802,-0.641,0.843,31.42689572,120.62988665,11.401,-0.005,0.002,-0.017,0.805,22,20,04*56
$GTIMU,2292,530491.400,-0.0223,0.0389,-0.0106,-0.0129,-0.0086,0.9992,27.9*6E
11:21::13.411,1702668091382,120.62988665,31.42689572,3478477.24134882,559887.76011823,293.80200000,6.00000000,-0.00500000,0.00200000,-0.01700000,-0.02230000,0.03890000,-0.01060000,-0.01290000,-0.00860000,0.99920000
$GPFPD,2292,530491.500,293.802,-0.640,0.841,31.42689572,120.62988662,11.399,-0.004,-0.001,-0.016,0.803,22,20,04*7D
$GTIMU,2292,530491.500,0.0184,-0.0231,0.0036,-0.0172,-0.0126,1.0000,27.9*43
11:21::13.511,1702668091482,120.62988662,31.42689572,3478477.24133247,559887.75726586,293.80200000,6.00000000,-0.00400000,-0.00100000,-0.01600000,0.01840000,-0.02310000,0.00360000,-0.01720000,-0.01260000,1.00000000
$GPFPD,2292,530491.600,293.801,-0.641,0.841,31.42689572,120.62988658,11.397,-0.003,0.001,-0.017,0.803,22,20,04*50
$GTIMU,2292,530491.600,-0.0076,0.0087,0.0111,-0.0121,-0.0100,0.9989,27.9*45
11:21::13.611,1702668091582,120.62988658,31.42689572,3478477.24131067,559887.75346271,293.80100000,6.00000000,-0.00300000,0.00100000,-0.01700000,-0.00760000,0.00870000,0.01110000,-0.01210000,-0.01000000,0.99890000
$GPFPD,2292,530491.700,293.803,-0.639,0.840,31.42689572,120.62988655,11.396,-0.004,-0.000,-0.017,0.805,22,20,04*7C
$GTIMU,2292,530491.700,0.0184,-0.0112,-0.0084,-0.0164,-0.0103,0.9999,27.9*66
11:21::13.711,1702668091682,120.62988655,31.42689572,3478477.24129431,559887.75061034,293.80300000,6.00000000,-0.00400000,0.00000000,-0.01700000,0.01840000,-0.01120000,-0.00840000,-0.01640000,-0.01030000,0.99990000
$GPFPD,2292,530491.800,293.802,-0.640,0.844,31.42689572,120.62988652,11.394,-0.003,0.002,-0.016,0.805,22,20,04*54
$GTIMU,2292,530491.800,-0.0007,0.0417,0.0082,-0.0124,-0.0106,1.0002,27.9*4A
11:21::13.811,1702668091782,120.62988652,31.42689572,3478477.24127796,559887.74775798,293.80200000,6.00000000,-0.00300000,0.00200000,-0.01600000,-0.00070000,0.04170000,0.00820000,-0.01240000,-0.01060000,1.00020000
$GPFPD,2292,530491.900,293.802,-0.640,0.840,31.42689572,120.62988652,11.392,-0.005,-0.001,-0.017,0.803,22,20,04*78
$GTIMU,2292,530491.900,-0.0026,-0.0379,0.0048,-0.0179,-0.0105,0.9991,27.9*6C
11:21::13.912,1702668091882,120.62988652,31.42689572,3478477.24127796,559887.74775798,293.80200000,6.00000000,-0.00500000,-0.00100000,-0.01700000,-0.00260000,-0.03790000,0.00480000,-0.01790000,-0.01050000,0.99910000
$GPFPD,2292,530492.000,293.803,-0.640,0.839,31.42689572,120.62988651,11.391,-0.004,0.000,-0.016,0.803,22,20,04*51
$GTIMU,2292,530492.000,0.0060,-0.0066,-0.0083,-0.0128,-0.0111,1.0001,27.9*67
11:21::14.011,1702668091982,120.62988651,31.42689572,3478477.24127251,559887.74680719,293.80300000,6.00000000,-0.00400000,0.00000000,-0.01600000,0.00600000,-0.00660000,-0.00830000,-0.01280000,-0.01110000,1.00010000
$GPGGA,032114.00,3125.6138166,N,12037.7925068,E,1,20,0.8,5.132,M,7.80,M,,*61
$GPFPD,2292,530492.100,293.802,-0.640,0.839,31.42689572,120.62988651,11.389,-0.004,0.002,-0.016,0.803,22,20,04*5A
$GTIMU,2292,530492.100,-0.0025,-0.0044,0.0133,-0.0133,-0.0094,0.9996,27.9*64
11:21::14.111,1702668092082,120.62988651,31.42689572,3478477.24127251,559887.74680719,293.80200000,6.00000000,-0.00400000,0.00200000,-0.01600000,-0.00250000,-0.00440000,0.01330000,-0.01330000,-0.00940000,0.99960000
$GPFPD,2292,530492.200,293.802,-0.639,0.840,31.42689572,120.62988650,11.387,-0.004,-0.001,-0.016,0.804,22,20,04*7F
$GTIMU,2292,530492.200,0.0157,0.0115,-0.0010,-0.0167,-0.0121,0.9993,27.9*40
11:21::14.211,1702668092182,120.62988650,31.42689572,3478477.24126706,559887.74585640,293.80200000,6.00000000,-0.00400000,-0.00100000,-0.01600000,0.01570000,0.01150000,-0.00100000,-0.01670000,-0.01210000,0.99930000
$GPFPD,2292,530492.300,293.802,-0.640,0.841,31.42689572,120.62988650,11.389,-0.003,-0.000,-0.011,0.803,22,20,04*79
$GTIMU,2292,530492.300,-0.0093,0.0138,0.0008,-0.0125,-0.0096,1.0001,27.9*4F
11:21::14.312,1702668092282,120.62988650,31.42689572,3478477.24126706,559887.74585640,293.80200000,6.00000000,-0.00300000,0.00000000,-0.01100000,-0.00930000,0.01380000,0.00080000,-0.01250000,-0.00960000,1.00010000
$GPFPD,2292,530492.400,293.802,-0.640,0.837,31.42689570,120.62988651,11.400,-0.005,-0.003,-0.011,0.803,22,20,04*7F
$GTIMU,2292,530492.400,0.0065,-0.0436,0.0088,-0.0178,-0.0102,0.9992,27.9*4D
11:21::14.411,1702668092382,120.62988651,31.42689570,3478477.23905492,559887.74681991,293.80200000,6.00000000,-0.00500000,-0.00300000,-0.01100000,0.00650000,-0.04360000,0.00880000,-0.01780000,-0.01020000,0.99920000
$GPFPD,2292,530492.500,293.803,-0.640,0.839,31.42689569,120.62988652,11.411,-0.003,0.000,-0.011,0.804,22,20,04*55
$GTIMU,2292,530492.500,0.0066,0.0297,-0.0066,-0.0109,-0.0113,0.9998,27.9*4E
11:21::14.511,1702668092482,120.62988652,31.42689569,3478477.23795157,559887.74777705,293.80300000,6.00000000,-0.00300000,0.00000000,-0.01100000,0.00660000,0.02970000,-0.00660000,-0.01090000,-0.01130000,0.99980000
$GPFPD,2292,530492.600,293.802,-0.640,0.838,31.42689567,120.62988653,11.423,-0.004,-0.001,-0.011,0.804,22,20,04*73
$GTIMU,2292,530492.600,0.0003,-0.0101,0.0093,-0.0167,-0.0099,0.9998,27.9*43
11:21::14.612,1702668092582,120.62988653,31.42689567,3478477.23573942,559887.74874055,293.80200000,6.00000000,-0.00400000,-0.00100000,-0.01100000,0.00030000,-0.01010000,0.00930000,-0.01670000,-0.00990000,0.99980000
$GPFPD,2292,530492.700,293.802,-0.640,0.840,31.42689566,120.62988653,11.434,-0.003,-0.001,-0.011,0.805,22,20,04*7C
$GTIMU,2292,530492.700,0.0060,0.0235,0.0002,-0.0137,-0.0110,0.9996,27.9*6D
11:21::14.711,1702668092682,120.62988653,31.42689566,3478477.23463062,559887.74874691,293.80200000,6.00000000,-0.00300000,-0.00100000,-0.01100000,0.00600000,0.02350000,0.00020000,-0.01370000,-0.01100000,0.99960000
$GPFPD,2292,530492.800,293.802,-0.640,0.838,31.42689565,120.62988654,11.442,-0.005,-0.001,-0.011,0.805,22,20,04*7F
$GTIMU,2292,530492.800,-0.0009,-0.0260,0.0008,-0.0150,-0.0093,0.9991,27.9*6B
11:21::14.811,1702668092782,120.62988654,31.42689565,3478477.23352727,559887.74970405,293.80200000,6.00000000,-0.00500000,-0.00100000,-0.01100000,-0.00090000,-0.02600000,0.00080000,-0.01500000,-0.00930000,0.99910000
$GPFPD,2292,530492.900,293.802,-0.639,0.840,31.42689564,120.62988653,11.441,-0.003,-0.001,-0.010,0.802,22,20,04*7A
$GTIMU,2292,530492.900,0.0117,0.0206,0.0030,-0.0143,-0.0122,1.0005,27.9*6A
11:21::14.911,1702668092882,120.62988653,31.42689564,3478477.23241302,559887.74875962,293.80200000,6.00000000,-0.00300000,-0.00100000,-0.01000000,0.01170000,0.02060000,0.00300000,-0.01430000,-0.01220000,1.00050000
$GPFPD,2292,530493.000,293.802,-0.640,0.838,31.42689564,120.62988653,11.440,-0.004,-0.001,-0.011,0.802,22,20,04*74
$GTIMU,2292,530493.000,-0.0054,-0.0174,0.0048,-0.0148,-0.0101,0.9991,27.9*6B
11:21::15.012,1702668092982,120.62988653,31.42689564,3478477.23241302,559887.74875962,293.80200000,6.00000000,-0.00400000,-0.00100000,-0.01100000,-0.00540000,-0.01740000,0.00480000,-0.01480000,-0.01010000,0.99910000
$GPGGA,032115.00,3125.6138162,N,12037.7925043,E,1,20,0.8,5.173,M,7.80,M,,*68
$GPFPD,2292,530493.100,293.802,-0.639,0.839,31.42689564,120.62988653,11.439,-0.003,-0.001,-0.010,0.802,22,20,04*72
$GTIMU,2292,530493.100,0.0134,0.0184,0.0002,-0.0142,-0.0107,1.0003,27.9*6A
11:21::15.111,1702668093082,120.62988653,31.42689564,3478477.23241302,559887.74875962,293.80200000,6.00000000,-0.00300000,-0.00100000,-0.01000000,0.01340000,0.01840000,0.00020000,-0.01420000,-0.01070000,1.00030000
$GPFPD,2292,530493.200,293.802,-0.640,0.837,31.42689564,120.62988652,11.438,-0.005,-0.001,-0.011,0.803,22,20,04*77
$GTIMU,2292,530493.200,-0.0003,-0.0226,0.0042,-0.0148,-0.0092,0.9986,27.9*68
11:21::15.211,1702668093182,120.62988652,31.42689564,3478477.23240757,559887.74780883,293.80200000,6.00000000,-0.00500000,-0.00100000,-0.01100000,-0.00030000,-0.02260000,0.00420000,-0.01480000,-0.00920000,0.99860000
$GPFPD,2292,530493.300,293.802,-0.639,0.840,31.42689564,120.62988652,11.438,-0.003,-0.002,-0.009,0.805,23,20,04*73
$GTIMU,2292,530493.300,0.0095,0.0286,0.0002,-0.0144,-0.0120,1.0013,27.9*61
11:21::15.311,1702668093282,120.62988652,31.42689564,3478477.23240757,559887.74780883,293.80200000,6.00000000,-0.00300000,-0.00200000,-0.00900000,0.00950000,0.02860000,0.00020000,-0.01440000,-0.01200000,1.00130000
$GPFPD,2292,530493.400,293.801,-0.640,0.835,31.42689564,120.62988653,11.444,-0.002,-0.002,-0.010,0.805,23,20,04*78
$GTIMU,2292,530493.400,-0.0100,-0.0476,0.0122,-0.0148,-0.0113,0.9985,27.9*63
11:21::15.412,1702668093382,120.62988653,31.42689564,3478477.23241302,559887.74875962,293.80100000,6.00000000,-0.00200000,-0.00200000,-0.01000000,-0.01000000,-0.04760000,0.01220000,-0.01480000,-0.01130000,0.99850000
$GPFPD,2292,530493.500,293.799,-0.638,0.836,31.42689564,120.62988653,11.449,-0.001,-0.002,-0.010,0.801,23,20,04*71
$GTIMU,2292,530493.500,0.0214,0.0115,0.0224,-0.0137,-0.0112,0.9989,27.9*64
11:21::15.511,1702668093482,120.62988653,31.42689564,3478477.23241302,559887.74875962,293.79900000,6.00000000,-0.00100000,-0.00200000,-0.01000000,0.02140000,0.01150000,0.02240000,-0.01370000,-0.01120000,0.99890000
$GPFPD,2292,530493.600,293.800,-0.627,0.830,31.42689564,120.62988654,11.454,-0.012,0.000,-0.016,0.801,23,20,04*55
$GTIMU,2292,530493.600,0.1143,-0.0567,-0.0029,-0.0169,0.0002,0.9936,27.9*4B
11:21::15.611,1702668093582,120.62988654,31.42689564,3478477.23241847,559887.74971041,293.80000000,6.00000000,-0.01200000,0.00000000,-0.01600000,0.11430000,-0.05670000,-0.00290000,-0.01690000,0.00020000,0.99360000
$GPFPD,2292,530493.700,293.803,-0.595,0.825,31.42689564,120.62988652,11.458,-0.037,0.013,-0.026,0.804,22,20,04*51
$GTIMU,2292,530493.700,0.3226,-0.0500,-0.0205,-0.0133,0.0186,0.9905,27.9*47
11:21::15.712,1702668093682,120.62988652,31.42689564,3478477.23240757,559887.74780883,293.80300000,6.00000000,-0.03700000,0.01300000,-0.02600000,0.32260000,-0.05000000,-0.02050000,-0.01330000,0.01860000,0.99050000
$GPFPD,2292,530493.800,293.803,-0.544,0.826,31.42689566,120.62988647,11.460,-0.081,0.032,-0.031,0.804,22,20,04*54
$GTIMU,2292,530493.800,0.5163,0.0073,0.0035,-0.0137,0.0397,0.9950,27.9*4A
11:21::15.811,1702668093782,120.62988647,31.42689566,3478477.23459792,559887.74304218,293.80300000,6.00000000,-0.08100000,0.03200000,-0.03100000,0.51630000,0.00730000,0.00350000,-0.01370000,0.03970000,0.99500000
$GPFPD,2292,530493.900,293.803,-0.501,0.825,31.42689570,120.62988636,11.457,-0.128,0.054,-0.019,0.805,22,20,04*5B
$GTIMU,2292,530493.900,0.4380,-0.0006,0.0077,-0.0141,0.0439,1.0123,27.9*6A
11:21::15.911,1702668093882,120.62988636,31.42689570,3478477.23897316,559887.73255808,293.80300000,6.00000000,-0.12800000,0.05400000,-0.01900000,0.43800000,-0.00060000,0.00770000,-0.01410000,0.04390000,1.01230000
$GPFPD,2292,530494.000,293.803,-0.483,0.830,31.42689576,120.62988619,11.456,-0.178,0.075,-0.011,0.805,22,20,04*5E
$GTIMU,2292,530494.000,0.1775,0.0484,0.0044,-0.0144,0.0473,1.0077,27.9*47
11:21::16.011,1702668093982,120.62988619,31.42689576,3478477.24553330,559887.71635655,293.80300000,6.00000000,-0.17800000,0.07500000,-0.01100000,0.17750000,0.04840000,0.00440000,-0.01440000,0.04730000,1.00770000
$GPGGA,032116.00,3125.6138663,N,12037.7924875,E,1,20,0.8,5.223,M,7.80,M,,*67
$GPFPD,2292,530494.100,293.802,-0.471,0.838,31.42689584,120.62988598,11.455,-0.228,0.099,-0.011,0.805,22,20,04*5B
$GTIMU,2292,530494.100,0.1220,0.0774,0.0187,-0.0135,0.0492,0.9999,27.9*49
11:21::16.111,1702668094082,120.62988598,31.42689584,3478477.25428924,559887.69633915,293.80200000,6.00000000,-0.22800000,0.09900000,-0.01100000,0.12200000,0.07740000,0.01870000,-0.01350000,0.04920000,0.99990000
$GPFPD,2292,530494.200,293.797,-0.448,0.847,31.42689594,120.62988571,11.453,-0.289,0.126,-0.017,0.804,22,20,04*50
$GTIMU,2292,530494.200,0.2368,0.0944,0.0538,-0.0140,0.0606,0.9943,27.9*43
11:21::16.211,1702668094182,120.62988571,31.42689594,3478477.26523007,559887.67060432,293.79700000,6.00000000,-0.28900000,0.12600000,-0.01700000,0.23680000,0.09440000,0.05380000,-0.01400000,0.06060000,0.99430000
$GPFPD,2292,530494.300,293.781,-0.433,0.854,31.42689607,120.62988538,11.453,-0.338,0.152,-0.007,0.803,22,20,04*52
$GTIMU,2292,530494.300,0.1439,0.0687,0.1561,-0.0128,0.0515,1.0106,27.9*41
11:21::16.311,1702668094282,120.62988538,31.42689607,3478477.27946460,559887.63914568,293.78100000,6.00000000,-0.33800000,0.15200000,-0.00700000,0.14390000,0.06870000,0.15610000,-0.01280000,0.05150000,1.01060000
$GPFPD,2292,530494.400,293.759,-0.447,0.861,31.42689624,120.62988504,11.457,-0.379,0.170,-0.006,0.803,22,20,04*5B
$GTIMU,2292,530494.400,-0.1358,0.0654,0.2247,-0.0153,0.0383,1.0009,27.9*6E
11:21::16.411,1702668094382,120.62988504,31.42689624,3478477.29812887,559887.60671084,293.75900000,6.00000000,-0.37900000,0.17000000,-0.00600000,-0.13580000,0.06540000,0.22470000,-0.01530000,0.03830000,1.00090000
$GPFPD,2292,530494.500,293.729,-0.437,0.870,31.42689643,120.62988466,11.460,-0.426,0.193,-0.017,0.797,22,20,04*58
$GTIMU,2292,530494.500,0.0973,0.0987,0.3079,-0.0124,0.0469,0.9890,27.9*4C
11:21::16.511,1702668094482,120.62988466,31.42689643,3478477.31898895,559887.57046012,293.72900000,6.00000000,-0.42600000,0.19300000,-0.01700000,0.09730000,0.09870000,0.30790000,-0.01240000,0.04690000,0.98900000
$GPFPD,2292,530494.600,293.686,-0.424,0.881,31.42689664,120.62988423,11.463,-0.470,0.214,-0.011,0.797,22,20,04*5D
$GTIMU,2292,530494.600,0.1289,0.1065,0.4350,-0.0147,0.0425,1.0058,27.9*42
11:21::16.611,1702668094582,120.62988423,31.42689664,3478477.34203936,559887.52944276,293.68600000,6.00000000,-0.47000000,0.21400000,-0.01100000,0.12890000,0.10650000,0.43500000,-0.01470000,0.04250000,1.00580000
$GPFPD,2292,530494.700,293.636,-0.422,0.891,31.42689686,120.62988375,11.467,-0.513,0.232,-0.010,0.798,22,20,04*52
$GTIMU,2292,530494.700,0.0149,0.0939,0.5026,-0.0156,0.0407,1.0010,27.9*43
11:21::16.711,1702668094682,120.62988375,31.42689686,3478477.36617133,559887.48366510,293.63600000,6.00000000,-0.51300000,0.23200000,-0.01000000,0.01490000,0.09390000,0.50260000,-0.01560000,0.04070000,1.00100000
$GPFPD,2292,530494.800,293.582,-0.415,0.900,31.42689710,120.62988322,11.469,-0.559,0.251,-0.012,0.798,22,20,04*57
$GTIMU,2292,530494.800,0.0655,0.0910,0.5413,-0.0171,0.0442,0.9985,27.9*46
11:21::16.811,1702668094782,120.62988322,31.42689710,3478477.39249365,559887.43312079,293.58200000,6.00000000,-0.55900000,0.25100000,-0.01200000,0.06550000,0.09100000,0.54130000,-0.01710000,0.04420000,0.99850000
$GPFPD,2292,530494.900,293.519,-0.409,0.902,31.42689733,120.62988261,11.468,-0.601,0.269,-0.012,0.806,22,20,04*50
$GTIMU,2292,530494.900,0.0543,0.0176,0.6320,-0.0156,0.0399,1.0002,27.9*45
11:21::16.911,1702668094882,120.62988261,31.42689733,3478477.41766356,559887.37497653,293.51900000,6.00000000,-0.60100000,0.26900000,-0.01200000,0.05430000,0.01760000,0.63200000,-0.01560000,0.03990000,1.00020000
$GPFPD,2292,530495.000,293.447,-0.402,0.904,31.42689758,120.62988195,11.467,-0.640,0.286,-0.012,0.806,22,20,04*51
$GTIMU,2292,530495.000,0.0573,0.0135,0.7175,-0.0152,0.0371,1.0000,27.9*4A
11:21::17.012,1702668094982,120.62988195,31.42689758,3478477.44502382,559887.31206562,293.44700000,6.00000000,-0.64000000,0.28600000,-0.01200000,0.05730000,0.01350000,0.71750000,-0.01520000,0.03710000,1.00000000
$GPGGA,032117.00,3125.6139689,N,12037.7922263,E,1,20,0.8,5.277,M,7.80,M,,*69
$GPFPD,2292,530495.100,293.375,-0.391,0.903,31.42689785,120.62988126,11.466,-0.682,0.301,-0.010,0.806,22,20,04*57
$GTIMU,2292,530495.100,0.1022,-0.0115,0.7265,-0.0192,0.0387,1.0017,27.9*65
11:21::17.111,1702668095082,120.62988126,31.42689785,3478477.47458533,559887.24628964,293.37500000,6.00000000,-0.68200000,0.30100000,-0.01000000,0.10220000,-0.01150000,0.72650000,-0.01920000,0.03870000,1.00170000
$GPFPD,2292,530495.200,293.301,-0.384,0.898,31.42689813,120.62988052,11.465,-0.722,0.316,-0.010,0.798,22,20,04*54
$GTIMU,2292,530495.200,0.0590,-0.0548,0.7477,-0.0171,0.0373,0.9994,27.9*6E
11:21::17.211,1702668095182,120.62988052,31.42689813,3478477.50522838,559887.17575335,293.30100000,6.00000000,-0.72200000,0.31600000,-0.01000000,0.05900000,-0.05480000,0.74770000,-0.01710000,0.03730000,0.99940000
$GPFPD,2292,530495.300,293.215,-0.374,0.893,31.42689842,120.62987975,11.466,-0.758,0.335,-0.007,0.815,21,21,04*53
$GTIMU,2292,530495.300,0.0951,-0.0543,0.8600,-0.0124,0.0390,0.9982,27.9*62
11:21::17.312,1702668095282,120.62987975,31.42689842,3478477.53696389,559887.10235835,293.21500000,6.00000000,-0.75800000,0.33500000,-0.00700000,0.09510000,-0.05430000,0.86000000,-0.01240000,0.03900000,0.99820000
$GPFPD,2292,530495.400,293.127,-0.359,0.891,31.42689872,120.62987897,11.478,-0.801,0.348,-0.006,0.815,21,21,04*52
$GTIMU,2292,530495.400,0.1366,-0.0305,0.8787,-0.0205,0.0396,1.0011,27.9*6D
11:21::17.411,1702668095382,120.62987897,31.42689872,3478477.56980274,559887.02800621,293.12700000,6.00000000,-0.80100000,0.34800000,-0.00600000,0.13660000,-0.03050000,0.87870000,-0.02050000,0.03960000,1.00110000
$GPFPD,2292,530495.500,293.045,-0.339,0.874,31.42689903,120.62987814,11.490,-0.848,0.363,-0.012,0.808,21,21,04*5C
$GTIMU,2292,530495.500,0.1884,-0.1726,0.8250,-0.0198,0.0445,0.9933,27.9*6F
11:21::17.511,1702668095482,120.62987814,31.42689903,3478477.60372315,559886.94889376,293.04500000,6.00000000,-0.84800000,0.36300000,-0.01200000,0.18840000,-0.17260000,0.82500000,-0.01980000,0.04450000,0.99330000
$GPFPD,2292,530495.600,292.950,-0.310,0.844,31.42689935,120.62987727,11.501,-0.895,0.382,-0.017,0.808,21,21,04*52
$GTIMU,2292,530495.600,0.2827,-0.2979,0.9582,-0.0158,0.0462,0.9952,27.9*66
11:21::17.611,1702668095582,120.62987727,31.42689935,3478477.63873055,559886.86597182,292.95000000,6.00000000,-0.89500000,0.38200000,-0.01700000,0.28270000,-0.29790000,0.95820000,-0.01580000,0.04620000,0.99520000
$GPFPD,2292,530495.700,292.839,-0.271,0.807,31.42689970,120.62987633,11.512,-0.954,0.404,-0.017,0.802,22,21,04*57
$GTIMU,2292,530495.700,0.3795,-0.3788,1.1199,-0.0169,0.0597,0.9993,27.9*62
11:21::17.711,1702668095682,120.62987633,31.42689970,3478477.67702620,559886.77637528,292.83900000,6.00000000,-0.95400000,0.40400000,-0.01700000,0.37950000,-0.37880000,1.11990000,-0.01690000,0.05970000,0.99930000
$GPFPD,2292,530495.800,292.732,-0.227,0.768,31.42690007,120.62987533,11.520,-1.026,0.434,-0.017,0.802,22,21,04*54
$GTIMU,2292,530495.800,0.4288,-0.3902,1.0788,-0.0143,0.0755,1.0003,27.9*64
11:21::17.811,1702668095782,120.62987533,31.42690007,3478477.71750674,559886.68106131,292.73200000,6.00000000,-1.02600000,0.43400000,-0.01700000,0.42880000,-0.39020000,1.07880000,-0.01430000,0.07550000,1.00030000
$GPFPD,2292,530495.900,292.608,-0.192,0.769,31.42690048,120.62987421,11.519,-1.098,0.476,-0.010,0.801,22,21,04*55
$GTIMU,2292,530495.900,0.3329,0.0087,1.2489,-0.0016,0.0815,1.0075,27.9*49
11:21::17.911,1702668095882,120.62987421,31.42690048,3478477.76235708,559886.57431246,292.60800000,6.00000000,-1.09800000,0.47600000,-0.01000000,0.33290000,0.00870000,1.24890000,-0.00160000,0.08150000,1.00750000
$GPFPD,2292,530496.000,292.478,-0.168,0.806,31.42690092,120.62987301,11.518,-1.177,0.505,-0.007,0.801,22,21,04*59
$GTIMU,2292,530496.000,0.2259,0.3612,1.3005,-0.0170,0.0833,1.0031,27.9*49
11:21::18.011,1702668095982,120.62987301,31.42690092,3478477.81049022,559886.45993824,292.47800000,6.00000000,-1.17700000,0.50500000,-0.00700000,0.22590000,0.36120000,1.30050000,-0.01700000,0.08330000,1.00310000
$GPGGA,032118.00,3125.6141571,N,12037.7916773,E,1,21,0.7,5.262,M,7.80,M,,*64
$GPFPD,2292,530496.100,292.352,-0.138,0.832,31.42690139,120.62987173,11.517,-1.253,0.531,-0.012,0.801,22,21,04*5B
$GTIMU,2292,530496.100,0.2875,0.2623,1.2661,-0.0199,0.0796,0.9951,27.9*4A
11:21::18.111,1702668096082,120.62987173,31.42690139,3478477.86190616,559886.33793865,292.35200000,6.00000000,-1.25300000,0.53100000,-0.01200000,0.28750000,0.26230000,1.26610000,-0.01990000,0.07960000,0.99510000
$GPFPD,2292,530496.200,292.222,-0.092,0.825,31.42690188,120.62987037,11.516,-1.333,0.552,-0.018,0.802,22,21,04*58
$GTIMU,2292,530496.200,0.4414,-0.0761,1.3074,-0.0249,0.0826,0.9930,27.9*62
11:21::18.211,1702668096182,120.62987037,31.42690188,3478477.91549609,559886.20832004,292.22200000,6.00000000,-1.33300000,0.55200000,-0.01800000,0.44140000,-0.07610000,1.30740000,-0.02490000,0.08260000,0.99300000
$GPFPD,2292,530496.300,292.077,-0.056,0.812,31.42690240,120.62986894,11.517,-1.401,0.585,-0.005,0.799,22,21,04*5C
$GTIMU,2292,530496.300,0.3406,-0.1331,1.4559,-0.0122,0.0805,1.0081,27.9*6E
11:21::18.311,1702668096282,120.62986894,31.42690240,3478477.97237427,559886.07202686,292.07700000,6.00000000,-1.40100000,0.58500000,-0.00500000,0.34060000,-0.13310000,1.45590000,-0.01220000,0.08050000,1.00810000
$GPFPD,2292,530496.400,291.933,-0.044,0.787,31.42690296,120.62986748,11.529,-1.478,0.606,0.003,0.799,22,21,04*74
$GTIMU,2292,530496.400,0.1025,-0.2415,1.4445,-0.0233,0.0797,1.0080,27.9*66
11:21::18.411,1702668096382,120.62986748,31.42690296,3478478.03367130,559885.93285588,291.93300000,6.00000000,-1.47800000,0.60600000,0.00300000,0.10250000,-0.24150000,1.44450000,-0.02330000,0.07970000,1.00800000
$GPFPD,2292,530496.500,291.804,-0.041,0.754,31.42690354,120.62986595,11.542,-1.560,0.632,-0.004,0.807,22,21,04*56
$GTIMU,2292,530496.500,0.0157,-0.3305,1.2919,-0.0200,0.0875,0.9925,27.9*6A
11:21::18.511,1702668096482,120.62986595,31.42690354,3478478.09714778,559885.78701668,291.80400000,6.00000000,-1.56000000,0.63200000,-0.00400000,0.01570000,-0.33050000,1.29190000,-0.02000000,0.08750000,0.99250000
$GPFPD,2292,530496.600,291.656,-0.018,0.722,31.42690415,120.62986432,11.553,-1.641,0.667,-0.011,0.807,22,21,04*5B
$GTIMU,2292,530496.600,0.2205,-0.3195,1.4842,-0.0100,0.0902,0.9921,27.9*6B
11:21::18.611,1702668096582,120.62986432,31.42690415,3478478.16389616,559885.63165054,291.65600000,6.00000000,-1.64100000,0.66700000,-0.01100000,0.22050000,-0.31950000,1.48420000,-0.01000000,0.09020000,0.99210000
$GPFPD,2292,530496.700,291.507,0.009,0.695,31.42690479,120.62986261,11.565,-1.730,0.692,-0.004,0.807,22,21,04*7B
$GTIMU,2292,530496.700,0.2479,-0.2758,1.5001,-0.0221,0.0945,1.0070,27.9*69
11:21::18.711,1702668096682,120.62986261,31.42690479,3478478.23392733,559885.46865902,291.50700000,6.00000000,-1.73000000,0.69200000,-0.00400000,0.24790000,-0.27580000,1.50010000,-0.02210000,0.09450000,1.00700000
$GPFPD,2292,530496.800,291.383,0.037,0.656,31.42690544,120.62986079,11.574,-1.825,0.719,-0.002,0.807,22,21,04*77
$GTIMU,2292,530496.800,0.2754,-0.3875,1.2422,-0.0216,0.1009,1.0016,27.9*6D
11:21::18.811,1702668096782,120.62986079,31.42690544,3478478.30500736,559885.29520248,291.38300000,6.00000000,-1.82500000,0.71900000,-0.00200000,0.27540000,-0.38750000,1.24220000,-0.02160000,0.10090000,1.00160000
$GPFPD,2292,530496.900,291.252,0.047,0.620,31.42690611,120.62985882,11.575,-1.916,0.760,0.006,0.800,22,21,04*51
$GTIMU,2292,530496.900,0.0895,-0.3516,1.3077,-0.0062,0.1027,1.0074,27.9*68
11:21::18.911,1702668096882,120.62985882,31.42690611,3478478.37822323,559885.10747142,291.25200000,6.00000000,-1.91600000,0.76000000,0.00600000,0.08950000,-0.35160000,1.30770000,-0.00620000,0.10270000,1.00740000
$GPFPD,2292,530497.000,291.121,0.042,0.580,31.42690681,120.62985675,11.575,-2.009,0.788,0.008,0.800,22,21,04*51
$GTIMU,2292,530497.000,-0.0656,-0.3976,1.3143,-0.0181,0.1005,1.0021,27.9*4C
11:21::19.011,1702668096982,120.62985675,31.42690681,3478478.45471101,559884.91021341,291.12100000,6.00000000,-2.00900000,0.78800000,0.00800000,-0.06560000,-0.39760000,1.31430000,-0.01810000,0.10050000,1.00210000
$GPGGA,032119.00,3125.6144799,N,12037.7906715,E,1,20,0.8,5.206,M,7.80,M,,*69
$GPFPD,2292,530497.100,291.014,0.025,0.591,31.42690753,120.62985459,11.576,-2.096,0.820,0.016,0.800,22,21,04*53
$GTIMU,2292,530497.100,-0.1811,0.1110,1.0728,-0.0119,0.0962,1.0080,27.9*6D
11:21::19.111,1702668097082,120.62985459,31.42690753,3478478.53336734,559884.70438561,291.01400000,6.00000000,-2.09600000,0.82000000,0.01600000,-0.18110000,0.11100000,1.07280000,-0.01190000,0.09620000,1.00800000
$GPFPD,2292,530497.200,290.901,-0.009,0.608,31.42690829,120.62985234,11.578,-2.179,0.857,0.024,0.806,22,20,04*7B
$GTIMU,2292,530497.200,-0.3431,0.1730,1.1274,-0.0055,0.0928,1.0077,27.9*64
11:21::19.211,1702668097182,120.62985234,31.42690829,3478478.61640982,559884.48997529,290.90100000,6.00000000,-2.17900000,0.85700000,0.02400000,-0.34310000,0.17300000,1.12740000,-0.00550000,0.09280000,1.00770000
$GPFPD,2292,530497.300,290.791,-0.064,0.630,31.42690908,120.62985001,11.580,-2.262,0.880,0.015,0.805,22,20,04*7E
$GTIMU,2292,530497.300,-0.5572,0.2129,1.0965,-0.0229,0.0909,0.9934,27.9*6E
11:21::19.311,1702668097282,120.62985001,31.42690908,3478478.70273510,559884.26793960,290.79100000,6.00000000,-2.26200000,0.88000000,0.01500000,-0.55720000,0.21290000,1.09650000,-0.02290000,0.09090000,0.99340000
$GPFPD,2292,530497.400,290.686,-0.087,0.659,31.42690993,120.62984764,11.580,-2.341,0.907,-0.000,0.805,22,20,04*5C
$GTIMU,2292,530497.400,-0.2472,0.2930,1.0405,-0.0138,0.0846,0.9848,27.9*67
11:21::19.411,1702668097382,120.62984764,31.42690993,3478478.79569138,559884.04206263,290.68600000,6.00000000,-2.34100000,0.90700000,0.00000000,-0.24720000,0.29300000,1.04050000,-0.01380000,0.08460000,0.98480000
$GPFPD,2292,530497.500,290.587,-0.118,0.679,31.42691080,120.62984520,11.579,-2.418,0.931,0.020,0.800,22,20,04*70
$GTIMU,2292,530497.500,-0.3162,0.1987,0.9887,-0.0169,0.0810,1.0205,27.9*6E
11:21::19.511,1702668097482,120.62984520,31.42691080,3478478.89082711,559883.80951744,290.58700000,6.00000000,-2.41800000,0.93100000,0.02000000,-0.31620000,0.19870000,0.98870000,-0.01690000,0.08100000,1.02050000
$GPFPD,2292,530497.600,290.514,-0.174,0.681,31.42691169,120.62984267,11.580,-2.488,0.946,0.020,0.800,22,20,04*79
$GTIMU,2292,530497.600,-0.5585,0.0172,0.7350,-0.0218,0.0705,0.9998,27.9*63
11:21::19.611,1702668097582,120.62984267,31.42691169,3478478.98813140,559883.56840246,290.51400000,6.00000000,-2.48800000,0.94600000,0.02000000,-0.55850000,0.01720000,0.73500000,-0.02180000,0.07050000,0.99980000
$GPFPD,2292,530497.700,290.457,-0.176,0.673,31.42691259,120.62984007,11.579,-2.567,0.967,-0.002,0.807,21,20,04*59
$GTIMU,2292,530497.700,-0.0233,-0.0841,0.5666,-0.0199,0.0795,0.9773,27.9*43
11:21::19.712,1702668097682,120.62984007,31.42691259,3478479.08650634,559883.32062560,290.45700000,6.00000000,-2.56700000,0.96700000,-0.00200000,-0.02330000,-0.08410000,0.56660000,-0.01990000,0.07950000,0.97730000
$GPFPD,2292,530497.800,290.395,-0.117,0.661,31.42691351,120.62983737,11.577,-2.652,0.997,-0.017,0.807,21,20,04*51
$GTIMU,2292,530497.800,0.5842,-0.1197,0.6296,-0.0126,0.0907,0.9844,27.9*69
11:21::19.811,1702668097782,120.62983737,31.42691351,3478479.18704439,559883.06332816,290.39500000,6.00000000,-2.65200000,0.99700000,-0.01700000,0.58420000,-0.11970000,0.62960000,-0.01260000,0.09070000,0.98440000
$GPFPD,2292,530497.900,290.322,-0.068,0.622,31.42691442,120.62983453,11.576,-2.743,1.027,-0.001,0.805,21,20,04*50
$GTIMU,2292,530497.900,0.4812,-0.3875,0.7410,-0.0155,0.0965,1.0163,27.9*66
11:21::19.911,1702668097882,120.62983453,31.42691442,3478479.28639735,559882.79272605,290.32200000,6.00000000,-2.74300000,1.02700000,-0.00100000,0.48120000,-0.38750000,0.74100000,-0.01550000,0.09650000,1.01630000
$GPFPD,2292,530498.000,290.246,-0.027,0.580,31.42691536,120.62983159,11.576,-2.831,1.053,0.002,0.805,21,20,04*7F
$GTIMU,2292,530498.000,0.4057,-0.4210,0.7589,-0.0168,0.0924,1.0028,27.9*63
11:21::20.012,1702668097982,120.62983159,31.42691536,3478479.38902221,559882.51259701,290.24600000,6.00000000,-2.83100000,1.05300000,0.00200000,0.40570000,-0.42100000,0.75890000,-0.01680000,0.09240000,1.00280000
$GPGGA,032120.00,3125.6149699,N,12037.7891339,E,1,20,0.8,5.223,M,7.80,M,,*6D
$GPFPD,2292,530498.100,290.172,0.016,0.571,31.42691632,120.62982857,11.576,-2.914,1.083,0.003,0.805,21,20,04*50
$GTIMU,2292,530498.100,0.4239,-0.0879,0.7469,-0.0098,0.0910,1.0011,27.9*65
11:21::20.111,1702668098082,120.62982857,31.42691632,3478479.49382108,559882.22484895,290.17200000,6.00000000,-2.91400000,1.08300000,0.00300000,0.42390000,-0.08790000,0.74690000,-0.00980000,0.09100000,1.00110000
$GPFPD,2292,530498.200,290.089,0.054,0.607,31.42691732,120.62982546,11.576,-2.992,1.125,-0.014,0.806,21,20,04*75
$GTIMU,2292,530498.200,0.3762,0.3588,0.8411,0.0022,0.0905,0.9830,27.9*6C
11:21::20.211,1702668098182,120.62982546,31.42691732,3478479.60300610,559881.92851839,290.08900000,6.00000000,-2.99200000,1.12500000,-0.01400000,0.37620000,0.35880000,0.84110000,0.00220000,0.09050000,0.98300000
$GPFPD,2292,530498.300,289.992,0.090,0.670,31.42691835,120.62982226,11.576,-3.076,1.152,-0.012,0.804,22,20,04*7B
$GTIMU,2292,530498.300,0.3595,0.6355,0.9751,-0.0140,0.0898,0.9979,27.9*43
11:21::20.311,1702668098282,120.62982226,31.42691835,3478479.71546849,559881.62361167,289.99200000,6.00000000,-3.07600000,1.15200000,-0.01200000,0.35950000,0.63550000,0.97510000,-0.01400000,0.08980000,0.99790000
$GPFPD,2292,530498.400,289.901,0.134,0.748,31.42691941,120.62981894,11.584,-3.159,1.172,-0.003,0.804,22,20,04*72
$GTIMU,2292,530498.400,0.4323,0.7851,0.9185,-0.0220,0.0891,1.0083,27.9*41
11:21::20.411,1702668098382,120.62981894,31.42691941,3478479.83119188,559881.30727645,289.90100000,6.00000000,-3.15900000,1.17200000,-0.00300000,0.43230000,0.78510000,0.91850000,-0.02200000,0.08910000,1.00830000
$GPFPD,2292,530498.500,289.814,0.132,0.799,31.42692049,120.62981554,11.593,-3.242,1.191,0.022,0.810,22,20,04*56
$GTIMU,2292,530498.500,-0.0366,0.5113,0.8734,-0.0240,0.0894,1.0255,27.9*62
11:21::20.511,1702668098482,120.62981554,31.42692049,3478479.94908929,559880.98332222,289.81400000,6.00000000,-3.24200000,1.19100000,0.02200000,-0.03660000,0.51130000,0.87340000,-0.02400000,0.08940000,1.02550000
$GPFPD,2292,530498.600,289.736,0.117,0.792,31.42692158,120.62981204,11.604,-3.328,1.208,0.025,0.810,22,20,04*51
$GTIMU,2292,530498.600,-0.1544,-0.0649,0.7825,-0.0273,0.0914,1.0019,27.9*45
11:21::20.611,1702668098582,120.62981204,31.42692158,3478480.06804100,559880.64985376,289.73600000,6.00000000,-3.32800000,1.20800000,0.02500000,-0.15440000,-0.06490000,0.78250000,-0.02730000,0.09140000,1.00190000
$GPFPD,2292,530498.700,289.668,0.094,0.743,31.42692269,120.62980845,11.615,-3.425,1.226,0.011,0.809,22,20,04*5A
$GTIMU,2292,530498.700,-0.2349,-0.4877,0.6777,-0.0290,0.1019,0.9849,27.9*4F
11:21::20.711,1702668098682,120.62980845,31.42692269,3478480.18916128,559880.30781551,289.66800000,6.00000000,-3.42500000,1.22600000,0.01100000,-0.23490000,-0.48770000,0.67770000,-0.02900000,0.10190000,0.98490000
$GPFPD,2292,530498.800,289.609,0.079,0.647,31.42692382,120.62980476,11.624,-3.519,1.256,0.024,0.809,22,20,04*51
$GTIMU,2292,530498.800,-0.1504,-0.9538,0.5908,-0.0165,0.1022,1.0132,27.9*4E
11:21::20.811,1702668098782,120.62980476,31.42692382,3478480.31244467,559879.95625668,289.60900000,6.00000000,-3.51900000,1.25600000,0.02400000,-0.15040000,-0.95380000,0.59080000,-0.01650000,0.10220000,1.01320000
$GPFPD,2292,530498.900,289.556,0.025,0.624,31.42692497,120.62980102,11.627,-3.601,1.296,0.040,0.804,22,20,04*5A
$GTIMU,2292,530498.900,-0.5431,-0.2321,0.5239,-0.0004,0.0947,1.0157,27.9*4E
11:21::20.911,1702668098882,120.62980102,31.42692497,3478480.43791843,559879.59993121,289.55600000,6.00000000,-3.60100000,1.29600000,0.04000000,-0.54310000,-0.23210000,0.52390000,-0.00040000,0.09470000,1.01570000
