09,17,15,04*59
$GTIMU,2292,523654.700,-0.0348,0.0485,0.0014,-0.0165,-0.0070,0.9999,13.2*4A
09:27::16.692,1702661254682,120.62744298,31.42734948,3478526.22491780,559655.13162495,112.44400000,6.00000000,0.01600000,-0.05400000,-0.00300000,-0.03480000,0.04850000,0.00140000,-0.01650000,-0.00700000,0.99990000
$GPFPD,2292,523654.800,112.443,-0.445,1.101,31.42734952,120.62744297,16.841,0.016,-0.050,-0.004,0.809,17,15,04*52
$GTIMU,2292,523654.800,0.0167,-0.0607,0.0082,-0.0219,-0.0091,0.9991,13.2*42
09:27::16.792,1702661254782,120.62744297,31.42734952,3478526.22934756,559655.13064884,112.44300000,6.00000000,0.01600000,-0.05000000,-0.00400000,0.01670000,-0.06070000,0.00820000,-0.02190000,-0.00910000,0.99910000
$GPFPD,2292,523654.900,112.444,-0.445,1.106,31.42734947,120.62744299,16.840,0.016,-0.055,-0.004,0.810,17,15,04*55
$GTIMU,2292,523654.900,-0.0024,0.0502,-0.0095,-0.0145,-0.0053,0.9991,13.2*6C
09:27::16.892,1702661254882,120.62744299,31.42734947,3478526.22381443,559655.13258206,112.44400000,6.00000000,0.01600000,-0.05500000,-0.00400000,-0.00240000,0.05020000,-0.00950000,-0.01450000,-0.00530000,0.99910000
$GPFPD,2292,523655.000,112.443,-0.445,1.102,31.42734942,120.62744301,16.840,0.018,-0.052,-0.003,0.810,17,15,04*55
$GTIMU,2292,523655.000,-0.0054,-0.0425,0.0145,-0.0223,-0.0075,1.0009,13.2*6C
09:27::16.992,1702661254982,120.62744301,31.42734942,3478526.21828129,559655.13451529,112.44300000,6.00000000,0.01800000,-0.05200000,-0.00300000,-0.00540000,-0.04250000,0.01450000,-0.02230000,-0.00750000,1.00090000
$GPGGA,012717.00,3125.6410832,N,12037.6470489,E,1,15,1.8,9.847,M,7.80,M,,*66
$GPFPD,2292,523655.100,112.444,-0.445,1.104,31.42734938,120.62744303,16.840,0.017,-0.054,-0.005,0.810,17,15,04*55
$GTIMU,2292,523655.100,-0.0036,0.0212,-0.0043,-0.0167,-0.0069,0.9976,13.2*6B
09:27::17.092,1702661255082,120.62744303,31.42734938,3478526.21385695,559655.13644218,112.44400000,6.00000000,0.01700000,-0.05400000,-0.00500000,-0.00360000,0.02120000,-0.00430000,-0.01670000,-0.00690000,0.99760000
$GPFPD,2292,523655.200,112.444,-0.446,1.106,31.42734933,120.62744305,16.839,0.018,-0.054,-0.004,0.808,17,15,04*53
$GTIMU,2292,523655.200,-0.0104,0.0150,0.0003,-0.0192,-0.0066,1.0007,13.2*46
09:27::17.192,1702661255182,120.62744305,31.42734933,3478526.20832382,559655.13837540,112.44400000,6.00000000,0.01800000,-0.05400000,-0.00400000,-0.01040000,0.01500000,0.00030000,-0.01920000,-0.00660000,1.00070000
$GPFPD,2292,523655.300,112.443,-0.444,1.100,31.42734929,120.62744304,16.838,0.012,-0.051,-0.006,0.808,17,15,04*57
$GTIMU,2292,523655.300,0.0133,-0.0556,0.0116,-0.0198,-0.0090,0.9999,13.2*41
09:27::17.292,1702661255282,120.62744304,31.42734929,3478526.20388319,559655.13744995,112.44300000,6.00000000,0.01200000,-0.05100000,-0.00600000,0.01330000,-0.05560000,0.01160000,-0.01980000,-0.00900000,0.99990000
$GPFPD,2292,523655.400,112.444,-0.445,1.106,31.42734927,120.62744295,16.832,0.012,-0.054,-0.007,0.808,17,15,04*59
$GTIMU,2292,523655.400,-0.0161,0.0559,-0.0100,-0.0158,-0.0064,0.9985,13.2*6E
09:27::17.393,1702661255382,120.62744295,31.42734927,3478526.20161673,559655.12890556,112.44400000,6.00000000,0.01200000,-0.05400000,-0.00700000,-0.01610000,0.05590000,-0.01000000,-0.01580000,-0.00640000,0.99850000
$GPFPD,2292,523655.500,112.443,-0.445,1.103,31.42734926,120.62744286,16.825,0.013,-0.052,-0.005,0.803,17,15,04*51
$GTIMU,2292,523655.500,0.0020,-0.0294,0.0105,-0.0215,-0.0071,1.0014,13.2*42
09:27::17.492,1702661255482,120.62744286,31.42734926,3478526.20045907,559655.12035484,112.44300000,6.00000000,0.01300000,-0.05200000,-0.00500000,0.00200000,-0.02940000,0.01050000,-0.02150000,-0.00710000,1.00140000
$GPFPD,2292,523655.600,112.443,-0.444,1.102,31.42734925,120.62744277,16.819,0.012,-0.053,-0.007,0.803,17,15,04*52
$GTIMU,2292,523655.600,0.0037,-0.0174,0.0042,-0.0180,-0.0078,0.9978,13.2*45
09:27::17.592,1702661255582,120.62744277,31.42734925,3478526.19930141,559655.11180412,112.44300000,6.00000000,0.01200000,-0.05300000,-0.00700000,0.00370000,-0.01740000,0.00420000,-0.01800000,-0.00780000,0.99780000
$GPFPD,2292,523655.700,112.443,-0.445,1.106,31.42734924,120.62744268,16.813,0.013,-0.056,-0.007,0.804,17,14,04*51
$GTIMU,2292,523655.700,-0.0155,0.0383,0.0031,-0.0164,-0.0056,0.9996,13.2*49
09:27::17.692,1702661255682,120.62744268,31.42734924,3478526.19814375,559655.10325341,112.44300000,6.00000000,0.01300000,-0.05600000,-0.00700000,-0.01550000,0.03830000,0.00310000,-0.01640000,-0.00560000,0.99960000
$GPFPD,2292,523655.800,112.442,-0.444,1.100,31.42734922,120.62744262,16.808,0.014,-0.054,-0.006,0.804,17,14,04*5A
$GTIMU,2292,523655.800,0.0082,-0.0573,0.0173,-0.0210,-0.0080,1.0005,13.2*43
09:27::17.792,1702661255782,120.62744262,31.42734922,3478526.19589357,559655.09756137,112.44200000,6.00000000,0.01400000,-0.05400000,-0.00600000,0.00820000,-0.05730000,0.01730000,-0.02100000,-0.00800000,1.00050000
$GPFPD,2292,523655.900,112.441,-0.444,1.101,31.42734917,120.62744263,16.807,0.013,-0.055,-0.007,0.809,17,14,04*5B
$GTIMU,2292,523655.900,-0.0002,0.0110,0.0059,-0.0170,-0.0078,0.9984,13.2*48
09:27::17.892,1702661255882,120.62744263,31.42734917,3478526.19035501,559655.09854381,112.44100000,6.00000000,0.01300000,-0.05500000,-0.00700000,-0.00020000,0.01100000,0.00590000,-0.01700000,-0.00780000,0.99840000
$GPFPD,2292,523656.000,112.441,-0.444,1.105,31.42734912,120.62744264,16.806,0.014,-0.056,-0.007,0.809,17,14,04*52
$GTIMU,2292,523656.000,-0.0053,0.0326,0.0031,-0.0183,-0.0055,0.9996,13.2*4F
09:27::17.992,1702661255982,120.62744264,31.42734912,3478526.18481644,559655.09952625,112.44100000,6.00000000,0.01400000,-0.05600000,-0.00700000,-0.00530000,0.03260000,0.00310000,-0.01830000,-0.00550000,0.99960000
$GPGGA,012718.00,3125.6411371,N,12037.6470726,E,1,14,1.9,9.958,M,7.80,M,,*6D
$GPFPD,2292,523656.100,112.435,-0.439,1.101,31.42734907,120.62744266,16.805,0.017,-0.058,-0.009,0.809,17,14,04*58
$GTIMU,2292,523656.100,0.0470,-0.0437,0.0651,-0.0181,-0.0037,0.9976,13.2*44
09:27::18.092,1702661256082,120.62744266,31.42734907,3478526.17928331,559655.10145948,112.43500000,6.00000000,0.01700000,-0.05800000,-0.00900000,0.04700000,-0.04370000,0.06510000,-0.01810000,-0.00370000,0.99760000
$GPFPD,2292,523656.200,112.430,-0.432,1.109,31.42734901,120.62744268,16.804,0.020,-0.057,-0.013,0.807,17,14,04*5A
$GTIMU,2292,523656.200,0.0637,0.0842,0.0526,-0.0210,-0.0048,0.9960,13.2*62
09:27::18.192,1702661256182,120.62744268,31.42734901,3478526.17264137,559655.10339903,112.43000000,6.00000000,0.02000000,-0.05700000,-0.01300000,0.06370000,0.08420000,0.05260000,-0.02100000,-0.00480000,0.99600000
$GPFPD,2292,523656.300,112.436,-0.420,1.107,31.42734899,120.62744269,16.802,0.017,-0.050,-0.020,0.806,17,14,04*55
$GTIMU,2292,523656.300,0.1120,-0.0186,-0.0525,-0.0195,-0.0070,0.9964,13.2*60
09:27::18.292,1702661256282,120.62744269,31.42734899,3478526.17042920,559655.10436248,112.43600000,6.00000000,0.01700000,-0.05000000,-0.02000000,0.11200000,-0.01860000,-0.05250000,-0.01950000,-0.00700000,0.99640000
$GPFPD,2292,523656.400,112.434,-0.407,1.105,31.42734906,120.62744263,16.794,0.011,-0.048,-0.017,0.806,17,14,04*51
$GTIMU,2292,523656.400,0.1236,-0.0249,0.0210,-0.0177,-0.0134,1.0027,13.2*44
09:27::18.392,1702661256382,120.62744263,31.42734906,3478526.17815822,559655.09861346,112.43400000,6.00000000,0.01100000,-0.04800000,-0.01700000,0.12360000,-0.02490000,0.02100000,-0.01770000,-0.01340000,1.00270000
$GPFPD,2292,523656.500,112.432,-0.400,1.106,31.42734913,120.62744257,16.787,0.009,-0.047,-0.011,0.798,17,14,04*5B
$GTIMU,2292,523656.500,0.0646,0.0092,0.0235,-0.0193,-0.0084,1.0048,13.2*60
09:27::18.492,1702661256482,120.62744257,31.42734913,3478526.18588724,559655.09286444,112.43200000,6.00000000,0.00900000,-0.04700000,-0.01100000,0.06460000,0.00920000,0.02350000,-0.01930000,-0.00840000,1.00480000
$GPFPD,2292,523656.600,112.436,-0.402,1.105,31.42734921,120.62744251,16.780,0.012,-0.050,-0.010,0.798,17,14,04*50
$GTIMU,2292,523656.600,-0.0168,-0.0032,-0.0334,-0.0181,-0.0029,1.0013,13.2*45
09:27::18.592,1702661256582,120.62744251,31.42734921,3478526.19472505,559655.08710908,112.43600000,6.00000000,0.01200000,-0.05000000,-0.01000000,-0.01680000,-0.00320000,-0.03340000,-0.01810000,-0.00290000,1.00130000
$GPFPD,2292,523656.700,112.433,-0.403,1.104,31.42734928,120.62744246,16.773,0.012,-0.050,-0.011,0.807,17,14,04*5F
$GTIMU,2292,523656.700,-0.0127,-0.0129,0.0265,-0.0187,-0.0069,0.9982,13.2*67
09:27::18.693,1702661256682,120.62744246,31.42734928,3478526.20245950,559655.08231085,112.43300000,6.00000000,0.01200000,-0.05000000,-0.01100000,-0.01270000,-0.01290000,0.02650000,-0.01870000,-0.00690000,0.99820000
$GPFPD,2292,523656.800,112.433,-0.404,1.108,31.42734933,120.62744241,16.767,0.012,-0.049,-0.012,0.807,17,14,04*58
$GTIMU,2292,523656.800,-0.0144,0.0343,-0.0009,-0.0189,-0.0072,0.9984,13.2*69
09:27::18.792,1702661256782,120.62744241,31.42734933,3478526.20797635,559655.07752527,112.43300000,6.00000000,0.01200000,-0.04900000,-0.01200000,-0.01440000,0.03430000,-0.00090000,-0.01890000,-0.00720000,0.99840000
$GPFPD,2292,523656.900,112.435,-0.401,1.105,31.42734929,120.62744242,16.766,0.012,-0.049,-0.010,0.800,17,14,04*5B
$GTIMU,2292,523656.900,0.0195,-0.0328,-0.0107,-0.0191,-0.0066,1.0016,13.2*60
09:27::18.893,1702661256882,120.62744242,31.42734929,3478526.20354658,559655.07850138,112.43500000,6.00000000,0.01200000,-0.04900000,-0.01000000,0.01950000,-0.03280000,-0.01070000,-0.01910000,-0.00660000,1.00160000
$GPFPD,2292,523657.000,112.433,-0.402,1.104,31.42734924,120.62744244,16.765,0.012,-0.050,-0.010,0.800,17,14,04*57
$GTIMU,2292,523657.000,-0.0048,-0.0135,0.0162,-0.0184,-0.0067,0.9993,13.2*6D
09:27::18.993,1702661256982,120.62744244,31.42734924,3478526.19801345,559655.08043461,112.43300000,6.00000000,0.01200000,-0.05000000,-0.01000000,-0.00480000,-0.01350000,0.01620000,-0.01840000,-0.00670000,0.99930000
$GPGGA,012719.00,3125.6411415,N,12037.6470853,E,1,14,1.9,9.975,M,7.80,M,,*6B
$GPFPD,2292,523657.100,112.434,-0.404,1.108,31.42734919,120.62744245,16.764,0.012,-0.051,-0.011,0.800,17,14,04*55
$GTIMU,2292,523657.100,-0.0286,0.0446,-0.0111,-0.0176,-0.0059,0.9990,13.2*6A
09:27::19.093,1702661257082,120.62744245,31.42734919,3478526.19247488,559655.08141705,112.43400000,6.00000000,0.01200000,-0.05100000,-0.01100000,-0.02860000,0.04460000,-0.01110000,-0.01760000,-0.00590000,0.99900000
$GPFPD,2292,523657.200,112.434,-0.402,1.104,31.42734915,120.62744246,16.763,0.013,-0.049,-0.011,0.806,17,14,04*5A
$GTIMU,2292,523657.200,0.0162,-0.0447,0.0025,-0.0208,-0.0072,0.9996,13.2*4F
09:27::19.192,1702661257182,120.62744246,31.42734915,3478526.18804512,559655.08239316,112.43400000,6.00000000,0.01300000,-0.04900000,-0.01100000,0.01620000,-0.04470000,0.00250000,-0.02080000,-0.00720000,0.99960000
$GPFPD,2292,523657.300,112.434,-0.401,1.105,31.42734913,120.62744246,16.763,0.010,-0.045,-0.007,0.807,17,14,04*56
$GTIMU,2292,523657.300,0.0032,0.0110,0.0071,-0.0178,-0.0057,0.9986,13.2*63
09:27::19.292,1702661257282,120.62744246,31.42734913,3478526.18582752,559655.08240582,112.43400000,6.00000000,0.01000000,-0.04500000,-0.00700000,0.00320000,0.01100000,0.00710000,-0.01780000,-0.00570000,0.99860000
$GPFPD,2292,523657.400,112.435,-0.403,1.107,31.42734919,120.62744241,16.770,0.011,-0.046,-0.007,0.807,17,14,04*5D
$GTIMU,2292,523657.400,-0.0229,0.0235,-0.0083,-0.0179,-0.0052,1.0004,13.2*6A
09:27::19.393,1702661257382,120.62744241,31.42734919,3478526.19245316,559655.07761392,112.43500000,6.00000000,0.01100000,-0.04600000,-0.00700000,-0.02290000,0.02350000,-0.00830000,-0.01790000,-0.00520000,1.00040000
$GPFPD,2292,523657.500,112.434,-0.401,1.102,31.42734925,120.62744236,16.777,0.010,-0.044,-0.006,0.804,17,14,04*53
$GTIMU,2292,523657.500,0.0133,-0.0504,0.0110,-0.0198,-0.0083,1.0003,13.2*44
09:27::19.492,1702661257482,120.62744236,31.42734925,3478526.19907881,559655.07282201,112.43400000,6.00000000,0.01000000,-0.04400000,-0.00600000,0.01330000,-0.05040000,0.01100000,-0.01980000,-0.00830000,1.00030000
$GPFPD,2292,523657.600,112.434,-0.402,1.107,31.42734931,120.62744231,16.784,0.009,-0.047,-0.007,0.804,17,14,04*52
$GTIMU,2292,523657.600,-0.0104,0.0406,0.0037,-0.0167,-0.0063,0.9984,13.2*44
09:27::19.592,1702661257582,120.62744231,31.42734931,3478526.20570446,559655.06803011,112.43400000,6.00000000,0.00900000,-0.04700000,-0.00700000,-0.01040000,0.04060000,0.00370000,-0.01670000,-0.00630000,0.99840000
$GPFPD,2292,523657.700,112.435,-0.403,1.109,31.42734937,120.62744225,16.792,0.011,-0.046,-0.005,0.802,17,14,04*55
$GTIMU,2292,523657.700,-0.0167,0.0212,-0.0072,-0.0202,-0.0051,1.0012,13.2*60
09:27::19.693,1702661257682,120.62744225,31.42734937,3478526.21232468,559655.06228742,112.43500000,6.00000000,0.01100000,-0.04600000,-0.00500000,-0.01670000,0.02120000,-0.00720000,-0.02020000,-0.00510000,1.00120000
$GPFPD,2292,523657.800,112.435,-0.402,1.103,31.42734941,120.62744222,16.797,0.010,-0.044,-0.007,0.802,17,14,04*53
$GTIMU,2292,523657.800,0.0150,-0.0629,0.0065,-0.0206,-0.0085,0.9974,13.2*40
09:27::19.793,1702661257782,120.62744222,31.42734941,3478526.21674359,559655.05940974,112.43500000,6.00000000,0.01000000,-0.04400000,-0.00700000,0.01500000,-0.06290000,0.00650000,-0.02060000,-0.00850000,0.99740000
$GPFPD,2292,523657.900,112.436,-0.401,1.107,31.42734936,120.62744223,16.796,0.010,-0.047,-0.007,0.802,17,14,04*55
$GTIMU,2292,523657.900,0.0021,0.0377,-0.0072,-0.0163,-0.0055,0.9995,13.2*4C
09:27::19.892,1702661257882,120.62744223,31.42734936,3478526.21120502,559655.06039218,112.43600000,6.00000000,0.01000000,-0.04700000,-0.00700000,0.00210000,0.03770000,-0.00720000,-0.01630000,-0.00550000,0.99950000
$GPFPD,2292,523658.000,112.436,-0.402,1.106,31.42734932,120.62744224,16.796,0.011,-0.047,-0.005,0.802,17,14,04*51
$GTIMU,2292,523658.000,-0.0127,-0.0089,0.0020,-0.0191,-0.0059,1.0020,13.2*6B
09:27::19.992,1702661257982,120.62744224,31.42734932,3478526.20677525,559655.06136829,112.43600000,6.00000000,0.01100000,-0.04700000,-0.00500000,-0.01270000,-0.00890000,0.00200000,-0.01910000,-0.00590000,1.00200000
$GPGGA,012720.00,3125.6411513,N,12037.6470916,E,1,14,1.9,9.973,M,7.80,M,,*60
$GPFPD,2292,523658.100,112.436,-0.402,1.105,31.42734928,120.62744225,16.795,0.011,-0.046,-0.007,0.802,17,14,04*59
$GTIMU,2292,523658.100,-0.0042,-0.0083,0.0008,-0.0192,-0.0077,0.9977,13.2*64
09:27::20.093,1702661258082,120.62744225,31.42734928,3478526.20234549,559655.06234440,112.43600000,6.00000000,0.01100000,-0.04600000,-0.00700000,-0.00420000,-0.00830000,0.00080000,-0.01920000,-0.00770000,0.99770000
$GPFPD,2292,523658.200,112.436,-0.403,1.111,31.42734924,120.62744226,16.795,0.011,-0.048,-0.007,0.802,17,14,04*5F
$GTIMU,2292,523658.200,-0.0121,0.0565,-0.0043,-0.0172,-0.0057,0.9993,13.2*67
09:27::20.192,1702661258182,120.62744226,31.42734924,3478526.19791572,559655.06332051,112.43600000,6.00000000,0.01100000,-0.04800000,-0.00700000,-0.01210000,0.05650000,-0.00430000,-0.01720000,-0.00570000,0.99930000
$GPFPD,2292,523658.300,112.437,-0.402,1.107,31.42734921,120.62744226,16.794,0.010,-0.042,-0.006,0.804,17,14,04*51
$GTIMU,2292,523658.300,0.0048,-0.0385,0.0019,-0.0211,-0.0060,1.0009,13.2*42
09:27::20.292,1702661258282,120.62744226,31.42734921,3478526.19458933,559655.06333950,112.43700000,6.00000000,0.01000000,-0.04200000,-0.00600000,0.00480000,-0.03850000,0.00190000,-0.02110000,-0.00600000,1.00090000
$GPFPD,2292,523658.400,112.437,-0.402,1.106,31.42734925,120.62744222,16.794,0.009,-0.043,-0.007,0.804,17,14,04*5F
$GTIMU,2292,523658.400,-0.0042,-0.0078,0.0031,-0.0175,-0.0068,0.9982,13.2*62
09:27::20.393,1702661258382,120.62744222,31.42734925,3478526.19900280,559655.05951105,112.43700000,6.00000000,0.00900000,-0.04300000,-0.00700000,-0.00420000,-0.00780000,0.00310000,-0.01750000,-0.00680000,0.99820000
$GPFPD,2292,523658.500,112.437,-0.403,1.111,31.42734929,120.62744218,16.793,0.009,-0.045,-0.007,0.806,17,14,04*5F
$GTIMU,2292,523658.500,-0.0109,0.0485,0.0003,-0.0173,-0.0057,0.9997,13.2*49
09:27::20.493,1702661258482,120.62744218,31.42734929,3478526.20341628,559655.05568259,112.43700000,6.00000000,0.00900000,-0.04500000,-0.00700000,-0.01090000,0.04850000,0.00030000,-0.01730000,-0.00570000,0.99970000
$GPFPD,2292,523658.600,112.437,-0.399,1.106,31.42734932,120.62744214,16.792,0.011,-0.043,-0.007,0.806,17,14,04*56
$GTIMU,2292,523658.600,0.0337,-0.0504,0.0019,-0.0216,-0.0059,0.9997,13.2*48
09:27::20.593,1702661258582,120.62744214,31.42734932,3478526.20672096,559655.05186046,112.43700000,6.00000000,0.01100000,-0.04300000,-0.00700000,0.03370000,-0.05040000,0.00190000,-0.02160000,-0.00590000,0.99970000
$GPFPD,2292,523658.700,112.438,-0.398,1.109,31.42734936,120.62744210,16.792,0.010,-0.044,-0.008,0.802,17,14,04*5B
$GTIMU,2292,523658.700,0.0089,0.0241,-0.0112,-0.0179,-0.0071,0.9986,13.2*43
09:27::20.692,1702661258682,120.62744210,31.42734936,3478526.21113444,559655.04803200,112.43800000,6.00000000,0.01000000,-0.04400000,-0.00800000,0.00890000,0.02410000,-0.01120000,-0.01790000,-0.00710000,0.99860000
$GPFPD,2292,523658.800,112.439,-0.397,1.110,31.42734938,120.62744207,16.791,0.011,-0.045,-0.008,0.802,17,14,04*59
$GTIMU,2292,523658.800,0.0071,0.0138,-0.0112,-0.0179,-0.0059,0.9993,13.2*48
09:27::20.792,1702661258782,120.62744207,31.42734938,3478526.21333575,559655.04516699,112.43900000,6.00000000,0.01100000,-0.04500000,-0.00800000,0.00710000,0.01380000,-0.01120000,-0.01790000,-0.00590000,0.99930000
$GPFPD,2292,523658.900,112.438,-0.392,1.106,31.42734934,120.62744208,16.791,0.010,-0.044,-0.008,0.809,17,14,04*53
$GTIMU,2292,523658.900,0.0395,-0.0493,0.0161,-0.0199,-0.0079,1.0002,13.2*45
09:27::20.893,1702661258882,120.62744208,31.42734934,3478526.20890598,559655.04614310,112.43800000,6.00000000,0.01000000,-0.04400000,-0.00800000,0.03950000,-0.04930000,0.01610000,-0.01990000,-0.00790000,1.00020000
$GPFPD,2292,523659.000,112.438,-0.391,1.110,31.42734930,120.62744209,16.790,0.011,-0.046,-0.009,0.809,17,14,04*59
$GTIMU,2292,523659.000,0.0072,0.0417,-0.0015,-0.0172,-0.0047,0.9986,13.2*4C
09:27::20.993,1702661258982,120.62744209,31.42734930,3478526.20447622,559655.04711921,112.43800000,6.00000000,0.01100000,-0.04600000,-0.00900000,0.00720000,0.04170000,-0.00150000,-0.01720000,-0.00470000,0.99860000
$GPGGA,012721.00,3125.6411491,N,12037.6470940,E,1,14,1.9,9.997,M,7.80,M,,*63
$GPFPD,2292,523659.100,112.439,-0.391,1.112,31.42734926,120.62744210,16.789,0.011,-0.046,-0.007,0.809,17,14,04*52
$GTIMU,2292,523659.100,-0.0025,0.0190,-0.0015,-0.0188,-0.0064,1.0010,13.2*62
09:27::21.092,1702661259082,120.62744210,31.42734926,3478526.20004645,559655.04809531,112.43900000,6.00000000,0.01100000,-0.04600000,-0.00700000,-0.00250000,0.01900000,-0.00150000,-0.01880000,-0.00640000,1.00100000
$GPFPD,2292,523659.200,112.438,-0.389,1.108,31.42734922,120.62744211,16.788,0.011,-0.044,-0.007,0.804,17,14,04*59
$GTIMU,2292,523659.200,0.0162,-0.0396,0.0122,-0.0207,-0.0075,0.9999,13.2*4B
09:27::21.193,1702661259182,120.62744211,31.42734922,3478526.19561669,559655.04907142,112.43800000,6.00000000,0.01100000,-0.04400000,-0.00700000,0.01620000,-0.03960000,0.01220000,-0.02070000,-0.00750000,0.99990000
$GPFPD,2292,523659.300,112.439,-0.389,1.112,31.42734920,120.62744212,16.787,0.009,-0.040,-0.011,0.804,17,14,04*56
$GTIMU,2292,523659.300,-0.0047,0.0383,-0.0072,-0.0169,-0.0056,0.9989,13.2*6A
09:27::21.293,1702661259282,120.62744212,31.42734920,3478526.19340452,559655.05003487,112.43900000,6.00000000,0.00900000,-0.04000000,-0.01100000,-0.00470000,0.03830000,-0.00720000,-0.01690000,-0.00560000,0.99890000
$GPFPD,2292,523659.400,112.439,-0.389,1.108,31.42734927,120.62744209,16.780,0.010,-0.038,-0.010,0.804,17,14,04*56
$GTIMU,2292,523659.400,0.0031,-0.0339,-0.0021,-0.0208,-0.0069,1.0008,13.2*6B
09:27::21.393,1702661259382,120.62744209,31.42734927,3478526.20114982,559655.04713820,112.43900000,6.00000000,0.01000000,-0.03800000,-0.01000000,0.00310000,-0.03390000,-0.00210000,-0.02080000,-0.00690000,1.00080000
$GPFPD,2292,523659.500,112.439,-0.387,1.110,31.42734935,120.62744207,16.774,0.009,-0.038,-0.011,0.808,17,15,04*52
$GTIMU,2292,523659.500,0.0083,0.0098,0.0013,-0.0182,-0.0064,0.9980,13.2*67
09:27::21.492,1702661259482,120.62744207,31.42734935,3478526.21000935,559655.04518598,112.43900000,6.00000000,0.00900000,-0.03800000,-0.01100000,0.00830000,0.00980000,0.00130000,-0.01820000,-0.00640000,0.99800000
$GPFPD,2292,523659.600,112.440,-0.389,1.114,31.42734942,120.62744204,16.768,0.010,-0.041,-0.011,0.808,17,15,04*5D
$GTIMU,2292,523659.600,-0.0195,0.0411,-0.0020,-0.0173,-0.0046,1.0003,13.2*63
09:27::21.593,1702661259582,120.62744204,31.42734942,3478526.21775466,559655.04228931,112.44000000,6.00000000,0.01000000,-0.04100000,-0.01100000,-0.01950000,0.04110000,-0.00200000,-0.01730000,-0.00460000,1.00030000
$GPFPD,2292,523659.700,112.439,-0.388,1.108,31.42734949,120.62744201,16.761,0.010,-0.039,-0.010,0.807,17,14,04*59
$GTIMU,2292,523659.700,0.0105,-0.0567,0.0070,-0.0203,-0.0074,0.9999,13.2*44
09:27::21.693,1702661259682,120.62744201,31.42734949,3478526.22549997,559655.03939264,112.43900000,6.00000000,0.01000000,-0.03900000,-0.01000000,0.01050000,-0.05670000,0.00700000,-0.02030000,-0.00740000,0.99990000
$GPFPD,2292,523659.800,112.439,-0.387,1.112,31.42734955,120.62744200,16.756,0.010,-0.041,-0.012,0.807,17,14,04*57
$GTIMU,2292,523659.800,0.0010,0.0394,0.0014,-0.0169,-0.0058,0.9979,13.2*64
09:27::21.793,1702661259782,120.62744200,31.42734955,3478526.23214733,559655.03840387,112.43900000,6.00000000,0.01000000,-0.04100000,-0.01200000,0.00100000,0.03940000,0.00140000,-0.01690000,-0.00580000,0.99790000
$GPFPD,2292,523659.900,112.439,-0.388,1.115,31.42734951,120.62744201,16.755,0.011,-0.041,-0.011,0.803,17,15,04*5F
$GTIMU,2292,523659.900,-0.0115,0.0263,0.0065,-0.0194,-0.0053,1.0010,13.2*44
09:27::21.892,1702661259882,120.62744201,31.42734951,3478526.22771756,559655.03937998,112.43900000,6.00000000,0.01100000,-0.04100000,-0.01100000,-0.01150000,0.02630000,0.00650000,-0.01940000,-0.00530000,1.00100000
$GPFPD,2292,523660.000,112.438,-0.386,1.109,31.42734947,120.62744202,16.754,0.011,-0.039,-0.011,0.803,17,15,04*54
$GTIMU,2292,523660.000,0.0139,-0.0629,0.0110,-0.0212,-0.0078,0.9994,13.2*49
09:27::21.993,1702661259982,120.62744202,31.42734947,3478526.22328780,559655.04035609,112.43800000,6.00000000,0.01100000,-0.03900000,-0.01100000,0.01390000,-0.06290000,0.01100000,-0.02120000,-0.00780000,0.99940000
$GPFPD,2292,523660$GPGGA,01.100,112.2722.00,3439,-0.38125.641116,1.113,367,N,12031.42734947.64709214,120.627,E,1,15,144203,16..8,9.909,753,0.010M,7.80,M,,-0.041,-,*6C
0.012,0.803,17,15,04*57
$GTIMU,2292,523660.100,-0.0036,0.0389,-0.0089,-0.0163,-0.0059,0.9982,13.2*64
09:27::22.093,1702661260082,120.62744203,31.42734944,3478526.21996683,559655.04132586,112.43900000,6.00000000,0.01000000,-0.04100000,-0.01200000,-0.00360000,0.03890000,-0.00890000,-0.01630000,-0.00590000,0.99820000
$GPFPD,2292,523660.200,112.438,-0.387,1.113,31.42734940,120.62744204,16.752,0.011,-0.041,-0.010,0.807,17,15,04*51
$GTIMU,2292,523660.200,-0.0116,0.0019,0.0071,-0.0192,-0.0060,1.0022,13.2*4B
09:27::22.193,1702661260182,120.62744204,31.42734940,3478526.21553706,559655.04230197,112.43800000,6.00000000,0.01100000,-0.04100000,-0.01000000,-0.01160000,0.00190000,0.00710000,-0.01920000,-0.00600000,1.00220000
$GPFPD,2292,523660.300,112.438,-0.385,1.108,31.42734938,120.62744205,16.751,0.010,-0.036,-0.009,0.806,17,15,04*5D
$GTIMU,2292,523660.300,0.0196,-0.0493,0.0099,-0.0204,-0.0070,0.9987,13.2*41
09:27::22.292,1702661260282,120.62744205,31.42734938,3478526.21332489,559655.04326542,112.43800000,6.00000000,0.01000000,-0.03600000,-0.00900000,0.01960000,-0.04930000,0.00990000,-0.02040000,-0.00700000,0.99870000
$GPFPD,2292,523660.400,112.439,-0.386,1.114,31.42734941,120.62744204,16.753,0.011,-0.039,-0.010,0.806,17,15,04*5E
$GTIMU,2292,523660.400,-0.0195,0.0554,-0.0094,-0.0160,-0.0049,0.9988,13.2*6B
09:27::22.393,1702661260382,120.62744204,31.42734941,3478526.21664586,559655.04229564,112.43900000,6.00000000,0.01100000,-0.03900000,-0.01000000,-0.01950000,0.05540000,-0.00940000,-0.01600000,-0.00490000,0.99880000
$GPFPD,2292,523660.500,112.438,-0.385,1.110,31.42734943,120.62744204,16.755,0.011,-0.036,-0.008,0.803,17,15,04*5E
$GTIMU,2292,523660.500,0.0111,-0.0425,0.0110,-0.0220,-0.0071,1.0007,13.2*4B
09:27::22.493,1702661260482,120.62744204,31.42734943,3478526.21886346,559655.04228298,112.43800000,6.00000000,0.01100000,-0.03600000,-0.00800000,0.01110000,-0.04250000,0.01100000,-0.02200000,-0.00710000,1.00070000
$GPFPD,2292,523660.600,112.437,-0.384,1.111,31.42734946,120.62744204,16.757,0.011,-0.039,-0.010,0.803,17,15,04*53
$GTIMU,2292,523660.600,0.0083,0.0087,0.0116,-0.0161,-0.0060,0.9981,13.2*6C
09:27::22.593,1702661260582,120.62744204,31.42734946,3478526.22218986,559655.04226399,112.43700000,6.00000000,0.01100000,-0.03900000,-0.01000000,0.00830000,0.00870000,0.01160000,-0.01610000,-0.00600000,0.99810000
$GPFPD,2292,523660.700,112.436,-0.386,1.113,31.42734949,120.62744203,16.759,0.011,-0.041,-0.009,0.808,17,15,04*59
$GTIMU,2292,523660.700,-0.0246,0.0167,0.0163,-0.0175,-0.0048,1.0001,13.2*40
09:27::22.692,1702661260682,120.62744203,31.42734949,3478526.22551082,559655.04129421,112.43600000,6.00000000,0.01100000,-0.04100000,-0.00900000,-0.02460000,0.01670000,0.01630000,-0.01750000,-0.00480000,1.00010000
$GPFPD,2292,523660.800,112.434,-0.385,1.108,31.42734951,120.62744203,16.760,0.012,-0.038,-0.009,0.808,17,15,04*53
$GTIMU,2292,523660.800,0.0071,-0.0527,0.0179,-0.0216,-0.0074,1.0003,13.2*49
09:27::22.793,1702661260782,120.62744203,31.42734951,3478526.22772842,559655.04128154,112.43400000,6.00000000,0.01200000,-0.03800000,-0.00900000,0.00710000,-0.05270000,0.01790000,-0.02160000,-0.00740000,1.00030000
$GPFPD,2292,523660.900,112.433,-0.386,1.110,31.42734947,120.62744205,16.759,0.011,-0.041,-0.010,0.806,17,15,04*5F
$GTIMU,2292,523660.900,-0.0127,0.0224,0.0117,-0.0167,-0.0060,0.9985,13.2*49
09:27::22.893,1702661260882,120.62744205,31.42734947,3478526.22330408,559655.04320844,112.43300000,6.00000000,0.01100000,-0.04100000,-0.01000000,-0.01270000,0.02240000,0.01170000,-0.01670000,-0.00600000,0.99850000
$GPFPD,2292,523661.000,112.432,-0.384,1.106,31.42734944,120.62744206,16.758,0.011,-0.038,-0.008,0.806,17,15,04*55
$GTIMU,2292,523661.000,0.0145,-0.0453,0.0110,-0.0211,-0.0075,1.0007,13.2*49
09:27::22.993,1702661260982,120.62744206,31.42734944,3478526.21998312,559655.04417821,112.43200000,6.00000000,0.01100000,-0.03800000,-0.00800000,0.01450000,-0.04530000,0.01100000,-0.02110000,-0.00750000,1.00070000
$GPGGA,012723.00,3125.6408443,N,12037.6470148,E,1,15,1.8,9.091,M,7.80,M,,*69
$GPFPD,2292,523661.100,112.432,-0.382,1.105,31.42734940,120.62744207,16.757,0.012,-0.039,-0.009,0.806,17,15,04*58
$GTIMU,2292,523661.100,0.0117,-0.0049,0.0008,-0.0182,-0.0053,0.9987,13.2*4C
09:27::23.092,1702661261082,120.62744207,31.42734940,3478526.21555335,559655.04515432,112.43200000,6.00000000,0.01200000,-0.03900000,-0.00900000,0.01170000,-0.00490000,0.00080000,-0.01820000,-0.00530000,0.99870000
$GPFPD,2292,523661.200,112.433,-0.386,1.110,31.42734936,120.62744208,16.756,0.013,-0.041,-0.009,0.805,17,15,04*58
$GTIMU,2292,523661.200,-0.0365,0.0434,-0.0031,-0.0178,-0.0047,1.0002,13.2*6D
09:27::23.193,1702661261182,120.62744208,31.42734936,3478526.21112358,559655.04613043,112.43300000,6.00000000,0.01300000,-0.04100000,-0.00900000,-0.03650000,0.04340000,-0.00310000,-0.01780000,-0.00470000,1.00020000
$GPFPD,2292,523661.300,112.433,-0.383,1.104,31.42734934,120.62744209,16.755,0.010,-0.032,-0.006,0.803,17,15,04*57
$GTIMU,2292,523661.300,0.0252,-0.0573,0.0036,-0.0219,-0.0085,0.9995,13.2*44
09:27::23.293,1702661261282,120.62744209,31.42734934,3478526.20891141,559655.04709388,112.43300000,6.00000000,0.01000000,-0.03200000,-0.00600000,0.02520000,-0.05730000,0.00360000,-0.02190000,-0.00850000,0.99950000
$GPFPD,2292,523661.400,112.434,-0.383,1.108,31.42734937,120.62744204,16.754,0.011,-0.034,-0.007,0.803,17,15,04*52
$GTIMU,2292,523661.400,-0.0087,0.0411,-0.0106,-0.0168,-0.0044,0.9978,13.2*68
09:27::23.393,1702661261382,120.62744204,31.42734937,3478526.21221066,559655.04232097,112.43400000,6.00000000,0.01100000,-0.03400000,-0.00700000,-0.00870000,0.04110000,-0.01060000,-0.01680000,-0.00440000,0.99780000
$GPFPD,2292,523661.500,112.435,-0.384,1.107,31.42734939,120.62744200,16.752,0.012,-0.034,-0.006,0.809,17,15,04*5E
$GTIMU,2292,523661.500,-0.0111,-0.0134,-0.0037,-0.0195,-0.0058,1.0010,13.2*4B
09:27::23.493,1702661261482,120.62744200,31.42734939,3478526.21440655,559655.03850517,112.43500000,6.00000000,0.01200000,-0.03400000,-0.00600000,-0.01110000,-0.01340000,-0.00370000,-0.01950000,-0.00580000,1.00100000
$GPFPD,2292,523661.600,112.436,-0.384,1.105,31.42734942,120.62744196,16.750,0.011,-0.033,-0.006,0.809,17,15,04*5A
$GTIMU,2292,523661.600,0.0008,-0.0186,-0.0129,-0.0196,-0.0071,0.9992,13.2*68
09:27::23.593,1702661261582,120.62744196,31.42734942,3478526.21771123,559655.03468304,112.43600000,6.00000000,0.01100000,-0.03300000,-0.00600000,0.00080000,-0.01860000,-0.01290000,-0.01960000,-0.00710000,0.99920000
$GPFPD,2292,523661.700,112.437,-0.384,1.111,31.42734944,120.62744191,16.749,0.011,-0.036,-0.007,0.811,17,15,04*5B
$GTIMU,2292,523661.700,-0.0092,0.0531,-0.0043,-0.0157,-0.0054,0.9989,13.2*6F
09:27::23.693,1702661261682,120.62744191,31.42734944,3478526.21990168,559655.02991647,112.43700000,6.00000000,0.01100000,-0.03600000,-0.00700000,-0.00920000,0.05310000,-0.00430000,-0.01570000,-0.00540000,0.99890000
$GPFPD,2292,523661.800,112.436,-0.383,1.105,31.42734946,120.62744188,16.747,0.011,-0.033,-0.006,0.811,17,15,04*57
$GTIMU,2292,523661.800,0.0122,-0.0561,0.0167,-0.0219,-0.0075,1.0005,13.2*4A
09:27::23.792,1702661261782,120.62744188,31.42734946,3478526.22210299,559655.02705145,112.43600000,6.00000000,0.01100000,-0.03300000,-0.00600000,0.01220000,-0.05610000,0.01670000,-0.02190000,-0.00750000,1.00050000
$GPFPD,2292,523661.900,112.438,-0.383,1.110,31.42734943,120.62744189,16.747,0.011,-0.036,-0.007,0.799,17,15,04*53
$GTIMU,2292,523661.900,-0.0047,0.0514,-0.0174,-0.0166,-0.0054,0.9986,13.2*66
09:27::23.893,1702661261882,120.62744189,31.42734943,3478526.21878202,559655.02802123,112.43800000,6.00000000,0.01100000,-0.03600000,-0.00700000,-0.00470000,0.05140000,-0.01740000,-0.01660000,-0.00540000,0.99860000
$GPFPD,2292,523662.000,112.438,-0.383,1.112,31.42734940,120.62744191,16.746,0.012,-0.035,-0.006,0.799,17,15,04*51
$GTIMU,2292,523662.000,-0.0104,0.0133,0.0020,-0.0195,-0.0055,1.0005,13.2*41
09:27::23.993,1702661261982,120.62744191,31.42734940,3478526.21546648,559655.02994179,112.43800000,6.00000000,0.01200000,-0.03500000,-0.00600000,-0.01040000,0.01330000,0.00200000,-0.01950000,-0.00550000,1.00050000
$GPGGA,012724.00,3125.6403703,N,12037.6469207,E,1,15,1.8,7.581,M,7.80,M,,*68
$GPFPD,2292,523662.100,112.437,-0.382,1.107,31.42734936,120.62744192,16.746,0.012,-0.034,-0.006,0.799,17,15,04*59
$GTIMU,2292,523662.100,0.0139,-0.0538,0.0070,-0.0205,-0.0073,0.9992,13.2*45
09:27::24.093,1702661262082,120.62744192,31.42734936,3478526.21103672,559655.03091790,112.43700000,6.00000000,0.01200000,-0.03400000,-0.00600000,0.01390000,-0.05380000,0.00700000,-0.02050000,-0.00730000,0.99920000
$GPFPD,2292,523662.200,112.439,-0.383,1.111,31.42734933,120.62744193,16.745,0.012,-0.037,-0.006,0.807,17,15,04*5E
$GTIMU,2292,523662.200,-0.0178,0.0434,-0.0140,-0.0154,-0.0046,0.9994,13.2*66
09:27::24.193,1702661262182,120.62744193,31.42734933,3478526.20771575,559655.03188768,112.43900000,6.00000000,0.01200000,-0.03700000,-0.00600000,-0.01780000,0.04340000,-0.01400000,-0.01540000,-0.00460000,0.99940000
$GPFPD,2292,523662.300,112.438,-0.383,1.108,31.42734927,120.62744192,16.741,0.007,-0.042,-0.011,0.808,17,14,04*58
$GTIMU,2292,523662.300,-0.0031,-0.0379,0.0122,-0.0208,-0.0073,1.0008,13.2*69
09:27::24.293,1702661262282,120.62744192,31.42734927,3478526.20105753,559655.03097488,112.43800000,6.00000000,0.00700000,-0.04200000,-0.01100000,-0.00310000,-0.03790000,0.01220000,-0.02080000,-0.00730000,1.00080000
$GPFPD,2292,523662.400,112.438,-0.382,1.109,31.42734909,120.62744182,16.724,0.006,-0.042,-0.012,0.808,17,14,04*53
$GTIMU,2292,523662.400,0.0077,0.0059,0.0048,-0.0183,-0.0072,0.9979,13.2*66
09:27::24.393,1702661262382,120.62744182,31.42734909,3478526.18104485,559655.02158102,112.43800000,6.00000000,0.00600000,-0.04200000,-0.01200000,0.00770000,0.00590000,0.00480000,-0.01830000,-0.00720000,0.99790000
$GPFPD,2292,523662.500,112.438,-0.384,1.114,31.42734892,120.62744171,16.707,0.007,-0.044,-0.012,0.812,17,14,04*5A
$GTIMU,2292,523662.500,-0.0240,0.0514,-0.0060,-0.0177,-0.0043,1.0002,13.2*63
09:27::24.493,1702661262482,120.62744171,31.42734892,3478526.16213555,559655.01123004,112.43800000,6.00000000,0.00700000,-0.04400000,-0.01200000,-0.02400000,0.05140000,-0.00600000,-0.01770000,-0.00430000,1.00020000
$GPFPD,2292,523662.600,112.437,-0.383,1.108,31.42734874,120.62744161,16.690,0.007,-0.042,-0.011,0.812,17,14,04*5F
$GTIMU,2292,523662.600,0.0071,-0.0607,0.0128,-0.0210,-0.0070,1.0007,13.2*46
09:27::24.592,1702661262582,120.62744161,31.42734874,3478526.14212288,559655.00183617,112.43700000,6.00000000,0.00700000,-0.04200000,-0.01100000,0.00710000,-0.06070000,0.01280000,-0.02100000,-0.00700000,1.00070000
$GPFPD,2292,523662.700,112.438,-0.384,1.111,31.42734856,120.62744151,16.672,0.007,-0.044,-0.013,0.806,17,14,04*50
$GTIMU,2292,523662.700,-0.0098,0.0315,-0.0026,-0.0163,-0.0055,0.9973,13.2*66
09:27::24.693,1702661262682,120.62744151,31.42734856,3478526.12211020,559654.99244231,112.43800000,6.00000000,0.00700000,-0.04400000,-0.01300000,-0.00980000,0.03150000,-0.00260000,-0.01630000,-0.00550000,0.99730000
$GPFPD,2292,523662.800,112.438,-0.384,1.112,31.42734841,120.62744143,16.658,0.008,-0.044,-0.012,0.806,17,14,04*5F
$GTIMU,2292,523662.800,-0.0076,0.0059,-0.0003,-0.0199,-0.0058,1.0009,13.2*61
09:27::24.793,1702661262782,120.62744143,31.42734841,3478526.10543479,559654.98493101,112.43800000,6.00000000,0.00800000,-0.04400000,-0.01200000,-0.00760000,0.00590000,-0.00030000,-0.01990000,-0.00580000,1.00090000
$GPFPD,2292,523662.900,112.437,-0.381,1.107,31.42734838,120.62744144,16.657,0.008,-0.042,-0.012,0.806,17,14,04*50
$GTIMU,2292,523662.900,0.0230,-0.0561,0.0093,-0.0204,-0.0076,0.9992,13.2*42
09:27::24.893,1702661262882,120.62744144,31.42734838,3478526.10211382,559654.98590079,112.43700000,6.00000000,0.00800000,-0.04200000,-0.01200000,0.02300000,-0.05610000,0.00930000,-0.02040000,-0.00760000,0.99920000
$GPFPD,2292,523663.000,112.438,-0.383,1.112,31.42734834,120.62744144,16.656,0.007,-0.045,-0.012,0.806,17,14,04*54
$GTIMU,2292,523663.000,-0.0212,0.0554,-0.0049,-0.0159,-0.0060,0.9994,13.2*6C
09:27::24.993,1702661262982,120.62744144,31.42734834,3478526.09767862,559654.98592612,112.43800000,6.00000000,0.00700000,-0.04500000,-0.01200000,-0.02120000,0.05540000,-0.00490000,-0.01590000,-0.00600000,0.99940000
$GPGGA,012725.00,3125.6411454,N,12037.6470774,E,1,14,1.9,10.057,M,7.80,M,,*5A
$GPFPD,2292,523663.100,112.438,-0.384,1.110,31.42734830,120.62744145,16.655,0.008,-0.043,-0.011,0.806,17,14,04*5C
$GTIMU,2292,523663.100,-0.0076,-0.0197,0.0042,-0.0209,-0.0059,1.0002,13.2*6F
09:27::25.093,1702661263082,120.62744145,31.42734830,3478526.09324886,559654.98690223,112.43800000,6.00000000,0.00800000,-0.04300000,-0.01100000,-0.00760000,-0.01970000,0.00420000,-0.02090000,-0.00590000,1.00020000
$GPFPD,2292,523663.200,112.437,-0.381,1.108,31.42734826,120.62744146,16.654,0.007,-0.043,-0.012,0.805,17,14,04*56
$GTIMU,2292,523663.200,0.0213,-0.0266,0.0047,-0.0187,-0.0075,0.9988,13.2*40
09:27::25.193,1702661263182,120.62744146,31.42734826,3478526.08881909,559654.98787833,112.43700000,6.00000000,0.00700000,-0.04300000,-0.01200000,0.02130000,-0.02660000,0.00470000,-0.01870000,-0.00750000,0.99880000
$GPFPD,2292,523663.300,112.438,-0.383,1.113,31.42734825,120.62744146,16.655,0.007,-0.039,-0.007,0.809,17,14,04*57
$GTIMU,2292,523663.300,-0.0229,0.0531,-0.0048,-0.0168,-0.0039,0.9994,13.2*6B
09:27::25.293,1702661263282,120.62744146,31.42734825,3478526.08771029,559654.98788467,112.43800000,6.00000000,0.00700000,-0.03900000,-0.00700000,-0.02290000,0.05310000,-0.00480000,-0.01680000,-0.00390000,0.99940000
$GPFPD,2292,523663.400,112.438,-0.383,1.109,31.42734833,120.62744143,16.664,0.007,-0.037,-0.006,0.809,17,14,04*54
$GTIMU,2292,523663.400,-0.0031,-0.0436,0.0065,-0.0214,-0.0066,1.0006,13.2*66
09:27::25.393,1702661263382,120.62744143,31.42734833,3478526.09656439,559654.98498166,112.43800000,6.00000000,0.00700000,-0.03700000,-0.00600000,-0.00310000,-0.04360000,0.00650000,-0.02140000,-0.00660000,1.00060000
$GPFPD,2292,523663.500,112.438,-0.381,1.108,31.42734842,120.62744141,16.673,0.006,-0.037,-0.008,0.805,17,14,04*57
$GTIMU,2292,523663.500,0.0100,-0.0061,0.0053,-0.0177,-0.0070,0.9977,13.2*4C
09:27::25.493,1702661263482,120.62744141,31.42734842,3478526.10653273,559654.98302311,112.43800000,6.00000000,0.00600000,-0.03700000,-0.00800000,0.01000000,-0.00610000,0.00530000,-0.01770000,-0.00700000,0.99770000
$GPFPD,2292,523663.600,112.438,-0.383,1.114,31.42734850,120.62744138,16.682,0.007,-0.039,-0.007,0.805,17,14,04*58
$GTIMU,2292,523663.600,-0.0206,0.0542,-0.0037,-0.0175,-0.0050,1.0004,13.2*64
09:27::25.593,1702661263582,120.62744138,31.42734850,3478526.11538683,559654.98012011,112.43800000,6.00000000,0.00700000,-0.03900000,-0.00700000,-0.02060000,0.05420000,-0.00370000,-0.01750000,-0.00500000,1.00040000
$GPFPD,2292,523663.700,112.438,-0.382,1.108,31.42734859,120.62744136,16.690,0.007,-0.037,-0.006,0.806,17,14,04*5D
$GTIMU,2292,523663.700,0.0105,-0.0624,0.0071,-0.0215,-0.0072,1.0005,13.2*4D
09:27::25.693,1702661263682,120.62744136,31.42734859,3478526.12535516,559654.97816156,112.43800000,6.00000000,0.00700000,-0.03700000,-0.00600000,0.01050000,-0.06240000,0.00710000,-0.02150000,-0.00720000,1.00050000
$GPFPD,2292,523663.800,112.438,-0.382,1.111,31.42734864,120.62744134,16.697,0.007,-0.039,-0.008,0.806,17,14,04*51
$GTIMU,2292,523663.800,-0.0053,0.0332,-0.0015,-0.0163,-0.0055,0.9983,13.2*65
09:27::25.793,1702661263782,120.62744134,31.42734864,3478526.13088830,559654.97622834,112.43800000,6.00000000,0.00700000,-0.03900000,-0.00800000,-0.00530000,0.03320000,-0.00150000,-0.01630000,-0.00550000,0.99830000
$GPFPD,2292,523663.900,112.438,-0.383,1.112,31.42734861,120.62744135,16.696,0.008,-0.039,-0.007,0.809,17,14,04*58
$GTIMU,2292,523663.900,-0.0178,0.0025,0.0020,-0.0198,-0.0057,1.0005,13.2*4B
09:27::25.893,1702661263882,120.62744135,31.42734861,3478526.12756733,559654.97719812,112.43800000,6.00000000,0.00800000,-0.03900000,-0.00700000,-0.01780000,0.00250000,0.00200000,-0.01980000,-0.00570000,1.00050000
$GPFPD,2292,523664.000,112.438,-0.381,1.108,31.42734857,120.62744136,16.695,0.007,-0.037,-0.007,0.809,17,14,04*5B
$GTIMU,2292,523664.000,0.0167,-0.0425,0.0065,-0.0201,-0.0080,0.9991,13.2*4B
09:27::25.993,1702661263982,120.62744136,31.42734857,3478526.12313756,559654.97817423,112.43800000,6.00000000,0.00700000,-0.03700000,-0.00700000,0.01670000,-0.04250000,0.00650000,-0.02010000,-0.00800000,0.99910000
$GPGGA,012726.00,3125.6411500,N,12037.6470743,E,1,14,1.9,10.112,M,7.80,M,,*5D
$GPFPD,2292,523664.100,112.438,-0.382,1.113,31.42734854,120.62744136,16.695,0.008,-0.040,-0.008,0.809,17,14,04*50
$GTIMU,2292,523664.100,-0.0132,0.0542,-0.0037,-0.0161,-0.0046,0.9988,13.2*67
09:27::26.093,1702661264082,120.62744136,31.42734854,3478526.11981117,559654.97819322,112.43800000,6.00000000,0.00800000,-0.04000000,-0.00800000,-0.01320000,0.05420000,-0.00370000,-0.01610000,-0.00460000,0.99880000
$GPFPD,2292,523664.200,112.438,-0.383,1.109,31.42734850,120.62744137,16.694,0.009,-0.038,-0.007,0.809,17,14,04*5C
$GTIMU,2292,523664.200,-0.0054,-0.0413,0.0060,-0.0212,-0.0061,1.0008,13.2*69
09:27::26.193,1702661264182,120.62744137,31.42734850,3478526.11538140,559654.97916933,112.43800000,6.00000000,0.00900000,-0.03800000,-0.00700000,-0.00540000,-0.04130000,0.00600000,-0.02120000,-0.00610000,1.00080000
$GPFPD,2292,523664.300,112.438,-0.381,1.108,31.42734850,120.62744137,16.696,0.006,-0.033,-0.003,0.808,17,14,04*5D
$GTIMU,2292,523664.300,0.0071,-0.0078,0.0008,-0.0175,-0.0068,0.9982,13.2*4D
09:27::26.293,1702661264282,120.62744137,31.42734850,3478526.11538140,559654.97916933,112.43800000,6.00000000,0.00600000,-0.03300000,-0.00300000,0.00710000,-0.00780000,0.00080000,-0.01750000,-0.00680000,0.99820000
$GPFPD,2292,523664.400,112.439,-0.383,1.112,31.42734857,120.62744135,16.705,0.007,-0.035,-0.003,0.808,17,14,04*5B
$GTIMU,2292,523664.400,-0.0200,0.0423,-0.0026,-0.0179,-0.0046,1.0001,13.2*6F
09:27::26.393,1702661264382,120.62744135,31.42734857,3478526.12313213,559654.97722344,112.43900000,6.00000000,0.00700000,-0.03500000,-0.00300000,-0.02000000,0.04230000,-0.00260000,-0.01790000,-0.00460000,1.00010000
$GPFPD,2292,523664.500,112.438,-0.381,1.107,31.42734865,120.62744132,16.714,0.007,-0.032,-0.002,0.807,17,14,04*52
$GTIMU,2292,523664.500,0.0133,-0.0573,0.0110,-0.0216,-0.0077,1.0002,13.2*4B
09:27::26.493,1702661264482,120.62744132,31.42734865,3478526.13198624,559654.97432044,112.43800000,6.00000000,0.00700000,-0.03200000,-0.00200000,0.01330000,-0.05730000,0.01100000,-0.02160000,-0.00770000,1.00020000
$GPFPD,2292,523664.600,112.439,-0.381,1.111,31.42734873,120.62744130,16.724,0.006,-0.035,-0.003,0.807,17,14,04*56
$GTIMU,2292,523664.600,-0.0036,0.0411,-0.0055,-0.0160,-0.0059,0.9982,13.2*63
09:27::26.593,1702661264582,120.62744130,31.42734873,3478526.14084577,559654.97236822,112.43900000,6.00000000,0.00600000,-0.03500000,-0.00300000,-0.00360000,0.04110000,-0.00550000,-0.01600000,-0.00590000,0.99820000
$GPFPD,2292,523664.700,112.438,-0.382,1.111,31.42734881,120.62744127,16.733,0.007,-0.034,-0.002,0.803,17,14,04*5D
$GTIMU,2292,523664.700,-0.0133,-0.0044,0.0048,-0.0199,-0.0057,1.0010,13.2*6C
09:27::26.693,1702661264682,120.62744127,31.42734881,3478526.14969988,559654.96946522,112.43800000,6.00000000,0.00700000,-0.03400000,-0.00200000,-0.01330000,-0.00440000,0.00480000,-0.01990000,-0.00570000,1.00100000
$GPFPD,2292,523664.800,112.438,-0.381,1.107,31.42734886,120.62744126,16.740,0.007,-0.033,-0.002,0.803,17,14,04*53
$GTIMU,2292,523664.800,0.0133,-0.0391,0.0048,-0.0199,-0.0073,0.9990,13.2*4A
09:27::26.793,1702661264782,120.62744126,31.42734886,3478526.15523844,559654.96848278,112.43800000,6.00000000,0.00700000,-0.03300000,-0.00200000,0.01330000,-0.03910000,0.00480000,-0.01990000,-0.00730000,0.99900000
$GPFPD,2292,523664.900,112.439,-0.382,1.112,31.42734883,120.62744126,16.740,0.008,-0.036,-0.003,0.803,17,14,04*5A
$GTIMU,2292,523664.900,-0.0161,0.0514,-0.0066,-0.0162,-0.0045,0.9989,13.2*6F
09:27::26.893,1702661264882,120.62744126,31.42734883,3478526.15191205,559654.96850177,112.43900000,6.00000000,0.00800000,-0.03600000,-0.00300000,-0.01610000,0.05140000,-0.00660000,-0.01620000,-0.00450000,0.99890000
$GPFPD,2292,523665.000,112.438,-0.381,1.108,31.42734880,120.62744127,16.739,0.008,-0.033,-0.002,0.803,17,14,04*53
$GTIMU,2292,523665.000,0.0048,-0.0487,0.0111,-0.0217,-0.0071,1.0009,13.2*45
09:27::26.993,1702661264982,120.62744127,31.42734880,3478526.14859108,559654.96947155,112.43800000,6.00000000,0.00800000,-0.03300000,-0.00200000,0.00480000,-0.04870000,0.01110000,-0.02170000,-0.00710000,1.00090000
$GPGGA,012727.00,3125.6411457,N,12037.6470639,E,1,14,1.9,10.129,M,7.80,M,,*5B
$GPFPD,2292,523665.100,112.438,-0.381,1.110,31.42734877,120.62744128,16.739,0.007,-0.035,-0.003,0.803,17,14,04*54
$GTIMU,2292,523665.100,0.0021,0.0190,-0.0003,-0.0166,-0.0062,0.9979,13.2*4B
09:27::27.093,1702661265082,120.62744128,31.42734877,3478526.14527011,559654.97044133,112.43800000,6.00000000,0.00700000,-0.03500000,-0.00300000,0.00210000,0.01900000,-0.00030000,-0.01660000,-0.00620000,0.99790000
$GPFPD,2292,523665.200,112.438,-0.382,1.112,31.42734874,120.62744129,16.739,0.008,-0.036,-0.002,0.800,17,14,04*5A
$GTIMU,2292,523665.200,-0.0178,0.0201,-0.0003,-0.0189,-0.0051,1.0007,13.2*6A
09:27::27.193,1702661265182,120.62744129,31.42734874,3478526.14194914,559654.97141111,112.43800000,6.00000000,0.00800000,-0.03600000,-0.00200000,-0.01780000,0.02010000,-0.00030000,-0.01890000,-0.00510000,1.00070000
$GPFPD,2292,523665.300,112.437,-0.380,1.106,31.42734872,120.62744129,16.741,0.007,-0.031,0.002,0.804,17,14,04*7B
$GTIMU,2292,523665.300,0.0196,-0.0578,0.0087,-0.0208,-0.0081,0.9995,13.2*4E
09:27::27.292,1702661265282,120.62744129,31.42734872,3478526.13973154,559654.97142377,112.43700000,6.00000000,0.00700000,-0.03100000,0.00200000,0.01960000,-0.05780000,0.00870000,-0.02080000,-0.00810000,0.99950000
$GPFPD,2292,523665.400,112.438,-0.381,1.112,31.42734875,120.62744127,16.750,0.007,-0.034,0.001,0.804,17,14,04*78
$GTIMU,2292,523665.400,-0.0200,0.0576,-0.0066,-0.0160,-0.0044,0.9984,13.2*6D
09:27::27.393,1702661265382,120.62744127,31.42734875,3478526.14304708,559654.96950321,112.43800000,6.00000000,0.00700000,-0.03400000,0.00100000,-0.02000000,0.05760000,-0.00660000,-0.01600000,-0.00440000,0.99840000
$GPFPD,2292,523665.500,112.438,-0.381,1.109,31.42734878,120.62744126,16.759,0.008,-0.032,0.002,0.803,17,15,04*7A
$GTIMU,2292,523665.500,0.0003,-0.0339,0.0082,-0.0215,-0.0070,1.0009,13.2*45
09:27::27.493,1702661265482,120.62744126,31.42734878,3478526.14636805,559654.96853343,112.43800000,6.00000000,0.00800000,-0.03200000,0.00200000,0.00030000,-0.03390000,0.00820000,-0.02150000,-0.00700000,1.00090000
$GPFPD,2292,523665.600,112.438,-0.380,1.108,31.42734881,120.62744124,16.768,0.007,-0.033,0.001,0.803,17,15,04*72
$GTIMU,2292,523665.600,0.0088,-0.0038,0.0025,-0.0177,-0.0067,0.9982,13.2*49
09:27::27.593,1702661265582,120.62744124,31.42734881,3478526.14968359,559654.96661287,112.43800000,6.00000000,0.00700000,-0.03300000,0.00100000,0.00880000,-0.00380000,0.00250000,-0.01770000,-0.00670000,0.99820000
$GPFPD,2292,523665.700,112.438,-0.382,1.112,31.42734884,120.62744122,16.777,0.008,-0.035,0.002,0.808,17,15,04*76
$GTIMU,2292,523665.700,-0.0240,0.0372,-0.0043,-0.0175,-0.0042,1.0002,13.2*62
09:27::27.692,1702661265682,120.62744122,31.42734884,3478526.15299913,559654.96469231,112.43800000,6.00000000,0.00800000,-0.03500000,0.00200000,-0.02400000,0.03720000,-0.00430000,-0.01750000,-0.00420000,1.00020000
$GPFPD,2292,523665.800,112.437,-0.380,1.106,31.42734885,120.62744121,16.783,0.009,-0.032,0.002,0.808,17,15,04*7E
$GTIMU,2292,523665.800,0.0116,-0.0624,0.0099,-0.0217,-0.0070,1.0002,13.2*47
09:27::27.793,1702661265782,120.62744121,31.42734885,3478526.15410250,559654.96373520,112.43700000,6.00000000,0.00900000,-0.03200000,0.00200000,0.01160000,-0.06240000,0.00990000,-0.02170000,-0.00700000,1.00020000
$GPFPD,2292,523665.900,112.438,-0.381,1.111,31.42734882,120.62744122,16.784,0.008,-0.035,0.001,0.809,17,15,04*70
$GTIMU,2292,523665.900,-0.0092,0.0491,-0.0043,-0.0157,-0.0053,0.9978,13.2*67
09:27::27.893,1702661265882,120.62744122,31.42734882,3478526.15078153,559654.96470497,112.43800000,6.00000000,0.00800000,-0.03500000,0.00100000,-0.00920000,0.04910000,-0.00430000,-0.01570000,-0.00530000,0.99780000
$GPFPD,2292,523666.000,112.438,-0.382,1.109,31.42734879,120.62744123,16.784,0.008,-0.033,0.003,0.809,17,15,04*71
$GTIMU,2292,523666.000,-0.0082,-0.0203,0.0042,-0.0208,-0.0072,1.0013,13.2*66
09:27::27.993,1702661265982,120.62744123,31.42734879,3478526.14746056,559654.96567475,112.43800000,6.00000000,0.00800000,-0.03300000,0.00300000,-0.00820000,-0.02030000,0.00420000,-0.02080000,-0.00720000,1.00130000
$GPGGA,012728.00,3125.6410940,N,12037.6470347,E,1,15,1.8,10.009,M,7.80,M,,*51
$GPFPD,2292,523666.100,112.437,-0.380,1.108,31.42734876,120.62744124,16.784,0.007,-0.033,0.002,0.809,17,15,04*7A
$GTIMU,2292,523666.100,0.0111,-0.0192,0.0071,-0.0181,-0.0073,0.9991,13.2*42
09:27::28.093,1702661266082,120.62744124,31.42734876,3478526.14413959,559654.96664453,112.43700000,6.00000000,0.00700000,-0.03300000,0.00200000,0.01110000,-0.01920000,0.00710000,-0.01810000,-0.00730000,0.99910000
$GPFPD,2292,523666.200,112.438,-0.382,1.113,31.42734873,120.62744125,16.784,0.008,-0.036,0.002,0.802,17,15,04*7B
$GTIMU,2292,523666.200,-0.0212,0.0571,-0.0054,-0.0170,-0.0045,0.9993,13.2*6B
09:27::28.193,1702661266182,120.62744125,31.42734873,3478526.14081863,559654.96761431,112.43800000,6.00000000,0.00800000,-0.03600000,0.00200000,-0.02120000,0.05710000,-0.00540000,-0.01700000,-0.00450000,0.99930000
$GPFPD,2292,523666.300,112.438,-0.380,1.107,31.42734871,120.62744123,16.783,0.004,-0.031,-0.001,0.805,17,14,04*5D
$GTIMU,2292,523666.300,0.0156,-0.0664,0.0082,-0.0224,-0.0070,1.0004,13.2*43
09:27::28.293,1702661266282,120.62744123,31.42734871,3478526.13859017,559654.96572540,112.43800000,6.00000000,0.00400000,-0.03100000,-0.00100000,0.01560000,-0.06640000,0.00820000,-0.02240000,-0.00700000,1.00040000
$GPFPD,2292,523666.400,112.438,-0.380,1.109,31.42734872,120.62744115,16.778,0.004,-0.034,-0.003,0.805,17,14,04*51
$GTIMU,2292,523666.400,-0.0076,0.0207,-0.0003,-0.0159,-0.0052,0.9980,13.2*66
09:27::28.393,1702661266382,120.62744115,31.42734872,3478526.13965554,559654.95811280,112.43800000,6.00000000,0.00400000,-0.03400000,-0.00300000,-0.00760000,0.02070000,-0.00030000,-0.01590000,-0.00520000,0.99800000
$GPFPD,2292,523666.500,112.438,-0.381,1.111,31.42734872,120.62744108,16.772,0.005,-0.034,-0.002,0.809,17,14,04*52
$GTIMU,2292,523666.500,-0.0144,0.0138,0.0020,-0.0193,-0.0058,1.0007,13.2*46
09:27::28.492,1702661266482,120.62744108,31.42734872,3478526.13961753,559654.95145732,112.43800000,6.00000000,0.00500000,-0.03400000,-0.00200000,-0.01440000,0.01380000,0.00200000,-0.01930000,-0.00580000,1.00070000
$GPFPD,2292,523666.600,112.437,-0.379,1.107,31.42734873,120.62744100,16.767,0.004,-0.033,-0.001,0.809,17,14,04*56
$GTIMU,2292,523666.600,0.0207,-0.0345,0.0076,-0.0199,-0.0078,0.9997,13.2*4A
09:27::28.593,1702661266582,120.62744100,31.42734873,3478526.14068290,559654.94384472,112.43700000,6.00000000,0.00400000,-0.03300000,-0.00100000,0.02070000,-0.03450000,0.00760000,-0.01990000,-0.00780000,0.99970000
$GPFPD,2292,523666.700,112.438,-0.381,1.113,31.42734874,120.62744092,16.761,0.005,-0.035,-0.002,0.809,17,14,04*55
$GTIMU,2292,523666.700,-0.0285,0.0554,-0.0043,-0.0168,-0.0044,0.9988,13.2*63
09:27::28.693,1702661266682,120.62744092,31.42734874,3478526.14174826,559654.93623213,112.43800000,6.00000000,0.00500000,-0.03500000,-0.00200000,-0.02850000,0.05540000,-0.00430000,-0.01680000,-0.00440000,0.99880000
$GPFPD,2292,523666.800,112.437,-0.381,1.106,31.42734873,120.62744086,16.757,0.005,-0.032,-0.002,0.809,17,14,04*51
$GTIMU,2292,523666.800,0.0036,-0.0709,0.0065,-0.0224,-0.0072,1.0001,13.2*4B
09:27::28.793,1702661266782,120.62744086,31.42734873,3478526.14060689,559654.93053376,112.43700000,6.00000000,0.00500000,-0.03200000,-0.00200000,0.00360000,-0.07090000,0.00650000,-0.02240000,-0.00720000,1.00010000
$GPFPD,2292,523666.900,112.438,-0.379,1.106,31.42734870,120.62744087,16.757,0.004,-0.034,-0.003,0.805,17,14,04*50
$GTIMU,2292,523666.900,0.0122,-0.0038,-0.0038,-0.0159,-0.0065,0.9984,13.2*6D
09:27::28.893,1702661266882,120.62744087,31.42734870,3478526.13728592,559654.93150354,112.43800000,6.00000000,0.00400000,-0.03400000,-0.00300000,0.01220000,-0.00380000,-0.00380000,-0.01590000,-0.00650000,0.99840000
$GPFPD,2292,523667.000,112.438,-0.381,1.112,31.42734867,120.62744087,16.757,0.005,-0.036,-0.002,0.805,17,14,04*5E
$GTIMU,2292,523667.000,-0.0268,0.0576,0.0020,-0.0175,-0.0046,1.0007,13.2*46
09:27::28.993,1702661266982,120.62744087,31.42734867,3478526.13395952,559654.93152253,112.43800000,6.00000000,0.00500000,-0.03600000,-0.00200000,-0.02680000,0.05760000,0.00200000,-0.01750000,-0.00460000,1.00070000
$GPGGA,012729.00,3125.6411551,N,12037.6470837,E,1,14,1.9,10.136,M,7.80,M,,*5C
$GPFPD,2292,523667.100,112.437,-0.380,1.107,31.42734864,120.62744088,16.757,0.005,-0.033,-0.002,0.805,17,14,04*5C
$GTIMU,2292,523667.100,0.0156,-0.0521,0.0105,-0.0219,-0.0078,0.9993,13.2*45
09:27::29.093,1702661267082,120.62744088,31.42734864,3478526.13063856,559654.93249231,112.43700000,6.00000000,0.00500000,-0.03300000,-0.00200000,0.01560000,-0.05210000,0.01050000,-0.02190000,-0.00780000,0.99930000
$GPFPD,2292,523667.200,112.438,-0.380,1.111,31.42734861,120.62744088,16.756,0.005,-0.036,-0.003,0.804,17,14,04*56
$GTIMU,2292,523667.200,-0.0110,0.0434,-0.0054,-0.0159,-0.0047,0.9984,13.2*64
09:27::29.193,1702661267182,120.62744088,31.42734861,3478526.12731216,559654.93251130,112.43800000,6.00000000,0.00500000,-0.03600000,-0.00300000,-0.01100000,0.04340000,-0.00540000,-0.01590000,-0.00470000,0.99840000
$GPFPD,2292,523667.300,112.437,-0.381,1.109,31.42734857,120.62744087,16.755,0.002,-0.038,-0.004,0.804,17,15,04*56
$GTIMU,2292,523667.300,-0.0094,-0.0294,0.0048,-0.0208,-0.0057,1.0016,13.2*65
09:27::29.293,1702661267282,120.62744087,31.42734857,3478526.12287153,559654.93158585,112.43700000,6.00000000,0.00200000,-0.03800000,-0.00400000,-0.00940000,-0.02940000,0.00480000,-0.02080000,-0.00570000,1.00160000
$GPFPD,2292,523667.400,112.437,-0.379,1.107,31.42734853,120.62744079,16.752,-0.000,-0.038,-0.006,0.804,17,15,04*77
$GTIMU,2292,523667.400,0.0094,-0.0231,0.0048,-0.0187,-0.0081,0.9982,13.2*43
09:27::29.393,1702661267382,120.62744079,31.42734853,3478526.11839290,559654.92400490,112.43700000,6.00000000,0.00000000,-0.03800000,-0.00600000,0.00940000,-0.02310000,0.00480000,-0.01870000,-0.00810000,0.99820000
$GPFPD,2292,523667.500,112.438,-0.381,1.113,31.42734848,120.62744072,16.748,0.001,-0.041,-0.006,0.809,17,15,04*5E
$GTIMU,2292,523667.500,-0.0177,0.0633,-0.0049,-0.0165,-0.0044,0.9996,13.2*64
09:27::29.493,1702661267482,120.62744072,31.42734848,3478526.11281091,559654.91738108,112.43800000,6.00000000,0.00100000,-0.04100000,-0.00600000,-0.01770000,0.06330000,-0.00490000,-0.01650000,-0.00440000,0.99960000
$GPFPD,2292,523667.600,112.437,-0.380,1.106,31.42734844,120.62744065,16.744,0.001,-0.038,-0.005,0.809,17,15,04*5C
$GTIMU,2292,523667.600,0.0065,-0.0681,0.0111,-0.0220,-0.0071,1.0004,13.2*43
09:27::29.592,1702661267582,120.62744065,31.42734844,3478526.10833771,559654.91075092,112.43700000,6.00000000,0.00100000,-0.03800000,-0.00500000,0.00650000,-0.06810000,0.01110000,-0.02200000,-0.00710000,1.00040000
$GPFPD,2292,523667.700,112.437,-0.380,1.108,31.42734839,120.62744057,16.740,-0.000,-0.040,-0.006,0.800,17,15,04*75
$GTIMU,2292,523667.700,-0.0002,0.0099,0.0014,-0.0163,-0.0070,0.9983,13.2*43
09:27::29.693,1702661267682,120.62744057,31.42734839,3478526.10275028,559654.90317631,112.43700000,6.00000000,0.00000000,-0.04000000,-0.00600000,-0.00020000,0.00990000,0.00140000,-0.01630000,-0.00700000,0.99830000
$GPFPD,2292,523667.800,112.437,-0.380,1.111,31.42734835,120.62744052,16.737,0.001,-0.041,-0.005,0.800,17,15,04*55
$GTIMU,2292,523667.800,-0.0104,0.0286,0.0065,-0.0185,-0.0047,1.0001,13.2*46
09:27::29.793,1702661267782,120.62744052,31.42734835,3478526.09828794,559654.89844772,112.43700000,6.00000000,0.00100000,-0.04100000,-0.00500000,-0.01040000,0.02860000,0.00650000,-0.01850000,-0.00470000,1.00010000
$GPFPD,2292,523667.900,112.436,-0.379,1.107,31.42734831,120.62744052,16.737,0.002,-0.039,-0.005,0.803,17,15,04*5F
$GTIMU,2292,523667.900,0.0094,-0.0385,0.0059,-0.0211,-0.0059,0.9998,13.2*42
09:27::29.893,1702661267882,120.62744052,31.42734831,3478526.09385274,559654.89847305,112.43600000,6.00000000,0.00200000,-0.03900000,-0.00500000,0.00940000,-0.03850000,0.00590000,-0.02110000,-0.00590000,0.99980000
$GPFPD,2292,523668.000,112.436,-0.380,1.112,31.42734828,120.62744052,16.736,0.003,-0.042,-0.006,0.803,17,15,04*5C
$GTIMU,2292,523668.000,-0.0166,0.0525,0.0003,-0.0162,-0.0045,0.9985,13.2*4D
09:27::29.993,1702661267982,120.62744052,31.42734828,3478526.09052634,559654.89849204,112.43600000,6.00000000,0.00300000,-0.04200000,-0.00600000,-0.01660000,0.05250000,0.00030000,-0.01620000,-0.00450000,0.99850000
$GPGGA,012730.00,3125.6411525,N,12037.6471159,E,1,15,1.8,10.063,M,7.80,M,,*56
$GPFPD,2292,523668.100,112.436,-0.381,1.109,31.42734824,120.62744053,16.736,0.002,-0.040,-0.005,0.803,17,15,04*5B
$GTIMU,2292,523668.100,-0.0105,-0.0385,0.0048,-0.0208,-0.0077,1.0011,13.2*65
09:27::30.093,1702661268082,120.62744053,31.42734824,3478526.08609658,559654.89946815,112.43600000,6.00000000,0.00200000,-0.04000000,-0.00500000,-0.01050000,-0.03850000,0.00480000,-0.02080000,-0.00770000,1.00110000
$GPFPD,2292,523668.200,112.436,-0.379,1.107,31.42734820,120.62744053,16.735,-0.000,-0.039,-0.006,0.808,17,15,04*7F
$GTIMU,2292,523668.200,0.0225,-0.0197,0.0064,-0.0182,-0.0087,0.9985,13.2*47
09:27::30.193,1702661268182,120.62744053,31.42734820,3478526.08166138,559654.89949348,112.43600000,6.00000000,0.00000000,-0.03900000,-0.00600000,0.02250000,-0.01970000,0.00640000,-0.01820000,-0.00870000,0.99850000
$GPFPD,2292,523668.300,112.437,-0.380,1.111,31.42734819,120.62744053,16.736,0.004,-0.036,-0.002,0.807,17,15,04*5A
$GTIMU,2292,523668.300,-0.0138,0.0429,-0.0100,-0.0181,-0.0024,1.0003,13.2*62
09:27::30.293,1702661268282,120.62744053,31.42734819,3478526.08055258,559654.89949981,112.43700000,6.00000000,0.00400000,-0.03600000,-0.00200000,-0.01380000,0.04290000,-0.01000000,-0.01810000,-0.00240000,1.00030000
$GPFPD,2292,523668.400,112.435,-0.380,1.104,31.42734826,120.62744055,16.743,0.003,-0.034,-0.001,0.807,17,15,04*55
$GTIMU,2292,523668.400,-0.0071,-0.0652,0.0174,-0.0208,-0.0076,1.0002,13.2*60
09:27::30.393,1702661268382,120.62744055,31.42734826,3478526.08832503,559654.90135706,112.43500000,6.00000000,0.00300000,-0.03400000,-0.00100000,-0.00710000,-0.06520000,0.01740000,-0.02080000,-0.00760000,1.00020000
$GPFPD,2292,523668.500,112.436,-0.379,1.107,31.42734833,120.62744057,16.750,0.002,-0.035,-0.003,0.810,17,14,04*53
$GTIMU,2292,523668.500,0.0060,0.0235,-0.0055,-0.0169,-0.0071,0.9972,13.2*4E
09:27::30.493,1702661268482,120.62744057,31.42734833,3478526.09609748,559654.90321430,112.43600000,6.00000000,0.00200000,-0.03500000,-0.00300000,0.00600000,0.02350000,-0.00550000,-0.01690000,-0.00710000,0.99720000
$GPFPD,2292,523668.600,112.436,-0.379,1.110,31.42734840,120.62744059,16.756,0.004,-0.037,-0.001,0.810,17,14,04*5C
$GTIMU,2292,523668.600,-0.0064,0.0275,-0.0026,-0.0178,-0.0037,1.0014,13.2*67
09:27::30.593,1702661268582,120.62744059,31.42734840,3478526.10386993,559654.90507155,112.43600000,6.00000000,0.00400000,-0.03700000,-0.00100000,-0.00640000,0.02750000,-0.00260000,-0.01780000,-0.00370000,1.00140000
$GPFPD,2292,523668.700,112.435,-0.380,1.105,31.42734847,120.62744061,16.763,0.004,-0.035,-0.002,0.810,17,14,04*57
$GTIMU,2292,523668.700,-0.0060,-0.0464,0.0128,-0.0215,-0.0072,0.9991,13.2*6E
09:27::30.693,1702661268682,120.62744061,31.42734847,3478526.11164239,559654.90692879,112.43500000,6.00000000,0.00400000,-0.03500000,-0.00200000,-0.00600000,-0.04640000,0.01280000,-0.02150000,-0.00720000,0.99910000
$GPFPD,2292,523668.800,112.436,-0.380,1.109,31.42734851,120.62744063,16.768,0.003,-0.037,-0.003,0.810,17,14,04*5D
$GTIMU,2292,523668.800,-0.0030,0.0349,-0.0043,-0.0164,-0.0067,0.9984,13.2*65
09:27::30.793,1702661268782,120.62744063,31.42734851,3478526.11608844,559654.90880504,112.43600000,6.00000000,0.00300000,-0.03700000,-0.00300000,-0.00300000,0.03490000,-0.00430000,-0.01640000,-0.00670000,0.99840000
$GPFPD,2292,523668.900,112.436,-0.379,1.108,31.42734848,120.62744063,16.767,0.004,-0.036,-0.002,0.805,17,14,04*5F
$GTIMU,2292,523668.900,-0.0014,-0.0152,0.0025,-0.0201,-0.0049,1.0008,13.2*63
09:27::30.893,1702661268882,120.62744063,31.42734848,3478526.11276204,559654.90882403,112.43600000,6.00000000,0.00400000,-0.03600000,-0.00200000,-0.00140000,-0.01520000,0.00250000,-0.02010000,-0.00490000,1.00080000
$GPFPD,2292,523669.000,112.436,-0.379,1.105,31.42734844,120.62744063,16.767,0.004,-0.036,-0.001,0.805,17,14,04*55
$GTIMU,2292,523669.000,-0.0020,-0.0271,0.0042,-0.0187,-0.0070,0.9997,13.2*6F
09:27::30.993,1702661268982,120.62744063,31.42734844,3478526.10832685,559654.90884936,112.43600000,6.00000000,0.00400000,-0.03600000,-0.00100000,-0.00200000,-0.02710000,0.00420000,-0.01870000,-0.00700000,0.99970000
$GPGGA,012731.00,3125.6411759,N,12037.6471244,E,1,14,1.9,10.123,M,7.80,M,,*54
$GPFPD,2292,523669.100,112.436,-0.380,1.110,31.42734841,120.62744064,16.767,0.003,-0.038,-0.002,0.805,17,14,04*5E
$GTIMU,2292,523669.100,-0.0115,0.0536,-0.0015,-0.0167,-0.0063,0.9988,13.2*6D
