$GPFPD,2292,465518.400,107.276,-0.639,1.267,31.42728870,120.62765006,17.383,0.273,-0.088,-0.008,0.799,20,17,04*51
$GTIMU,2292,465518.400,-0.0087,0.0918,0.8088,-0.0211,0.0054,1.0003,40.7*6F
17:18::20.395,1702603118382,120.62765006,31.42728870,3478519.59808411,559674.85894042,107.27600000,6.00000000,0.27300000,-0.08800000,-0.00800000,-0.00870000,0.09180000,0.80880000,-0.02110000,0.00540000,1.00030000
$GPFPD,2292,465518.500,107.196,-0.636,1.275,31.42728863,120.62765036,17.379,0.289,-0.089,-0.009,0.795,20,17,04*5C
$GTIMU,2292,465518.500,0.0003,0.0748,0.8014,-0.0264,0.0054,0.9979,40.7*4F
17:18::20.495,1702603118482,120.62765036,31.42728863,3478519.59048545,559674.88750828,107.19600000,6.00000000,0.28900000,-0.08900000,-0.00900000,0.00030000,0.07480000,0.80140000,-0.02640000,0.00540000,0.99790000
$GPFPD,2292,465518.600,107.113,-0.633,1.281,31.42728856,120.62765068,17.375,0.303,-0.097,-0.011,0.795,20,17,04*58
$GTIMU,2292,465518.600,0.0151,0.0424,0.8367,-0.0194,0.0060,0.9983,40.7*4A
17:18::20.595,1702603118582,120.62765068,31.42728856,3478519.58289765,559674.91797770,107.11300000,6.00000000,0.30300000,-0.09700000,-0.01100000,0.01510000,0.04240000,0.83670000,-0.01940000,0.00600000,0.99830000
$GPFPD,2292,465518.700,107.019,-0.628,1.287,31.42728849,120.62765101,17.370,0.324,-0.102,-0.009,0.799,20,17,04*56
$GTIMU,2292,465518.700,0.0256,0.0479,0.9405,-0.0229,0.0111,1.0020,40.7*4F
17:18::20.695,1702603118682,120.62765101,31.42728849,3478519.57531528,559674.94939790,107.01900000,6.00000000,0.32400000,-0.10200000,-0.00900000,0.02560000,0.04790000,0.94050000,-0.02290000,0.01110000,1.00200000
$GPFPD,2292,465518.800,106.922,-0.623,1.295,31.42728841,120.62765136,17.367,0.339,-0.107,-0.009,0.799,20,17,04*52
$GTIMU,2292,465518.800,0.0189,0.0763,0.9679,-0.0229,0.0066,0.9994,40.7*4F
17:18::20.795,1702603118782,120.62765136,31.42728841,3478519.56663497,559674.98272600,106.92200000,6.00000000,0.33900000,-0.10700000,-0.00900000,0.01890000,0.07630000,0.96790000,-0.02290000,0.00660000,0.99940000
$GPFPD,2292,465518.900,106.829,-0.617,1.312,31.42728831,120.62765173,17.366,0.356,-0.114,-0.010,0.798,20,17,04*55
$GTIMU,2292,465518.900,0.0332,0.1548,0.9405,-0.0211,0.0076,0.9987,40.7*47
17:18::20.895,1702603118882,120.62765173,31.42728831,3478519.55574793,559675.01796834,106.82900000,6.00000000,0.35600000,-0.11400000,-0.01000000,0.03320000,0.15480000,0.94050000,-0.02110000,0.00760000,0.99870000
$GPFPD,2292,465519.000,106.728,-0.616,1.324,31.42728820,120.62765211,17.365,0.373,-0.117,-0.008,0.798,20,17,04*5E
$GTIMU,2292,465519.000,-0.0098,0.1104,1.0078,-0.0254,0.0081,1.0015,40.7*68
17:18::20.995,1702603118982,120.62765211,31.42728820,3478519.54375752,559675.05416780,106.72800000,6.00000000,0.37300000,-0.11700000,-0.00800000,-0.00980000,0.11040000,1.00780000,-0.02540000,0.00810000,1.00150000
$GPGGA,091821.00,3125.6375371,N,12037.6598057,E,1,16,1.1,10.842,M,7.80,M,,*58
$GPFPD,2292,465519.100,106.624,-0.615,1.326,31.42728810,120.62765251,17.364,0.387,-0.118,-0.009,0.798,20,17,04*50
$GTIMU,2292,465519.100,-0.0196,0.0069,1.0427,-0.0260,0.0035,0.9982,40.7*64
17:18::21.095,1702603119082,120.62765251,31.42728810,3478519.53288677,559675.09226249,106.62400000,6.00000000,0.38700000,-0.11800000,-0.00900000,-0.01960000,0.00690000,1.04270000,-0.02600000,0.00350000,0.99820000
$GPFPD,2292,465519.200,106.525,-0.609,1.316,31.42728799,120.62765293,17.363,0.406,-0.118,-0.012,0.796,20,16,04*53
$GTIMU,2292,465519.200,0.0323,-0.1130,0.9889,-0.0288,0.0092,0.9971,40.7*60
17:18::21.195,1702603119182,120.62765293,31.42728799,3478519.52091808,559675.13226509,106.52500000,6.00000000,0.40600000,-0.11800000,-0.01200000,0.03230000,-0.11300000,0.98890000,-0.02880000,0.00920000,0.99710000
$GPFPD,2292,465519.300,106.423,-0.604,1.299,31.42728788,120.62765337,17.362,0.424,-0.126,-0.016,0.786,21,17,04*58
$GTIMU,2292,465519.300,0.0209,-0.1818,1.0243,-0.0205,0.0100,0.9992,40.7*6D
17:18::21.295,1702603119282,120.62765337,31.42728788,3478519.50896026,559675.17416925,106.42300000,6.00000000,0.42400000,-0.12600000,-0.01600000,0.02090000,-0.18180000,1.02430000,-0.02050000,0.01000000,0.99920000
$GPFPD,2292,465519.400,106.308,-0.597,1.282,31.42728778,120.62765383,17.357,0.446,-0.135,-0.015,0.786,21,17,04*51
$GTIMU,2292,465519.400,0.0411,-0.1786,1.1491,-0.0202,0.0137,1.0002,40.7*6E
17:18::21.395,1702603119382,120.62765383,31.42728778,3478519.49812210,559675.21796864,106.30800000,6.00000000,0.44600000,-0.13500000,-0.01500000,0.04110000,-0.17860000,1.14910000,-0.02020000,0.01370000,1.00020000
$GPFPD,2292,465519.500,106.193,-0.595,1.273,31.42728768,120.62765432,17.353,0.471,-0.139,-0.015,0.794,21,17,04*5F
$GTIMU,2292,465519.500,-0.0064,-0.1058,1.1550,-0.0257,0.0161,0.9998,40.7*4D
17:18::21.495,1702603119482,120.62765432,31.42728768,3478519.48730023,559675.26462039,106.19300000,6.00000000,0.47100000,-0.13900000,-0.01500000,-0.00640000,-0.10580000,1.15500000,-0.02570000,0.01610000,0.99980000
$GPFPD,2292,465519.600,106.080,-0.587,1.271,31.42728756,120.62765483,17.349,0.494,-0.150,-0.016,0.794,21,17,04*55
$GTIMU,2292,465519.600,0.0510,-0.0342,1.1309,-0.0183,0.0163,0.9988,40.7*6F
17:18::21.595,1702603119582,120.62765483,31.42728756,3478519.47427162,559675.31318637,106.08000000,6.00000000,0.49400000,-0.15000000,-0.01600000,0.05100000,-0.03420000,1.13090000,-0.01830000,0.01630000,0.99880000
$GPFPD,2292,465519.700,105.960,-0.582,1.281,31.42728744,120.62765537,17.345,0.523,-0.160,-0.013,0.800,21,17,04*52
$GTIMU,2292,465519.700,0.0219,0.0828,1.2039,-0.0207,0.0218,1.0035,40.7*4E
17:18::21.695,1702603119682,120.62765537,31.42728744,3478519.46125931,559675.36460471,105.96000000,6.00000000,0.52300000,-0.16000000,-0.01300000,0.02190000,0.08280000,1.20390000,-0.02070000,0.02180000,1.00350000
$GPFPD,2292,465519.800,105.842,-0.580,1.292,31.42728731,120.62765594,17.341,0.562,-0.164,-0.015,0.800,21,17,04*54
$GTIMU,2292,465519.800,-0.0133,0.0954,1.1880,-0.0294,0.0300,0.9970,40.7*66
17:18::21.795,1702603119782,120.62765594,31.42728731,3478519.44715449,559675.41888173,105.84200000,6.00000000,0.56200000,-0.16400000,-0.01500000,-0.01330000,0.09540000,1.18800000,-0.02940000,0.03000000,0.99700000
$GPFPD,2292,465519.900,105.726,-0.575,1.294,31.42728716,120.62765656,17.340,0.605,-0.174,-0.017,0.798,21,17,04*52
$GTIMU,2292,465519.900,0.0182,0.0153,1.1577,-0.0245,0.0352,0.9981,40.7*4F
17:18::21.895,1702603119882,120.62765656,31.42728716,3478519.43085923,559675.47792534,105.72600000,6.00000000,0.60500000,-0.17400000,-0.01700000,0.01820000,0.01530000,1.15770000,-0.02450000,0.03520000,0.99810000
$GPFPD,2292,465520.000,105.598,-0.577,1.284,31.42728699,120.62765722,17.338,0.648,-0.186,-0.014,0.798,21,17,04*59
$GTIMU,2292,465520.000,-0.0453,-0.1201,1.2811,-0.0224,0.0370,1.0026,40.7*45
17:18::21.995,1702603119982,120.62765722,31.42728699,3478519.41236810,559675.54078475,105.59800000,6.00000000,0.64800000,-0.18600000,-0.01400000,-0.04530000,-0.12010000,1.28110000,-0.02240000,0.03700000,1.00260000
$GPFPD,2292,465520$GPGGA,09.100,105.1822.00,3466,-0.57125.637466,1.275,370,N,12031.42728687.66011182,120.627,E,1,17,065793,17..9,10.805337,0.694,M,7.80,M,-0.195,-,,*5C
0.017,0.798,21,17,04*58
$GTIMU,2292,465520.100,-0.0264,-0.1060,1.3278,-0.0260,0.0375,0.9976,40.7*46
17:18::22.095,1702603120082,120.62765793,31.42728682,3478519.39390412,559675.60839807,105.46600000,6.00000000,0.69400000,-0.19500000,-0.01700000,-0.02640000,-0.10600000,1.32780000,-0.02600000,0.03750000,0.99760000
$GPFPD,2292,465520.200,105.337,-0.570,1.257,31.42728664,120.62765868,17.335,0.735,-0.204,-0.019,0.795,21,17,04*5D
$GTIMU,2292,465520.200,0.0329,-0.1924,1.2934,-0.0243,0.0339,0.9980,40.7*6B
17:18::22.194,1702603120182,120.62765868,31.42728664,3478519.37435307,559675.67982087,105.33700000,6.00000000,0.73500000,-0.20400000,-0.01900000,0.03290000,-0.19240000,1.29340000,-0.02430000,0.03390000,0.99800000
$GPFPD,2292,465520.300,105.198,-0.564,1.249,31.42728647,120.62765946,17.335,0.768,-0.215,-0.012,0.793,20,16,04*58
$GTIMU,2292,465520.300,0.0175,-0.0924,1.3841,-0.0171,0.0317,1.0018,40.7*6C
17:18::22.295,1702603120282,120.62765946,31.42728647,3478519.35592711,559675.75408969,105.19800000,6.00000000,0.76800000,-0.21500000,-0.01200000,0.01750000,-0.09240000,1.38410000,-0.01710000,0.03170000,1.00180000
$GPFPD,2292,465520.400,105.058,-0.567,1.247,31.42728635,120.62766022,17.344,0.810,-0.222,-0.012,0.793,20,16,04*50
$GTIMU,2292,465520.400,-0.0573,-0.0333,1.4031,-0.0265,0.0345,1.0003,40.7*4B
17:18::22.395,1702603120382,120.62766022,31.42728635,3478519.34303428,559675.82642527,105.05800000,6.00000000,0.81000000,-0.22200000,-0.01200000,-0.05730000,-0.03330000,1.40310000,-0.02650000,0.03450000,1.00030000
$GPFPD,2292,465520.500,104.929,-0.578,1.250,31.42728624,120.62766103,17.352,0.850,-0.232,-0.009,0.804,20,16,04*5C
$GTIMU,2292,465520.500,-0.1449,0.0186,1.2830,-0.0220,0.0332,1.0022,40.7*6F
17:18::22.495,1702603120482,120.62766103,31.42728624,3478519.33127741,559675.90350844,104.92900000,6.00000000,0.85000000,-0.23200000,-0.00900000,-0.14490000,0.01860000,1.28300000,-0.02200000,0.03320000,1.00220000
$GPFPD,2292,465520.600,104.792,-0.590,1.271,31.42728611,120.62766187,17.361,0.884,-0.244,-0.008,0.804,20,16,04*57
$GTIMU,2292,465520.600,-0.1579,0.1970,1.3680,-0.0198,0.0269,1.0013,40.7*67
17:18::22.595,1702603120582,120.62766187,31.42728611,3478519.31731924,559675.98345663,104.79200000,6.00000000,0.88400000,-0.24400000,-0.00800000,-0.15790000,0.19700000,1.36800000,-0.01980000,0.02690000,1.00130000
$GPFPD,2292,465520.700,104.648,-0.593,1.279,31.42728597,120.62766276,17.370,0.923,-0.247,-0.013,0.808,20,16,04*52
$GTIMU,2292,465520.700,-0.0666,0.0610,1.4493,-0.0291,0.0290,0.9951,40.7*6E
17:18::22.695,1702603120682,120.62766276,31.42728597,3478519.30227942,559676.06816507,104.64800000,6.00000000,0.92300000,-0.24700000,-0.01300000,-0.06660000,0.06100000,1.44930000,-0.02910000,0.02900000,0.99510000
$GPFPD,2292,465520.800,104.517,-0.599,1.269,31.42728582,120.62766370,17.376,0.964,-0.247,-0.009,0.808,20,16,04*52
$GTIMU,2292,465520.800,-0.0906,-0.1105,1.3103,-0.0324,0.0309,1.0038,40.7*4C
17:18::22.795,1702603120782,120.62766370,31.42728582,3478519.28615796,559676.15763376,104.51700000,6.00000000,0.96400000,-0.24700000,-0.00900000,-0.09060000,-0.11050000,1.31030000,-0.03240000,0.03090000,1.00380000
$GPFPD,2292,465520.900,104.392,-0.616,1.261,31.42728559,120.62766473,17.375,1.003,-0.259,-0.007,0.811,20,16,04*55
$GTIMU,2292,465520.900,-0.1969,-0.1024,1.2472,-0.0203,0.0316,1.0013,40.7*46
17:18::22.895,1702603120882,120.62766473,31.42728559,3478519.26121499,559676.25571018,104.39200000,6.00000000,1.00300000,-0.25900000,-0.00700000,-0.19690000,-0.10240000,1.24720000,-0.02030000,0.03160000,1.00130000
$GPFPD,2292,465521.000,104.258,-0.629,1.260,31.42728535,120.62766581,17.374,1.042,-0.271,-0.010,0.811,20,16,04*59
$GTIMU,2292,465521.000,-0.1607,-0.0173,1.3327,-0.0206,0.0320,0.9977,40.7*4E
17:18::22.995,1702603120982,120.62766581,31.42728535,3478519.23519037,559676.35854686,104.25800000,6.00000000,1.04200000,-0.27100000,-0.01000000,-0.16070000,-0.01730000,1.33270000,-0.02060000,0.03200000,0.99770000
$GPFPD,2292,465521$GPGGA,09.100,104.1823.00,3129,-0.63125.637364,1.263,398,N,1201.427285137.6606580,120.6278,E,1,1666693,17.,1.1,10.7373,1.09289,M,7.80,-0.276,-,M,,*55
0.013,0.811,20,16,04*5B
$GTIMU,2292,465521.100,-0.0836,0.0123,1.2909,-0.0293,0.0404,0.9959,40.7*6C
17:18::23.095,1702603121082,120.62766693,31.42728510,3478519.20807868,559676.46519300,104.12900000,6.00000000,1.09200000,-0.27600000,-0.01300000,-0.08360000,0.01230000,1.29090000,-0.02930000,0.04040000,0.99590000
$GPFPD,2292,465521.200,104.008,-0.636,1.258,31.42728485,120.62766811,17.372,1.140,-0.284,-0.011,0.803,20,16,04*5A
$GTIMU,2292,465521.200,-0.0505,-0.0609,1.2155,-0.0261,0.0393,1.0027,40.7*4D
17:18::23.195,1702603121182,120.62766811,31.42728485,3478519.18099958,559676.57754385,104.00800000,6.00000000,1.14000000,-0.28400000,-0.01100000,-0.05050000,-0.06090000,1.21550000,-0.02610000,0.03930000,1.00270000
$GPFPD,2292,465521.300,103.879,-0.639,1.252,31.42728458,120.62766935,17.371,1.189,-0.301,-0.010,0.802,22,16,04*58
$GTIMU,2292,465521.300,-0.0565,-0.0820,1.2851,-0.0203,0.0364,1.0019,40.7*43
17:18::23.295,1702603121282,120.62766935,31.42728458,3478519.15173547,559676.69561207,103.87900000,6.00000000,1.18900000,-0.30100000,-0.01000000,-0.05650000,-0.08200000,1.28510000,-0.02030000,0.03640000,1.00190000
$GPFPD,2292,465521.400,103.745,-0.636,1.248,31.42728427,120.62767071,17.370,1.236,-0.308,-0.016,0.802,22,16,04*52
$GTIMU,2292,465521.400,-0.0035,-0.0560,1.3477,-0.0259,0.0383,0.9935,40.7*4D
17:18::23.395,1702603121382,120.62767071,31.42728427,3478519.11810134,559676.82511503,103.74500000,6.00000000,1.23600000,-0.30800000,-0.01600000,-0.00350000,-0.05600000,1.34770000,-0.02590000,0.03830000,0.99350000
$GPFPD,2292,465521.500,103.616,-0.639,1.265,31.42728396,120.62767211,17.369,1.284,-0.318,-0.013,0.799,21,16,04*56
$GTIMU,2292,465521.500,-0.0612,0.1533,1.2874,-0.0236,0.0394,1.0038,40.7*68
17:18::23.495,1702603121482,120.62767211,31.42728396,3478519.08448894,559676.95842113,103.61600000,6.00000000,1.28400000,-0.31800000,-0.01300000,-0.06120000,0.15330000,1.28740000,-0.02360000,0.03940000,1.00380000
$GPFPD,2292,465521.600,103.488,-0.651,1.293,31.42728363,120.62767357,17.369,1.331,-0.328,-0.017,0.799,21,16,04*56
$GTIMU,2292,465521.600,-0.1552,0.2704,1.2762,-0.0236,0.0380,0.9953,40.7*69
17:18::23.594,1702603121582,120.62767357,31.42728363,3478519.04869153,559677.09744460,103.48800000,6.00000000,1.33100000,-0.32800000,-0.01700000,-0.15520000,0.27040000,1.27620000,-0.02360000,0.03800000,0.99530000
$GPFPD,2292,465521.700,103.365,-0.644,1.299,31.42728330,120.62767507,17.367,1.374,-0.329,-0.017,0.801,21,17,04*59
$GTIMU,2292,465521.700,0.0344,0.0453,1.2370,-0.0323,0.0320,0.9997,40.7*46
17:18::23.695,1702603121682,120.62767507,31.42728330,3478519.01291584,559677.24027121,103.36500000,6.00000000,1.37400000,-0.32900000,-0.01700000,0.03440000,0.04530000,1.23700000,-0.03230000,0.03200000,0.99970000
$GPFPD,2292,465521.800,103.243,-0.633,1.285,31.42728298,120.62767661,17.367,1.413,-0.331,-0.013,0.801,21,17,04*55
$GTIMU,2292,465521.800,0.0867,-0.1610,1.2197,-0.0299,0.0289,1.0041,40.7*69
17:18::23.795,1702603121782,120.62767661,31.42728298,3478518.97827068,559677.38689462,103.24300000,6.00000000,1.41300000,-0.33100000,-0.01300000,0.08670000,-0.16100000,1.21970000,-0.02990000,0.02890000,1.00410000
$GPFPD,2292,465521.900,103.119,-0.623,1.243,31.42728268,120.62767811,17.365,1.454,-0.338,-0.018,0.801,21,17,04*56
$GTIMU,2292,465521.900,0.0664,-0.4339,1.2494,-0.0246,0.0322,0.9944,40.7*6E
17:18::23.895,1702603121882,120.62767811,31.42728268,3478518.94582139,559677.52970223,103.11900000,6.00000000,1.45400000,-0.33800000,-0.01800000,0.06640000,-0.43390000,1.24940000,-0.02460000,0.03220000,0.99440000
$GPFPD,2292,465522.000,103.008,-0.609,1.220,31.42728237,120.62767967,17.363,1.496,-0.347,-0.020,0.801,21,17,04*51
$GTIMU,2292,465522.000,0.1107,-0.2411,1.1159,-0.0228,0.0335,0.9982,40.7*6F
17:18::23.995,1702603121982,120.62767967,31.42728237,3478518.91229590,559677.67822087,103.00800000,6.00000000,1.49600000,-0.34700000,-0.02000000,0.11070000,-0.24110000,1.11590000,-0.02280000,0.03350000,0.99820000
$GPGGA,091824.00,3125.6372078,N,12037.6614696,E,1,16,1.1,10.781,M,7.80,M,,*5C
$GPFPD,2292,465522.100,102.907,-0.577,1.215,31.42728205,120.62768126,17.361,1.544,-0.358,-0.028,0.801,21,17,04*52
$GTIMU,2292,465522.100,0.2901,-0.0654,1.0145,-0.0208,0.0408,0.9914,40.7*6A
17:18::24.095,1702603122082,120.62768126,31.42728205,3478518.87767790,559677.82959821,102.90700000,6.00000000,1.54400000,-0.35800000,-0.02800000,0.29010000,-0.06540000,1.01450000,-0.02080000,0.04080000,0.99140000
$GPFPD,2292,465522.200,102.808,-0.520,1.216,31.42728172,120.62768292,17.358,1.599,-0.371,-0.031,0.797,21,16,04*59
$GTIMU,2292,465522.200,0.5501,0.0078,1.0014,-0.0212,0.0494,0.9971,40.7*4F
17:18::24.195,1702603122182,120.62768292,31.42728172,3478518.84198912,559677.98763736,102.80800000,6.00000000,1.59900000,-0.37100000,-0.03100000,0.55010000,0.00780000,1.00140000,-0.02120000,0.04940000,0.99710000
$GPFPD,2292,465522.300,102.718,-0.454,1.171,31.42728138,120.62768465,17.353,1.673,-0.379,-0.041,0.804,20,17,04*50
$GTIMU,2292,465522.300,0.6432,-0.4599,0.9270,-0.0317,0.0624,0.9941,40.7*69
17:18::24.295,1702603122282,120.62768465,31.42728138,3478518.80522957,559678.15233834,102.71800000,6.00000000,1.67300000,-0.37900000,-0.04100000,0.64320000,-0.45990000,0.92700000,-0.03170000,0.06240000,0.99410000
$GPFPD,2292,465522.400,102.646,-0.416,1.142,31.42728100,120.62768653,17.347,1.741,-0.387,-0.022,0.804,20,17,04*56
$GTIMU,2292,465522.400,0.3604,-0.2981,0.7264,-0.0285,0.0619,1.0189,40.7*64
17:18::24.395,1702603122382,120.62768653,31.42728100,3478518.76411629,559678.33132642,102.64600000,6.00000000,1.74100000,-0.38700000,-0.02200000,0.36040000,-0.29810000,0.72640000,-0.02850000,0.06190000,1.01890000
$GPFPD,2292,465522.500,102.595,-0.418,1.134,31.42728061,120.62768847,17.342,1.798,-0.407,-0.017,0.795,20,17,04*57
$GTIMU,2292,465522.500,-0.0348,-0.0862,0.5118,-0.0129,0.0552,1.0058,40.7*46
17:18::24.495,1702603122482,120.62768847,31.42728061,3478518.72192681,559678.51602553,102.59500000,6.00000000,1.79800000,-0.40700000,-0.01700000,-0.03480000,-0.08620000,0.51180000,-0.01290000,0.05520000,1.00580000
$GPFPD,2292,465522.600,102.558,-0.410,1.155,31.42728020,120.62769047,17.336,1.852,-0.421,-0.026,0.795,20,17,04*5A
$GTIMU,2292,465522.600,0.0727,0.2100,0.3724,-0.0173,0.0503,0.9901,40.7*4E
17:18::24.595,1702603122582,120.62769047,31.42728020,3478518.67755231,559678.70644202,102.55800000,6.00000000,1.85200000,-0.42100000,-0.02600000,0.07270000,0.21000000,0.37240000,-0.01730000,0.05030000,0.99010000
$GPFPD,2292,465522.700,102.520,-0.375,1.191,31.42727978,120.62769252,17.329,1.908,-0.433,-0.038,0.806,20,16,04*5D
$GTIMU,2292,465522.700,0.3380,0.3491,0.3940,-0.0212,0.0524,0.9885,40.7*49
17:18::24.695,1702603122682,120.62769252,31.42727978,3478518.63209618,559678.90161877,102.52000000,6.00000000,1.90800000,-0.43300000,-0.03800000,0.33800000,0.34910000,0.39400000,-0.02120000,0.05240000,0.98850000
$GPFPD,2292,465522.800,102.484,-0.336,1.185,31.42727936,120.62769462,17.322,1.963,-0.433,-0.037,0.806,20,16,04*59
$GTIMU,2292,465522.800,0.3797,-0.0635,0.3614,-0.0333,0.0488,1.0002,40.7*62
17:18::24.795,1702603122782,120.62769462,31.42727936,3478518.58666721,559679.10154943,102.48400000,6.00000000,1.96300000,-0.43300000,-0.03700000,0.37970000,-0.06350000,0.36140000,-0.03330000,0.04880000,1.00020000
$GPFPD,2292,465522.900,102.465,-0.298,1.161,31.42727897,120.62769671,17.319,2.010,-0.438,-0.026,0.792,20,16,04*5D
$GTIMU,2292,465522.900,0.3670,-0.2412,0.1995,-0.0256,0.0435,1.0112,40.7*6E
17:18::24.895,1702603122882,120.62769671,31.42727897,3478518.54455921,559679.30051031,102.46500000,6.00000000,2.01000000,-0.43800000,-0.02600000,0.36700000,-0.24120000,0.19950000,-0.02560000,0.04350000,1.01120000
$GPFPD,2292,465523.000,102.455,-0.292,1.130,31.42727857,120.62769885,17.317,2.055,-0.452,-0.017,0.792,20,16,04*50
$GTIMU,2292,465523.000,0.0533,-0.3092,0.1073,-0.0170,0.0432,1.0090,40.7*66
17:18::24.995,1702603122982,120.62769885,31.42727857,3478518.50136957,559679.50423145,102.45500000,6.00000000,2.05500000,-0.45200000,-0.01700000,0.05330000,-0.30920000,0.10730000,-0.01700000,0.04320000,1.00900000
$GPGGA,091825.00,3125.6370153,N,12037.6625890,E,1,16,1.1,10.793,M,7.80,M,,*5E
$GPFPD,2292,465523.100,102.448,-0.274,1.150,31.42727816,120.62770104,17.315,2.100,-0.468,-0.033,0.792,20,16,04*52
$GTIMU,2292,465523.100,0.1768,0.1995,0.0779,-0.0132,0.0440,0.9837,40.7*49
17:18::25.095,1702603123082,120.62770104,31.42727816,3478518.45709830,559679.71271285,102.44800000,6.00000000,2.10000000,-0.46800000,-0.03300000,0.17680000,0.19950000,0.07790000,-0.01320000,0.04400000,0.98370000
$GPFPD,2292,465523.200,102.436,-0.240,1.168,31.42727773,120.62770327,17.312,2.144,-0.479,-0.021,0.803,20,16,04*58
$GTIMU,2292,465523.200,0.3398,0.1806,0.1288,-0.0191,0.0426,1.0114,40.7*4B
17:18::25.195,1702603123182,120.62770327,31.42727773,3478518.41063115,559679.92501004,102.43600000,6.00000000,2.14400000,-0.47900000,-0.02100000,0.33980000,0.18060000,0.12880000,-0.01910000,0.04260000,1.01140000
$GPFPD,2292,465523.300,102.428,-0.234,1.197,31.42727731,120.62770554,17.310,2.192,-0.481,-0.019,0.800,19,16,04*5D
$GTIMU,2292,465523.300,0.0476,0.2905,0.0782,-0.0251,0.0497,1.0043,40.7*47
17:18::25.295,1702603123282,120.62770554,31.42727731,3478518.36529454,559680.14110405,102.42800000,6.00000000,2.19200000,-0.48100000,-0.01900000,0.04760000,0.29050000,0.07820000,-0.02510000,0.04970000,1.00430000
$GPFPD,2292,465523.400,102.420,-0.223,1.192,31.42727697,120.62770783,17.307,2.248,-0.490,-0.026,0.800,19,16,04*5A
$GTIMU,2292,465523.400,0.1077,-0.0540,0.0786,-0.0240,0.0550,0.9928,40.7*64
17:18::25.395,1702603123382,120.62770783,31.42727697,3478518.32883918,559680.35904895,102.42000000,6.00000000,2.24800000,-0.49000000,-0.02600000,0.10770000,-0.05400000,0.07860000,-0.02400000,0.05500000,0.99280000
$GPFPD,2292,465523.500,102.418,-0.197,1.157,31.42727662,120.62771017,17.305,2.318,-0.498,-0.018,0.808,19,16,04*5F
$GTIMU,2292,465523.500,0.2489,-0.3456,0.0344,-0.0283,0.0683,1.0070,40.7*62
17:18::25.495,1702603123482,120.62771017,31.42727662,3478518.29130218,559680.58175410,102.41800000,6.00000000,2.31800000,-0.49800000,-0.01800000,0.24890000,-0.34560000,0.03440000,-0.02830000,0.06830000,1.00700000
$GPFPD,2292,465523.600,102.425,-0.168,1.110,31.42727626,120.62771260,17.303,2.394,-0.513,-0.017,0.808,19,16,04*5C
$GTIMU,2292,465523.600,0.2949,-0.4705,-0.0644,-0.0217,0.0759,1.0016,40.7*41
17:18::25.595,1702603123582,120.62771260,31.42727626,3478518.25270528,559680.81302265,102.42500000,6.00000000,2.39400000,-0.51300000,-0.01700000,0.29490000,-0.47050000,-0.06440000,-0.02170000,0.07590000,1.00160000
$GPFPD,2292,465523.700,102.426,-0.120,1.089,31.42727587,120.62771510,17.300,2.473,-0.544,-0.032,0.813,19,16,04*59
$GTIMU,2292,465523.700,0.4778,-0.2115,0.0025,-0.0060,0.0836,0.9839,40.7*6E
17:18::25.695,1702603123682,120.62771510,31.42727587,3478518.21082000,559681.05096569,102.42600000,6.00000000,2.47300000,-0.54400000,-0.03200000,0.47780000,-0.21150000,0.00250000,-0.00600000,0.08360000,0.98390000
$GPFPD,2292,465523.800,102.425,-0.065,1.099,31.42727545,120.62771771,17.296,2.566,-0.565,-0.038,0.813,19,16,04*5D
$GTIMU,2292,465523.800,0.5414,0.0942,0.0240,-0.0180,0.0972,0.9939,40.7*42
17:18::25.795,1702603123782,120.62771771,31.42727545,3478518.16566809,559681.29938636,102.42500000,6.00000000,2.56600000,-0.56500000,-0.03800000,0.54140000,0.09420000,0.02400000,-0.01800000,0.09720000,0.99390000
$GPFPD,2292,465523.900,102.434,-0.021,1.131,31.42727493,120.62772047,17.293,2.670,-0.590,-0.032,0.802,19,16,04*55
$GTIMU,2292,465523.900,0.4360,0.3240,-0.0807,-0.0181,0.1089,1.0062,40.7*6A
17:18::25.895,1702603123882,120.62772047,31.42727493,3478518.10950966,559681.56213214,102.43400000,6.00000000,2.67000000,-0.59000000,-0.03200000,0.43600000,0.32400000,-0.08070000,-0.01810000,0.10890000,1.00620000
$GPFPD,2292,465524.000,102.442,0.006,1.109,31.42727439,120.62772333,17.291,2.771,-0.604,-0.010,0.802,19,16,04*75
$GTIMU,2292,465524.000,0.2670,-0.2238,-0.0746,-0.0285,0.1044,1.0220,40.7*4D
17:18::25.995,1702603123982,120.62772333,31.42727439,3478518.05118795,559681.83439842,102.44200000,6.00000000,2.77100000,-0.60400000,-0.01000000,0.26700000,-0.22380000,-0.07460000,-0.02850000,0.10440000,1.02200000
$GPGGA,091826.00,3125.6367374,N,12037.6640749,E,1,16,1.1,10.828,M,7.80,M,,*5B
$GPFPD,2292,465524.100,102.444,0.032,1.104,31.42727383,120.62772630,17.289,2.868,-0.629,-0.015,0.802,19,16,04*7C
$GTIMU,2292,465524.100,0.2646,-0.0465,-0.0181,-0.0159,0.1028,0.9947,40.7*42
17:18::26.095,1702603124082,120.62772630,31.42727383,3478517.99070840,559682.11713601,102.44400000,6.00000000,2.86800000,-0.62900000,-0.01500000,0.26460000,-0.04650000,-0.01810000,-0.01590000,0.10280000,0.99470000
$GPFPD,2292,465524.200,102.460,0.045,1.089,31.42727326,120.62772937,17.288,2.957,-0.648,-0.011,0.793,18,16,04*73
$GTIMU,2292,465524.200,0.1295,-0.1583,-0.1518,-0.0200,0.0942,1.0029,40.7*47
17:18::26.195,1702603124182,120.62772937,31.42727326,3478517.92917438,559682.40938777,102.46000000,6.00000000,2.95700000,-0.64800000,-0.01100000,0.12950000,-0.15830000,-0.15180000,-0.02000000,0.09420000,1.00290000
$GPFPD,2292,465524.300,102.502,0.065,1.066,31.42727266,120.62773254,17.288,3.042,-0.666,-0.016,0.811,20,16,04*77
$GTIMU,2292,465524.300,0.2047,-0.2325,-0.4137,-0.0225,0.0851,0.9907,40.7*44
17:18::26.295,1702603124282,120.62773254,31.42727266,3478517.86436829,559682.71116638,102.50200000,6.00000000,3.04200000,-0.66600000,-0.01600000,0.20470000,-0.23250000,-0.41370000,-0.02250000,0.08510000,0.99070000
$GPFPD,2292,465524.400,102.528,0.111,1.041,31.42727201,120.62773585,17.295,3.117,-0.692,-0.015,0.811,20,16,04*70
$GTIMU,2292,465524.400,0.4588,-0.2464,-0.2472,-0.0086,0.0826,1.0005,40.7*4B
17:18::26.395,1702603124382,120.62773585,31.42727201,3478517.79409425,559683.02628764,102.52800000,6.00000000,3.11700000,-0.69200000,-0.01500000,0.45880000,-0.24640000,-0.24720000,-0.00860000,0.08260000,1.00050000
$GPFPD,2292,465524.500,102.538,0.140,0.980,31.42727134,120.62773926,17.303,3.200,-0.702,-0.006,0.798,20,16,04*7E
$GTIMU,2292,465524.500,0.2900,-0.6069,-0.0929,-0.0271,0.0874,1.0083,40.7*4F
17:18::26.495,1702603124482,120.62773926,31.42727134,3478517.72165695,559683.35092942,102.53800000,6.00000000,3.20000000,-0.70200000,-0.00600000,0.29000000,-0.60690000,-0.09290000,-0.02710000,0.08740000,1.00830000
$GPFPD,2292,465524.600,102.565,0.145,0.950,31.42727066,120.62774274,17.312,3.285,-0.725,-0.003,0.798,20,16,04*7D
$GTIMU,2292,465524.600,0.0523,-0.3059,-0.2634,-0.0130,0.0933,1.0033,40.7*4B
17:18::26.595,1702603124582,120.62774274,31.42727066,3478517.64814887,559683.68223302,102.56500000,6.00000000,3.28500000,-0.72500000,-0.00300000,0.05230000,-0.30590000,-0.26340000,-0.01300000,0.09330000,1.00330000
$GPFPD,2292,465524.700,102.629,0.145,0.911,31.42726996,120.62774632,17.320,3.364,-0.746,-0.010,0.797,20,16,04*74
$GTIMU,2292,465524.700,0.0086,-0.3918,-0.6345,-0.0121,0.0867,0.9916,40.7*4D
17:18::26.695,1702603124682,120.62774632,31.42726996,3478517.57247753,559684.02305714,102.62900000,6.00000000,3.36400000,-0.74600000,-0.01000000,0.00860000,-0.39180000,-0.63450000,-0.01210000,0.08670000,0.99160000
$GPFPD,2292,465524.800,102.713,0.151,0.952,31.42726925,120.62774996,17.326,3.433,-0.776,-0.004,0.797,20,16,04*7D
$GTIMU,2292,465524.800,0.0646,0.4035,-0.8405,-0.0021,0.0780,1.0061,40.7*6F
17:18::26.795,1702603124782,120.62774996,31.42726925,3478517.49572999,559684.36959231,102.71300000,6.00000000,3.43300000,-0.77600000,-0.00400000,0.06460000,0.40350000,-0.84050000,-0.00210000,0.07800000,1.00610000
$GPFPD,2292,465524.900,102.805,0.120,1.002,31.42726854,120.62775361,17.326,3.501,-0.797,0.009,0.807,20,16,04*52
$GTIMU,2292,465524.900,-0.2924,0.4948,-0.9200,-0.0117,0.0755,1.0133,40.7*41
17:18::26.895,1702603124882,120.62775361,31.42726854,3478517.41898789,559684.71707826,102.80500000,6.00000000,3.50100000,-0.79700000,0.00900000,-0.29240000,0.49480000,-0.92000000,-0.01170000,0.07550000,1.01330000
$GPFPD,2292,465525.000,102.891,0.078,1.050,31.42726781,120.62775733,17.327,3.575,-0.819,0.001,0.807,20,16,04*5B
$GTIMU,2292,465525.000,-0.4075,0.4845,-0.8730,-0.0137,0.0817,0.9910,40.7*43
17:18::26.995,1702603124982,120.62775733,31.42726781,3478517.34006624,559685.07123237,102.89100000,6.00000000,3.57500000,-0.81900000,0.00100000,-0.40750000,0.48450000,-0.87300000,-0.01370000,0.08170000,0.99100000
$GPGGA,091827.00,3125.6363662,N,12037.6660865,E,1,16,1.1,10.860,M,7.80,M,,*53
$GPFPD,2292,465525.100,102.970,0.050,1.039,31.42726706,120.62776113,17.327,3.655,-0.841,0.005,0.807,20,16,04*51
$GTIMU,2292,465525.100,-0.2739,-0.1141,-0.7929,-0.0142,0.0856,1.0038,40.7*6B
17:18::27.094,1702603125082,120.62776113,31.42726706,3478517.25897045,559685.43300544,102.97000000,6.00000000,3.65500000,-0.84100000,0.00500000,-0.27390000,-0.11410000,-0.79290000,-0.01420000,0.08560000,1.00380000
$GPFPD,2292,465525.200,103.083,0.008,0.984,31.42726630,120.62776502,17.328,3.737,-0.843,0.015,0.793,20,16,04*5E
$GTIMU,2292,465525.200,-0.4028,-0.5507,-1.1330,-0.0354,0.0836,1.0094,40.7*6B
17:18::27.195,1702603125182,120.62776502,31.42726630,3478517.17681476,559685.80334190,103.08300000,6.00000000,3.73700000,-0.84300000,0.01500000,-0.40280000,-0.55070000,-1.13300000,-0.03540000,0.08360000,1.00940000
$GPFPD,2292,465525.300,103.255,-0.066,0.887,31.42726555,120.62776899,17.330,3.801,-0.843,0.023,0.798,21,16,04*72
$GTIMU,2292,465525.300,-0.7179,-0.9647,-1.7378,-0.0259,0.0652,1.0111,40.7*61
17:18::27.295,1702603125282,120.62776899,31.42726555,3478517.09581134,559686.18127831,103.25500000,6.00000000,3.80100000,-0.84300000,0.02300000,-0.71790000,-0.96470000,-1.73780000,-0.02590000,0.06520000,1.01110000
$GPFPD,2292,465525.400,103.449,-0.121,0.827,31.42726486,120.62777302,17.329,3.847,-0.894,0.001,0.798,21,16,04*71
$GTIMU,2292,465525.400,-0.5259,-0.5974,-1.9407,0.0252,0.0563,0.9778,40.7*41
17:18::27.395,1702603125382,120.62777302,31.42726486,3478517.02149332,559686.56488142,103.44900000,6.00000000,3.84700000,-0.89400000,0.00100000,-0.52590000,-0.59740000,-1.94070000,0.02520000,0.05630000,0.97780000
$GPFPD,2292,465525.500,103.630,-0.164,0.844,31.42726412,120.62777709,17.326,3.891,-0.942,-0.009,0.795,20,16,04*5D
$GTIMU,2292,465525.500,-0.4038,0.1697,-1.8190,0.0220,0.0531,0.9902,40.7*64
17:18::27.495,1702603125482,120.62777709,31.42726412,3478516.94165304,559686.95231934,103.63000000,6.00000000,3.89100000,-0.94200000,-0.00900000,-0.40380000,0.16970000,-1.81900000,0.02200000,0.05310000,0.99020000
$GPFPD,2292,465525.600,103.817,-0.179,0.953,31.42726334,120.62778121,17.323,3.936,-0.975,-0.023,0.795,20,16,04*5B
$GTIMU,2292,465525.600,-0.1246,1.0926,-1.8647,0.0064,0.0500,0.9856,40.7*61
17:18::27.595,1702603125582,120.62778121,31.42726334,3478516.85740475,559687.34453653,103.81700000,6.00000000,3.93600000,-0.97500000,-0.02300000,-0.12460000,1.09260000,-1.86470000,0.00640000,0.05000000,0.98560000
$GPFPD,2292,465525.700,104.039,-0.160,1.023,31.42726255,120.62778538,17.318,3.985,-0.978,-0.026,0.793,20,16,04*5A
$GTIMU,2292,465525.700,0.2261,0.7063,-2.2197,-0.0266,0.0477,0.9962,40.7*6C
17:18::27.695,1702603125682,120.62778538,31.42726255,3478516.77207483,559687.74151399,104.03900000,6.00000000,3.98500000,-0.97800000,-0.02600000,0.22610000,0.70630000,-2.21970000,-0.02660000,0.04770000,0.99620000
$GPFPD,2292,465525.800,104.303,-0.180,1.059,31.42726173,120.62778958,17.315,4.003,-0.992,0.001,0.793,20,16,04*70
$GTIMU,2292,465525.800,-0.1559,0.3649,-2.6350,-0.0098,0.0184,1.0276,40.7*4A
17:18::27.794,1702603125782,120.62778958,31.42726173,3478516.68343483,559688.14136281,104.30300000,6.00000000,4.00300000,-0.99200000,0.00100000,-0.15590000,0.36490000,-2.63500000,-0.00980000,0.01840000,1.02760000
$GPFPD,2292,465525.900,104.577,-0.223,1.036,31.42726083,120.62779381,17.315,4.031,-1.011,-0.008,0.800,20,16,04*55
$GTIMU,2292,465525.900,-0.3855,-0.2140,-2.7434,-0.0064,0.0306,0.9909,40.7*6E
17:18::27.895,1702603125882,120.62779381,31.42726083,3478516.58594075,559688.54411466,104.57700000,6.00000000,4.03100000,-1.01100000,-0.00800000,-0.38550000,-0.21400000,-2.74340000,-0.00640000,0.03060000,0.99090000
$GPFPD,2292,465526.000,104.863,-0.222,0.981,31.42725990,120.62779808,17.313,4.080,-1.045,-0.021,0.800,20,16,04*56
$GTIMU,2292,465526.000,0.0557,-0.5438,-2.8585,0.0035,0.0531,0.9872,40.7*6A
17:18::27.995,1702603125982,120.62779808,31.42725990,3478516.48514201,559688.95068867,104.86300000,6.00000000,4.08000000,-1.04500000,-0.02100000,0.05570000,-0.54380000,-2.85850000,0.00350000,0.05310000,0.98720000
$GPFPD,2292,465526$GPGGA,09.100,105.1828.00,3172,-0.18125.635865,0.960,360,N,12031.42725897.66853684,120.627,E,1,16,180241,17..1,10.893310,4.154,M,7.80,M,-1.093,-,,*57
0.048,0.800,20,16,04*55
$GTIMU,2292,465526.100,0.4229,-0.1958,-3.0801,0.0116,0.0833,0.9724,40.7*65
17:18::28.095,1702603126082,120.62780241,31.42725894,3478516.38104949,559689.36298640,105.17200000,6.00000000,4.15400000,-1.09300000,-0.04800000,0.42290000,-0.19580000,-3.08010000,0.01160000,0.08330000,0.97240000
$GPFPD,2292,465526.200,105.510,-0.139,0.997,31.42725792,120.62780682,17.305,4.229,-1.148,-0.033,0.807,20,16,04*5A
$GTIMU,2292,465526.200,0.5174,0.3779,-3.3745,0.0157,0.0867,1.0156,40.7*4D
17:18::28.194,1702603126182,120.62780682,31.42725792,3478516.27034765,559689.78292842,105.51000000,6.00000000,4.22900000,-1.14800000,-0.03300000,0.51740000,0.37790000,-3.37450000,0.01570000,0.08670000,1.01560000
$GPFPD,2292,465526.300,105.865,-0.172,0.966,31.42725689,120.62781132,17.304,4.312,-1.181,-0.013,0.791,20,16,04*5C
$GTIMU,2292,465526.300,-0.2732,-0.3018,-3.5528,-0.0029,0.0887,1.0200,40.7*6B
17:18::28.295,1702603126282,120.62781132,31.42725689,3478516.15858592,559690.21143384,105.86500000,6.00000000,4.31200000,-1.18100000,-0.01300000,-0.27320000,-0.30180000,-3.55280000,-0.00290000,0.08870000,1.02000000
$GPFPD,2292,465526.400,106.202,-0.134,0.966,31.42725588,120.62781590,17.306,4.386,-1.237,-0.015,0.791,20,16,04*58
$GTIMU,2292,465526.400,0.4294,0.0045,-3.3584,0.0168,0.0860,0.9987,40.7*44
17:18::28.394,1702603126382,120.62781590,31.42725588,3478516.04908526,559690.64753288,106.20200000,6.00000000,4.38600000,-1.23700000,-0.01500000,0.42940000,0.00450000,-3.35840000,0.01680000,0.08600000,0.99870000
$GPFPD,2292,465526.500,106.544,-0.035,0.910,31.42725482,120.62782057,17.308,4.473,-1.290,-0.034,0.797,20,16,04*50
$GTIMU,2292,465526.500,1.0417,-0.5556,-3.4003,0.0104,0.0995,0.9813,40.7*62
17:18::28.495,1702603126482,120.62782057,31.42725482,3478515.93408952,559691.09222066,106.54400000,6.00000000,4.47300000,-1.29000000,-0.03400000,1.04170000,-0.55560000,-3.40030000,0.01040000,0.09950000,0.98130000
$GPFPD,2292,465526.600,106.918,0.038,0.882,31.42725372,120.62782534,17.308,4.560,-1.338,-0.032,0.797,20,16,04*72
$GTIMU,2292,465526.600,0.7876,-0.2748,-3.7287,0.0052,0.1005,1.0013,40.7*68
17:18::28.595,1702603126582,120.62782534,31.42725372,3478515.81471292,559691.54644163,106.91800000,6.00000000,4.56000000,-1.33800000,-0.03200000,0.78760000,-0.27480000,-3.72870000,0.00520000,0.10050000,1.00130000
$GPFPD,2292,465526.700,107.276,0.084,0.873,31.42725257,120.62783018,17.308,4.635,-1.409,-0.043,0.796,20,16,04*75
$GTIMU,2292,465526.700,0.5081,-0.0958,-3.5707,0.0316,0.0963,0.9895,40.7*6C
17:18::28.695,1702603126682,120.62783018,31.42725257,3478515.68983038,559692.00734978,107.27600000,6.00000000,4.63500000,-1.40900000,-0.04300000,0.50810000,-0.09580000,-3.57070000,0.03160000,0.09630000,0.98950000
$GPFPD,2292,465526.800,107.616,0.150,0.887,31.42725133,120.62783511,17.307,4.712,-1.465,-0.053,0.796,20,16,04*76
$GTIMU,2292,465526.800,0.7059,0.1295,-3.3870,0.0158,0.0948,0.9898,40.7*47
17:18::28.794,1702603126782,120.62783511,31.42725133,3478515.55501756,559692.47687202,107.61600000,6.00000000,4.71200000,-1.46500000,-0.05300000,0.70590000,0.12950000,-3.38700000,0.01580000,0.09480000,0.98980000
$GPFPD,2292,465526.900,108.003,0.147,0.905,31.42725000,120.62784011,17.304,4.790,-1.503,0.012,0.798,20,16,04*5A
$GTIMU,2292,465526.900,0.0293,0.1702,-3.8700,-0.0041,0.0910,1.0656,40.7*60
17:18::28.895,1702603126882,120.62784011,31.42725000,3478515.41026360,559692.95310678,108.00300000,6.00000000,4.79000000,-1.50300000,0.01200000,0.02930000,0.17020000,-3.87000000,-0.00410000,0.09100000,1.06560000
$GPFPD,2292,465527.000,108.386,-0.011,0.879,31.42724861,120.62784518,17.308,4.851,-1.570,0.057,0.798,20,16,04*70
$GTIMU,2292,465527.000,-1.5230,-0.2667,-3.8543,0.0285,0.0829,1.0467,40.7*4D
17:18::28.995,1702603126982,120.62784518,31.42724861,3478515.25889490,559693.43603506,108.38600000,6.00000000,4.85100000,-1.57000000,0.05700000,-1.52300000,-0.26670000,-3.85430000,0.02850000,0.08290000,1.04670000
$GPFPD,2292,465527$GPGGA,09.100,108.1829.00,3753,-0.16125.63510,0.838,3273,N,1201.427247137.6713657,120.6278,E,1,16,85031,171.1,10.8.312,4.9084,M,7.809,-1.622,M,,*57
,0.024,0.798,20,16,04*79
$GTIMU,2292,465527.100,-1.4332,-0.4045,-3.6869,0.0172,0.0714,0.9656,40.7*47
17:18::29.095,1702603127082,120.62785031,31.42724717,3478515.10201482,559693.92469974,108.75300000,6.00000000,4.90900000,-1.62200000,0.02400000,-1.43320000,-0.40450000,-3.68690000,0.01720000,0.07140000,0.96560000
$GPFPD,2292,465527.200,109.124,-0.209,0.800,31.42724568,120.62785551,17.312,4.970,-1.674,-0.016,0.798,20,16,04*52
$GTIMU,2292,465527.200,-0.4480,-0.3703,-3.7144,0.0164,0.0737,0.9599,40.7*48
17:18::29.195,1702603127182,120.62785551,31.42724568,3478514.93962879,559694.42005160,109.12400000,6.00000000,4.97000000,-1.67400000,-0.01600000,-0.44800000,-0.37030000,-3.71440000,0.01640000,0.07370000,0.95990000
$GPFPD,2292,465527.300,109.504,-0.221,0.796,31.42724414,120.62786077,17.313,5.028,-1.740,-0.017,0.802,22,16,04*5A
$GTIMU,2292,465527.300,-0.0645,-0.0259,-3.8025,0.0288,0.0742,0.9944,40.7*49
17:18::29.295,1702603127282,120.62786077,31.42724414,3478514.77173139,559694.92113987,109.50400000,6.00000000,5.02800000,-1.74000000,-0.01700000,-0.06450000,-0.02590000,-3.80250000,0.02880000,0.07420000,0.99440000
$GPFPD,2292,465527.400,109.857,-0.247,0.868,31.42724253,120.62786610,17.322,5.081,-1.821,-0.026,0.802,22,16,04*51
$GTIMU,2292,465527.400,-0.2133,0.7309,-3.5307,0.0445,0.0759,0.9909,40.7*6E
17:18::29.395,1702603127382,120.62786610,31.42724253,3478514.59611046,559695.42892799,109.85700000,6.00000000,5.08100000,-1.82100000,-0.02600000,-0.21330000,0.73090000,-3.53070000,0.04450000,0.07590000,0.99090000
$GPFPD,2292,465527.500,110.159,-0.278,1.001,31.42724085,120.62787149,17.330,5.141,-1.885,-0.042,0.796,21,16,04*55
$GTIMU,2292,465527.500,-0.2675,1.3435,-3.0225,0.0244,0.0759,0.9850,40.7*69
17:18::29.495,1702603127482,120.62787149,31.42724085,3478514.41276055,559695.94246518,110.15900000,6.00000000,5.14100000,-1.88500000,-0.04200000,-0.26750000,1.34350000,-3.02250000,0.02440000,0.07590000,0.98500000
$GPFPD,2292,465527.600,110.397,-0.296,1.090,31.42723912,120.62787694,17.338,5.204,-1.928,-0.027,0.796,21,16,04*56
$GTIMU,2292,465527.600,-0.1384,0.8949,-2.3876,0.0002,0.0707,1.0155,40.7*6F
17:18::29.594,1702603127582,120.62787694,31.42723912,3478514.22389927,559696.46173878,110.39700000,6.00000000,5.20400000,-1.92800000,-0.02700000,-0.13840000,0.89490000,-2.38760000,0.00020000,0.07070000,1.01550000
$GPFPD,2292,465527.700,110.599,-0.305,1.119,31.42723737,120.62788246,17.347,5.270,-1.959,-0.018,0.792,21,16,04*5C
$GTIMU,2292,465527.700,-0.0522,0.3084,-2.0109,-0.0136,0.0692,1.0087,40.7*4C
17:18::29.695,1702603127682,120.62788246,31.42723737,3478514.03285845,559696.98768056,110.59900000,6.00000000,5.27000000,-1.95900000,-0.01800000,-0.05220000,0.30840000,-2.01090000,-0.01360000,0.06920000,1.00870000
$GPFPD,2292,465527.800,110.768,-0.333,1.107,31.42723558,120.62788804,17.355,5.328,-2.005,-0.011,0.792,21,16,04*57
$GTIMU,2292,465527.800,-0.2570,-0.1187,-1.6933,0.0033,0.0672,1.0082,40.7*4D
17:18::29.795,1702603127782,120.62788804,31.42723558,3478513.83741505,559697.51935241,110.76800000,6.00000000,5.32800000,-2.00500000,-0.01100000,-0.25700000,-0.11870000,-1.69330000,0.00330000,0.06720000,1.00820000
$GPFPD,2292,465527.900,110.884,-0.330,1.100,31.42723374,120.62789367,17.352,5.386,-2.054,-0.058,0.788,21,16,04*59
$GTIMU,2292,465527.900,0.0561,-0.0644,-1.1592,0.0073,0.0689,0.9525,40.7*6A
17:18::29.895,1702603127882,120.62789367,31.42723374,3478513.63645486,559698.05580988,110.88400000,6.00000000,5.38600000,-2.05400000,-0.05800000,0.05610000,-0.06440000,-1.15920000,0.00730000,0.06890000,0.95250000
$GPFPD,2292,465528.000,110.965,-0.278,1.114,31.42723187,120.62789938,17.346,5.453,-2.087,-0.052,0.788,21,16,04*59
$GTIMU,2292,465528.000,0.5325,0.1401,-0.7948,-0.0132,0.0713,1.0059,40.7*61
17:18::29.995,1702603127982,120.62789938,31.42723187,3478513.43221176,559698.59989266,110.96500000,6.00000000,5.45300000,-2.08700000,-0.05200000,0.53250000,0.14010000,-0.79480000,-0.01320000,0.07130000,1.00590000
$GPGGA,091830.00,3125.6340989,N,12037.6746258,E,1,16,1.1,10.872,M,7.80,M,,*5C
$GPFPD,2292,465528.100,111.065,-0.298,1.072,31.42722998,120.62790515,17.342,5.524,-2.107,-0.024,0.788,21,16,04*5E
$GTIMU,2292,465528.100,-0.1882,-0.4106,-1.0052,-0.0260,0.0706,1.0287,40.7*60
17:18::30.094,1702603128082,120.62790515,31.42722998,3478513.22578368,559699.14969284,111.06500000,6.00000000,5.52400000,-2.10700000,-0.02400000,-0.18820000,-0.41060000,-1.00520000,-0.02600000,0.07060000,1.02870000
$GPFPD,2292,465528.200,111.162,-0.363,1.024,31.42722806,120.62791099,17.341,5.583,-2.149,-0.012,0.792,21,16,04*51
$GTIMU,2292,465528.200,-0.6395,-0.4746,-0.9836,-0.0003,0.0662,1.0124,40.7*67
17:18::30.195,1702603128182,120.62791099,31.42722806,3478513.01606728,559699.70616754,111.16200000,6.00000000,5.58300000,-2.14900000,-0.01200000,-0.63950000,-0.47460000,-0.98360000,-0.00030000,0.06620000,1.01240000
$GPFPD,2292,465528.300,111.240,-0.398,0.999,31.42722612,120.62791688,17.338,5.636,-2.184,-0.034,0.800,21,16,04*56
$GTIMU,2292,465528.300,-0.3366,-0.2465,-0.7859,-0.0008,0.0629,0.9815,40.7*6B
17:18::30.295,1702603128282,120.62791688,31.42722612,3478512.80416047,559700.26740886,111.24000000,6.00000000,5.63600000,-2.18400000,-0.03400000,-0.33660000,-0.24650000,-0.78590000,-0.00080000,0.06290000,0.98150000
$GPFPD,2292,465528.400,111.331,-0.387,0.981,31.42722422,120.62792278,17.331,5.690,-2.206,-0.040,0.800,21,16,04*57
$GTIMU,2292,465528.400,0.1167,-0.1716,-0.9067,-0.0167,0.0534,0.9934,40.7*4A
17:18::30.395,1702603128382,120.62792278,31.42722422,3478512.59669432,559700.82957565,111.33100000,6.00000000,5.69000000,-2.20600000,-0.04000000,0.11670000,-0.17160000,-0.90670000,-0.01670000,0.05340000,0.99340000
$GPFPD,2292,465528.500,111.436,-0.319,1.015,31.42722230,120.62792873,17.324,5.741,-2.247,-0.060,0.793,21,16,04*5B
$GTIMU,2292,465528.500,0.6951,0.3443,-1.0313,0.0024,0.0586,0.9799,40.7*4E
17:18::30.495,1702603128482,120.62792873,31.42722230,3478512.38703777,559701.39650905,111.43600000,6.00000000,5.74100000,-2.24700000,-0.06000000,0.69510000,0.34430000,-1.03130000,0.00240000,0.05860000,0.97990000
$GPFPD,2292,465528.600,111.533,-0.251,1.006,31.42722034,120.62793474,17.315,5.800,-2.276,-0.061,0.793,21,16,04*54
$GTIMU,2292,465528.600,0.7013,-0.0894,-0.9549,-0.0116,0.0625,0.9996,40.7*4C
17:18::30.595,1702603128582,120.62793474,31.42722034,3478512.17297865,559701.96917253,111.53300000,6.00000000,5.80000000,-2.27600000,-0.06100000,0.70130000,-0.08940000,-0.95490000,-0.01160000,0.06250000,0.99960000
$GPFPD,2292,465528.700,111.624,-0.196,0.995,31.42721835,120.62794081,17.307,5.859,-2.307,-0.052,0.790,20,16,04*53
$GTIMU,2292,465528.700,0.5612,-0.1059,-0.9067,-0.0104,0.0638,1.0091,40.7*40
17:18::30.695,1702603128682,120.62794081,31.42721835,3478511.95562577,559702.54755975,111.62400000,6.00000000,5.85900000,-2.30700000,-0.05200000,0.56120000,-0.10590000,-0.90670000,-0.01040000,0.06380000,1.00910000
$GPFPD,2292,465528.800,111.715,-0.186,1.002,31.42721632,120.62794696,17.301,5.914,-2.345,-0.019,0.790,20,16,04*56
$GTIMU,2292,465528.800,0.1092,0.0666,-0.9061,-0.0035,0.0637,1.0337,40.7*66
17:18::30.794,1702603128782,120.62794696,31.42721632,3478511.73388120,559703.13357861,111.71500000,6.00000000,5.91400000,-2.34500000,-0.01900000,0.10920000,0.06660000,-0.90610000,-0.00350000,0.06370000,1.03370000
$GPFPD,2292,465528.900,111.807,-0.241,1.017,31.42721419,120.62795320,17.301,5.967,-2.382,0.003,0.793,20,15,04*7C
$GTIMU,2292,465528.900,-0.5342,0.1544,-0.9189,-0.0034,0.0619,1.0220,40.7*4F
17:18::30.895,1702603128882,120.62795320,31.42721419,3478511.50109756,559703.72821793,111.80700000,6.00000000,5.96700000,-2.38200000,0.00300000,-0.53420000,0.15440000,-0.91890000,-0.00340000,0.06190000,1.02200000
$GPFPD,2292,465529.000,111.881,-0.307,1.053,31.42721202,120.62795951,17.300,6.018,-2.422,-0.022,0.793,20,15,04*59
$GTIMU,2292,465529.000,-0.6520,0.3635,-0.7532,0.0014,0.0595,0.9744,40.7*6C
17:18::30.995,1702603128982,120.62795951,31.42721202,3478511.26391681,559704.32953812,111.88100000,6.00000000,6.01800000,-2.42200000,-0.02200000,-0.65200000,0.36350000,-0.75320000,0.00140000,0.05950000,0.97440000
$GPGGA,091831.00,3125.6326319,N,12037.6780743,E,1,15,1.5,10.255,M,7.80,M,,*53
$GPFPD,2292,465529.100,111.942,-0.333,1.089,31.42720982,120.62796587,17.297,6.072,-2.443,-0.036,0.793,20,15,04*51
$GTIMU,2292,465529.100,-0.2509,0.3654,-0.6139,-0.0200,0.0544,0.9863,40.7*47
17:18::31.095,1702603129082,120.62796587,31.42720982,3478511.02343685,559704.93563127,111.94200000,6.00000000,6.07200000,-2.44300000,-0.03600000,-0.25090000,0.36540000,-0.61390000,-0.02000000,0.05440000,0.98630000
$GPFPD,2292,465529.200,112.015,-0.311,1.086,31.42720761,120.62797228,17.293,6.127,-2.465,-0.036,0.796,20,15,04*51
$GTIMU,2292,465529.200,0.2321,-0.0326,-0.7263,-0.0189,0.0551,0.9998,40.7*45
17:18::31.194,1702603129182,120.62797228,31.42720761,3478510.78187531,559705.54648471,112.01500000,6.00000000,6.12700000,-2.46500000,-0.03600000,0.23210000,-0.03260000,-0.72630000,-0.01890000,0.05510000,0.99980000
$GPFPD,2292,465529.300,112.080,-0.278,1.061,31.42720536,120.62797876,17.287,6.179,-2.501,-0.051,0.805,19,15,04*59
$GTIMU,2292,465529.300,0.3386,-0.2459,-0.6455,-0.0080,0.0541,0.9893,40.7*44
17:18::31.295,1702603129282,120.62797876,31.42720536,3478510.53591663,559706.16401902,112.08000000,6.00000000,6.17900000,-2.50100000,-0.05100000,0.33860000,-0.24590000,-0.64550000,-0.00800000,0.05410000,0.98930000
$GPFPD,2292,465529.400,112.121,-0.236,1.047,31.42720300,120.62798532,17.274,6.231,-2.534,-0.050,0.805,19,15,04*5F
$GTIMU,2292,465529.400,0.4212,-0.1456,-0.3982,-0.0071,0.0575,1.0003,40.7*46
17:18::31.395,1702603129382,120.62798532,31.42720300,3478510.27780468,559706.78922934,112.12100000,6.00000000,6.23100000,-2.53400000,-0.05000000,0.42120000,-0.14560000,-0.39820000,-0.00710000,0.05750000,1.00030000
$GPFPD,2292,465529.500,112.172,-0.208,1.088,31.42720063,120.62799193,17.262,6.283,-2.558,-0.044,0.796,19,15,04*5A
$GTIMU,2292,465529.500,0.2869,0.4161,-0.5040,-0.0164,0.0555,1.0067,40.7*6A
17:18::31.495,1702603129482,120.62799193,31.42720063,3478510.01861114,559707.41919996,112.17200000,6.00000000,6.28300000,-2.55800000,-0.04400000,0.28690000,0.41610000,-0.50400000,-0.01640000,0.05550000,1.00670000
$GPFPD,2292,465529.600,112.221,-0.218,1.055,31.42719823,120.62799860,17.251,6.331,-2.583,-0.025,0.796,19,15,04*57
$GTIMU,2292,465529.600,-0.0896,-0.3328,-0.4871,-0.0147,0.0515,1.0188,40.7*6D
17:18::31.595,1702603129582,120.62799860,31.42719823,3478509.75612384,559708.05489433,112.22100000,6.00000000,6.33100000,-2.58300000,-0.02500000,-0.08960000,-0.33280000,-0.48710000,-0.01470000,0.05150000,1.01880000
$GPFPD,2292,465529.700,112.252,-0.265,1.058,31.42719581,120.62800531,17.242,6.376,-2.611,-0.015,0.802,17,15,04*50
$GTIMU,2292,465529.700,-0.4698,0.0332,-0.3146,-0.0088,0.0499,1.0102,40.7*42
17:18::31.695,1702603129682,120.62800531,31.42719581,3478509.49144071,559708.69440454,112.25200000,6.00000000,6.37600000,-2.61100000,-0.01500000,-0.46980000,0.03320000,-0.31460000,-0.00880000,0.04990000,1.01020000
$GPFPD,2292,465529.800,112.289,-0.336,1.075,31.42719338,120.62801207,17.233,6.422,-2.628,-0.029,0.802,17,15,04*53
$GTIMU,2292,465529.800,-0.7030,0.1652,-0.3784,-0.0208,0.0460,0.9854,40.7*4E
17:18::31.795,1702603129782,120.62801207,31.42719338,3478509.22567600,559709.33867505,112.28900000,6.00000000,6.42200000,-2.62800000,-0.02900000,-0.70300000,0.16520000,-0.37840000,-0.02080000,0.04600000,0.98540000
$GPFPD,2292,465529.900,112.320,-0.381,1.085,31.42719099,120.62801885,17.230,6.457,-2.658,-0.031,0.789,16,15,04*59
$GTIMU,2292,465529.900,-0.4476,0.1042,-0.3158,-0.0038,0.0390,0.9979,40.7*4D
17:18::31.895,1702603129882,120.62801885,31.42719099,3478508.96435739,559709.98482181,112.32000000,6.00000000,6.45700000,-2.65800000,-0.03100000,-0.44760000,0.10420000,-0.31580000,-0.00380000,0.03900000,0.99790000
$GPFPD,2292,465530.000,112.328,-0.450,1.118,31.42718859,120.62802565,17.228,6.483,-2.672,-0.023,0.789,16,15,04*50
$GTIMU,2292,465530.000,-0.6979,0.3331,-0.0933,-0.0171,0.0229,1.0083,40.7*44
17:18::31.994,1702603129982,120.62802565,31.42718859,3478508.70194089,559710.63287651,112.32800000,6.00000000,6.48300000,-2.67200000,-0.02300000,-0.69790000,0.33310000,-0.09330000,-0.01710000,0.02290000,1.00830000
$GPGGA,091832.00,3125.6312535,N,12037.6820429,E,1,15,1.5,10.218,M,7.80,M,,*5C
$GPFPD,2292,465530.100,112.342,-0.462,1.127,31.42718618,120.62803248,17.224,6.516,-2.675,-0.061,0.789,16,15,04*52
$GTIMU,2292,465530.100,-0.1134,0.0817,-0.1466,-0.0283,0.0252,0.9605,40.7*41
17:18::32.095,1702603130082,120.62803248,31.42718618,3478508.43843193,559711.28378994,112.34200000,6.00000000,6.51600000,-2.67500000,-0.06100000,-0.11340000,0.08170000,-0.14660000,-0.02830000,0.02520000,0.96050000
$GPFPD,2292,465530.200,112.358,-0.448,1.142,31.42718375,120.62803935,17.217,6.550,-2.699,-0.064,0.808,16,15,04*5D
$GTIMU,2292,465530.200,0.1381,0.1520,-0.1507,-0.0107,0.0342,0.9972,40.7*6D
17:18::32.195,1702603130182,120.62803935,31.42718375,3478508.17272715,559711.93851922,112.35800000,6.00000000,6.55000000,-2.69900000,-0.06400000,0.13810000,0.15200000,-0.15070000,-0.01070000,0.03420000,0.99720000
$GPFPD,2292,465530.300,112.361,-0.457,1.128,31.42718132,120.62804626,17.210,6.590,-2.712,-0.067,0.794,16,15,04*5F
$GTIMU,2292,465530.300,-0.0982,-0.1350,-0.0366,-0.0207,0.0367,1.0007,40.7*62
17:18::32.295,1702603130282,120.62804626,31.42718132,3478507.90704415,559712.59705167,112.36100000,6.00000000,6.59000000,-2.71200000,-0.06700000,-0.09820000,-0.13500000,-0.03660000,-0.02070000,0.03670000,1.00070000
$GPFPD,2292,465530.400,112.369,-0.437,1.161,31.42717890,120.62805321,17.196,6.634,-2.731,-0.058,0.794,16,15,04*5B
$GTIMU,2292,465530.400,0.1994,0.3270,-0.0773,-0.0190,0.0409,1.0097,40.7*69
17:18::32.395,1702603130382,120.62805321,31.42717890,3478507.64249173,559713.25938096,112.36900000,6.00000000,6.63400000,-2.73100000,-0.05800000,0.19940000,0.32700000,-0.07730000,-0.01900000,0.04090000,1.00970000
$GPFPD,2292,465530.500,112.386,-0.430,1.129,31.42717646,120.62806020,17.185,6.683,-2.748,-0.053,0.788,16,15,04*52
$GTIMU,2292,465530.500,0.0753,-0.3248,-0.1625,-0.0230,0.0463,1.0049,40.7*4F
17:18::32.495,1702603130482,120.62806020,31.42717646,3478507.37574349,559713.92552609,112.38600000,6.00000000,6.68300000,-2.74800000,-0.05300000,0.07530000,-0.32480000,-0.16250000,-0.02300000,0.04630000,1.00490000
$GPFPD,2292,465530.600,112.390,-0.371,1.098,31.42717400,120.62806725,17.171,6.729,-2.775,-0.084,0.788,16,15,04*53
$GTIMU,2292,465530.600,0.5825,-0.3104,-0.0251,-0.0123,0.0479,0.9679,40.7*4D
17:18::32.595,1702603130582,120.62806725,31.42717400,3478507.10681030,559714.59738865,112.39000000,6.00000000,6.72900000,-2.77500000,-0.08400000,0.58250000,-0.31040000,-0.02510000,-0.01230000,0.04790000,0.96790000
$GPFPD,2292,465530.700,112.397,-0.302,1.125,31.42717152,120.62807435,17.156,6.785,-2.796,-0.073,0.787,16,15,04*5E
$GTIMU,2292,465530.700,0.6862,0.2733,-0.0573,-0.0212,0.0553,1.0117,40.7*6A
17:18::32.695,1702603130682,120.62807435,31.42717152,3478506.83568673,559715.27401785,112.39700000,6.00000000,6.78500000,-2.79600000,-0.07300000,0.68620000,0.27330000,-0.05730000,-0.02120000,0.05530000,1.01170000
$GPFPD,2292,465530.800,112.420,-0.311,1.131,31.42716901,120.62808151,17.145,6.841,-2.824,-0.045,0.787,16,15,04*5C
$GTIMU,2292,465530.800,-0.0853,0.0579,-0.2300,-0.0154,0.0593,1.0278,40.7*45
17:18::32.795,1702603130782,120.62808151,31.42716901,3478506.56126942,559715.95637080,112.42000000,6.00000000,6.84100000,-2.82400000,-0.04500000,-0.08530000,0.05790000,-0.23000000,-0.01540000,0.05930000,1.02780000
$GPFPD,2292,465530.900,112.454,-0.340,1.151,31.42716645,120.62808874,17.140,6.892,-2.848,-0.040,0.798,16,15,04*57
$GTIMU,2292,465530.900,-0.2868,0.2053,-0.3447,-0.0174,0.0529,1.0054,40.7*4B
17:18::32.895,1702603130882,120.62808874,31.42716645,3478506.28134619,559716.64541098,112.45400000,6.00000000,6.89200000,-2.84800000,-0.04000000,-0.28680000,0.20530000,-0.34470000,-0.01740000,0.05290000,1.00540000
$GPFPD,2292,465531.000,112.509,-0.329,1.158,31.42716387,120.62809601,17.136,6.943,-2.867,-0.042,0.798,16,15,04*55
$GTIMU,2292,465531.000,0.1170,0.0690,-0.5441,-0.0229,0.0502,0.9982,40.7*6E
17:18::32.995,1702603130982,120.62809601,31.42716387,3478505.99922716,559717.33826701,112.50900000,6.00000000,6.94300000,-2.86700000,-0.04200000,0.11700000,0.06900000,-0.54410000,-0.02290000,0.05020000,0.99820000
$GPGGA,091833.00,3125.6297688,N,12037.6862863,E,1,15,1.5,10.162,M,7.80,M,,*5E
$GPFPD,2292,465531.100,112.562,-0.311,1.152,31.42716127,120.62810334,17.131,6.987,-2.901,-0.063,0.798,16,15,04*56
$GTIMU,2292,465531.100,0.1929,-0.0624,-0.5209,-0.0046,0.0503,0.9786,40.7*43
17:18::33.094,1702603131082,120.62810334,31.42716127,3478505.71492318,559718.03684047,112.56200000,6.00000000,6.98700000,-2.90100000,-0.06300000,0.19290000,-0.06240000,-0.52090000,-0.00460000,0.05030000,0.97860000
$GPFPD,2292,465531.200,112.590,-0.283,1.157,31.42715864,120.62811072,17.124,7.040,-2.933,-0.061,0.796,16,15,04*50
$GTIMU,2292,465531.200,0.2800,0.0543,-0.2753,-0.0111,0.0580,1.0017,40.7*64
17:18::33.195,1702603131182,120.62811072,31.42715864,3478505.42732002,559718.74018691,112.59000000,6.00000000,7.04000000,-2.93300000,-0.06100000,0.28000000,0.05430000,-0.27530000,-0.01110000,0.05800000,1.00170000
$GPFPD,2292,465531.300,112.620,-0.353,1.162,31.42715599,120.62811815,17.121,7.090,-2.949,-0.027,0.796,16,16,04*51
$GTIMU,2292,465531.300,-0.7030,0.0464,-0.3106,-0.0219,0.0482,1.0295,40.7*45
17:18::33.295,1702603131282,120.62811815,31.42715599,3478505.13752649,559719.44829999,112.62000000,6.00000000,7.09000000,-2.94900000,-0.02700000,-0.70300000,0.04640000,-0.31060000,-0.02190000,0.04820000,1.02950000
$GPFPD,2292,465531.400,112.656,-0.418,1.157,31.42715335,120.62812563,17.125,7.133,-2.974,-0.034,0.796,16,16,04*56
$GTIMU,2292,465531.400,-0.6432,-0.0422,-0.3717,-0.0141,0.0446,0.9937,40.7*61
17:18::33.395,1702603131382,120.62812563,31.42715335,3478504.84886898,559720.16116070,112.65600000,6.00000000,7.13300000,-2.97400000,-0.03400000,-0.64320000,-0.04220000,-0.37170000,-0.01410000,0.04460000,0.99370000
$GPFPD,2292,465531.500,112.686,-0.456,1.120,31.42715070,120.62813315,17.129,7.180,-2.988,-0.041,0.797,16,16,04*50
$GTIMU,2292,465531.500,-0.3798,-0.3681,-0.3079,-0.0254,0.0419,0.9926,40.7*6C
17:18::33.494,1702603131482,120.62813315,31.42715070,3478504.55912446,559720.87783092,112.68600000,6.00000000,7.18000000,-2.98800000,-0.04100000,-0.37980000,-0.36810000,-0.30790000,-0.02540000,0.04190000,0.99260000
$GPFPD,2292,465531.600,112.719,-0.373,1.053,31.42714803,120.62814073,17.128,7.223,-3.006,-0.087,0.797,16,16,04*57
$GTIMU,2292,465531.600,0.8386,-0.6740,-0.3160,-0.0178,0.0419,0.9524,40.7*41
17:18::33.595,1702603131582,120.62814073,31.42714803,3478504.26719500,559721.60021858,112.71900000,6.00000000,7.22300000,-3.00600000,-0.08700000,0.83860000,-0.67400000,-0.31600000,-0.01780000,0.04190000,0.95240000
$GPFPD,2292,465531.700,112.756,-0.304,0.994,31.42714534,120.62814834,17.127,7.261,-3.033,-0.067,0.803,16,16,04*5F
$GTIMU,2292,465531.700,0.6855,-0.5897,-0.3493,-0.0078,0.0409,1.0208,40.7*45
17:18::33.695,1702603131682,120.62814834,31.42714534,3478503.97306430,559722.32547131,112.75600000,6.00000000,7.26100000,-3.03300000,-0.06700000,0.68550000,-0.58970000,-0.34930000,-0.00780000,0.04090000,1.02080000
$GPFPD,2292,465531.800,112.773,-0.260,0.973,31.42714262,120.62815600,17.126,7.301,-3.061,-0.044,0.803,16,16,04*51
$GTIMU,2292,465531.800,0.4410,-0.2045,-0.1656,-0.0071,0.0447,1.0232,40.7*46
17:18::33.795,1702603131782,120.62815600,31.42714262,3478503.67563443,559723.05549703,112.77300000,6.00000000,7.30100000,-3.06100000,-0.04400000,0.44100000,-0.20450000,-0.16560000,-0.00710000,0.04470000,1.02320000
$GPFPD,2292,465531.900,112.807,-0.254,1.018,31.42713985,120.62816370,17.123,7.339,-3.084,-0.021,0.808,16,16,04*57
$GTIMU,2292,465531.900,0.0700,0.4421,-0.3375,-0.0117,0.0410,1.0233,40.7*68
17:18::33.894,1702603131882,120.62816370,31.42713985,3478503.37268236,559723.78935763,112.80700000,6.00000000,7.33900000,-3.08400000,-0.02100000,0.07000000,0.44210000,-0.33750000,-0.01170000,0.04100000,1.02330000
$GPFPD,2292,465532.000,112.845,-0.208,1.040,31.42713706,120.62817144,17.120,7.374,-3.106,-0.044,0.808,16,16,04*5C
$GTIMU,2292,465532.000,0.4543,0.2220,-0.3704,-0.0106,0.0385,0.9760,40.7*60
17:18::33.995,1702603131982,120.62817144,31.42713706,3478503.06753448,559724.52703409,112.84500000,6.00000000,7.37400000,-3.10600000,-0.04400000,0.45430000,0.22200000,-0.37040000,-0.01060000,0.03850000,0.97600000
$GPGGA,091834.00,3125.6275692,N,12037.6906164,E,1,16,1.1,9.293,M,7.80,M,,*61
$GPFPD,2292,465532.100,112.867,-0.145,1.058,31.42713425,120.62817921,17.115,7.409,-3.121,-0.041,0.808,16,16,04*5C
$GTIMU,2292,465532.100,0.6334,0.1780,-0.2026,-0.0183,0.0361,1.0029,40.7*6A
17:18::34.095,1702603132082,120.62817921,31.42713425,3478502.76018536,559725.26757562,112.86700000,6.00000000,7.40900000,-3.12100000,-0.04100000,0.63340000,0.17800000,-0.20260000,-0.01830000,0.03610000,1.00290000
$GPFPD,2292,465532.200,112.904,-0.107,1.074,31.42713142,120.62818702,17.112,7.435,-3.140,-0.021,0.792,16,16,04*52
$GTIMU,2292,465532.200,0.3861,0.1612,-0.3554,-0.0120,0.0311,1.0206,40.7*6D
17:18::34.194,1702603132182,120.62818702,31.42713142,3478502.45064044,559726.01193302,112.90400000,6.00000000,7.43500000,-3.14000000,-0.02100000,0.38610000,0.16120000,-0.35540000,-0.01200000,0.03110000,1.02060000
$GPFPD,2292,465532.300,112.922,-0.088,1.056,31.42712856,120.62819485,17.110,7.460,-3.159,-0.003,0.798,16,16,04*51
$GTIMU,2292,465532.300,0.1890,-0.1810,-0.1690,-0.0139,0.0293,1.0150,40.7*4B
17:18::34.294,1702603132282,120.62819485,31.42712856,3478502.13778004,559726.75821106,112.92200000,6.00000000,7.46000000,-3.15900000,-0.00300000,0.18900000,-0.18100000,-0.16900000,-0.01390000,0.02930000,1.01500000
$GPFPD,2292,465532.400,112.948,-0.135,1.043,31.42712562,120.62820266,17.109,7.490,-3.165,0.001,0.798,16,16,04*75
$GTIMU,2292,465532.400,-0.4683,-0.1351,-0.2695,-0.0241,0.0293,1.0031,40.7*6A
17:18::34.395,1702603132382,120.62820266,31.42712562,3478501.81603844,559727.50263828,112.94800000,6.00000000,7.49000000,-3.16500000,0.00100000,-0.46830000,-0.13510000,-0.26950000,-0.02410000,0.02930000,1.00310000
$GPFPD,2292,465532.500,112.984,-0.236,1.026,31.42712266,120.62821050,17.109,7.513,-3.185,0.010,0.798,16,16,04*76
$GTIMU,2292,465532.500,-1.0078,-0.1671,-0.3720,-0.0090,0.0268,1.0088,40.7*6D
17:18::34.495,1702603132482,120.62821050,31.42712266,3478501.49209559,559728.24993058,112.98400000,6.00000000,7.51300000,-3.18500000,0.01000000,-1.00780000,-0.16710000,-0.37200000,-0.00900000,0.02680000,1.00880000
$GPFPD,2292,465532.600,113.006,-0.349,0.995,31.42711969,120.62821836,17.108,7.535,-3.193,0.006,0.798,16,16,04*74
$GTIMU,2292,465532.600,-1.1298,-0.3070,-0.2468,-0.0195,0.0204,0.9962,40.7*63
17:18::34.594,1702603132582,120.62821836,31.42711969,3478501.16705488,559728.99913084,113.00600000,6.00000000,7.53500000,-3.19300000,0.00600000,-1.12980000,-0.30700000,-0.24680000,-0.01950000,0.02040000,0.99620000
$GPFPD,2292,465532.700,113.043,-0.433,0.975,31.42711670,120.62822625,17.107,7.556,-3.206,-0.022,0.794,16,16,04*5A
$GTIMU,2292,465532.700,-0.8399,-0.2053,-0.3753,-0.0123,0.0188,0.9704,40.7*64
17:18::34.695,1702603132682,120.62822625,31.42711670,3478500.83981292,559729.75119619,113.04300000,6.00000000,7.55600000,-3.20600000,-0.02200000,-0.83990000,-0.20530000,-0.37530000,-0.01230000,0.01880000,0.97040000
$GPFPD,2292,465532.800,113.073,-0.438,0.971,31.42711373,120.62823416,17.102,7.570,-3.227,-0.060,0.794,16,16,04*58
$GTIMU,2292,465532.800,-0.0409,-0.0381,-0.2996,-0.0023,0.0146,0.9618,40.7*6A
17:18::34.795,1702603132782,120.62823416,31.42711373,3478500.51479949,559730.50515047,113.07300000,6.00000000,7.57000000,-3.22700000,-0.06000000,-0.04090000,-0.03810000,-0.29960000,-0.00230000,0.01460000,0.96180000
$GPFPD,2292,465532.900,113.099,-0.355,0.967,31.42711081,120.62824213,17.095,7.592,-3.233,-0.068,0.802,16,16,04*52
$GTIMU,2292,465532.900,0.8282,-0.0329,-0.2430,-0.0204,0.0174,0.9916,40.7*4F
