$GPFPD,2292,546285.700,111.212,-0.252,1.080,31.42733675,120.62753885,12.552,-0.006,-0.010,-0.018,0.797,21,18,04*73
$GTIMU,2292,546285.700,0.0071,-0.0283,0.0127,-0.0209,-0.0041,1.0009,32.6*4D
15:44::27.720,1702683885682,120.62753885,31.42733675,3478524.86547044,559664.25484533,111.21200000,6.00000000,-0.00600000,-0.01000000,-0.01800000,0.00710000,-0.02830000,0.01270000,-0.02090000,-0.00410000,1.00090000
$GPFPD,2292,546285.800,111.213,-0.253,1.081,31.42733676,120.62753885,12.546,-0.005,-0.011,-0.020,0.797,21,18,04*72
$GTIMU,2292,546285.800,-0.0116,0.0087,-0.0043,-0.0181,-0.0026,0.9977,32.6*60
15:44::27.821,1702683885782,120.62753885,31.42733676,3478524.86657924,559664.25483899,111.21300000,6.00000000,-0.00500000,-0.01100000,-0.02000000,-0.01160000,0.00870000,-0.00430000,-0.01810000,-0.00260000,0.99770000
$GPFPD,2292,546285.900,111.213,-0.253,1.083,31.42733675,120.62753884,12.544,-0.007,-0.011,-0.018,0.797,21,18,04*78
$GTIMU,2292,546285.900,-0.0048,0.0161,-0.0015,-0.0183,-0.0052,1.0013,32.6*63
15:44::27.921,1702683885882,120.62753884,31.42733675,3478524.86546501,559664.25389454,111.21300000,6.00000000,-0.00700000,-0.01100000,-0.01800000,-0.00480000,0.01610000,-0.00150000,-0.01830000,-0.00520000,1.00130000
$GPFPD,2292,546286.000,111.212,-0.252,1.078,31.42733674,120.62753883,12.543,-0.007,-0.010,-0.018,0.797,21,18,04*76
$GTIMU,2292,546286.000,0.0099,-0.0504,0.0127,-0.0202,-0.0048,0.9998,32.6*4C
15:44::28.020,1702683885982,120.62753883,31.42733674,3478524.86435079,559664.25295009,111.21200000,6.00000000,-0.00700000,-0.01000000,-0.01800000,0.00990000,-0.05040000,0.01270000,-0.02020000,-0.00480000,0.99980000
$GPGGA,074428.00,3125.6402366,N,12037.6530394,E,1,18,0.9,5.707,M,7.80,M,,*64
$GPFPD,2292,546286.100,111.213,-0.253,1.082,31.42733673,120.62753883,12.541,-0.007,-0.012,-0.019,0.797,21,18,04*74
$GTIMU,2292,546286.100,-0.0178,0.0388,-0.0066,-0.0169,-0.0024,0.9982,32.6*67
15:44::28.120,1702683886082,120.62753883,31.42733673,3478524.86324199,559664.25295643,111.21300000,6.00000000,-0.00700000,-0.01200000,-0.01900000,-0.01780000,0.03880000,-0.00660000,-0.01690000,-0.00240000,0.99820000
$GPFPD,2292,546286.200,111.213,-0.252,1.082,31.42733672,120.62753882,12.539,-0.007,-0.011,-0.017,0.795,21,18,04*76
$GTIMU,2292,546286.200,0.0071,-0.0032,0.0059,-0.0196,-0.0049,1.0013,32.6*4D
15:44::28.221,1702683886182,120.62753882,31.42733672,3478524.86212776,559664.25201197,111.21300000,6.00000000,-0.00700000,-0.01100000,-0.01700000,0.00710000,-0.00320000,0.00590000,-0.01960000,-0.00490000,1.00130000
$GPFPD,2292,546286.300,111.213,-0.252,1.079,31.42733671,120.62753882,12.536,-0.005,-0.012,-0.022,0.795,21,18,04*78
$GTIMU,2292,546286.300,-0.0037,-0.0260,0.0059,-0.0200,-0.0027,0.9981,32.6*68
15:44::28.321,1702683886282,120.62753882,31.42733671,3478524.86101896,559664.25201831,111.21300000,6.00000000,-0.00500000,-0.01200000,-0.02200000,-0.00370000,-0.02600000,0.00590000,-0.02000000,-0.00270000,0.99810000
$GPFPD,2292,546286.400,111.214,-0.254,1.083,31.42733669,120.62753884,12.529,-0.005,-0.013,-0.022,0.795,21,18,04*7B
$GTIMU,2292,546286.400,-0.0155,0.0326,-0.0066,-0.0170,-0.0038,0.9998,32.6*67
15:44::28.421,1702683886382,120.62753884,31.42733669,3478524.85881222,559664.25393254,111.21400000,6.00000000,-0.00500000,-0.01300000,-0.02200000,-0.01550000,0.03260000,-0.00660000,-0.01700000,-0.00380000,0.99980000
$GPFPD,2292,546286.500,111.213,-0.252,1.079,31.42733667,120.62753886,12.522,-0.006,-0.012,-0.022,0.795,21,18,04*7B
$GTIMU,2292,546286.500,0.0122,-0.0402,0.0122,-0.0203,-0.0051,1.0003,32.6*40
15:44::28.520,1702683886482,120.62753886,31.42733667,3478524.85660548,559664.25584677,111.21300000,6.00000000,-0.00600000,-0.01200000,-0.02200000,0.01220000,-0.04020000,0.01220000,-0.02030000,-0.00510000,1.00030000
$GPFPD,2292,546286.600,111.213,-0.253,1.081,31.42733665,120.62753888,12.515,-0.006,-0.013,-0.022,0.795,21,18,04*77
$GTIMU,2292,546286.600,-0.0121,0.0195,-0.0015,-0.0176,-0.0033,0.9987,32.6*6B
15:44::28.621,1702683886582,120.62753888,31.42733665,3478524.85439875,559664.25776100,111.21300000,6.00000000,-0.00600000,-0.01300000,-0.02200000,-0.01210000,0.01950000,-0.00150000,-0.01760000,-0.00330000,0.99870000
$GPFPD,2292,546286.700,111.213,-0.253,1.083,31.42733663,120.62753890,12.508,-0.006,-0.012,-0.022,0.798,21,18,04*7B
$GTIMU,2292,546286.700,-0.0053,0.0172,-0.0009,-0.0191,-0.0045,1.0002,32.6*6E
15:44::28.721,1702683886682,120.62753890,31.42733663,3478524.85219201,559664.25967523,111.21300000,6.00000000,-0.00600000,-0.01200000,-0.02200000,-0.00530000,0.01720000,-0.00090000,-0.01910000,-0.00450000,1.00020000
$GPFPD,2292,546286.800,111.213,-0.252,1.078,31.42733661,120.62753891,12.502,-0.005,-0.011,-0.022,0.798,21,18,04*78
$GTIMU,2292,546286.800,0.0082,-0.0436,0.0088,-0.0203,-0.0034,0.9995,32.6*4D
15:44::28.820,1702683886782,120.62753891,31.42733661,3478524.84997984,559664.26063868,111.21300000,6.00000000,-0.00500000,-0.01100000,-0.02200000,0.00820000,-0.04360000,0.00880000,-0.02030000,-0.00340000,0.99950000
$GPFPD,2292,546286.900,111.213,-0.254,1.082,31.42733660,120.62753891,12.500,-0.005,-0.013,-0.023,0.798,21,18,04*7A
$GTIMU,2292,546286.900,-0.0212,0.0360,-0.0054,-0.0170,-0.0028,0.9989,32.6*68
15:44::28.921,1702683886882,120.62753891,31.42733660,3478524.84887104,559664.26064502,111.21300000,6.00000000,-0.00500000,-0.01300000,-0.02300000,-0.02120000,0.03600000,-0.00540000,-0.01700000,-0.00280000,0.99890000
$GPFPD,2292,546287.000,111.213,-0.253,1.081,31.42733659,120.62753890,12.498,-0.006,-0.013,-0.021,0.798,21,18,04*7C
$GTIMU,2292,546287.000,0.0094,-0.0158,0.0059,-0.0194,-0.0053,1.0012,32.6*40
15:44::29.021,1702683886982,120.62753890,31.42733659,3478524.84775681,559664.25970056,111.21300000,6.00000000,-0.00600000,-0.01300000,-0.02100000,0.00940000,-0.01580000,0.00590000,-0.01940000,-0.00530000,1.00120000
$GPGGA,074429.00,3125.6402453,N,12037.6530331,E,1,18,0.9,5.786,M,7.80,M,,*62
$GPFPD,2292,546287.100,111.213,-0.252,1.079,31.42733658,120.62753889,12.496,-0.006,-0.012,-0.022,0.798,21,18,04*7E
$GTIMU,2292,546287.100,0.0009,-0.0169,0.0059,-0.0193,-0.0039,0.9991,32.6*46
15:44::29.121,1702683887082,120.62753889,31.42733658,3478524.84664258,559664.25875611,111.21300000,6.00000000,-0.00600000,-0.01200000,-0.02200000,0.00090000,-0.01690000,0.00590000,-0.01930000,-0.00390000,0.99910000
$GPFPD,2292,546287.200,111.213,-0.254,1.084,31.42733656,120.62753889,12.494,-0.006,-0.014,-0.022,0.798,21,18,04*73
$GTIMU,2292,546287.200,-0.0178,0.0417,-0.0060,-0.0175,-0.0029,0.9994,32.6*65
15:44::29.220,1702683887182,120.62753889,31.42733656,3478524.84442498,559664.25876878,111.21300000,6.00000000,-0.00600000,-0.01400000,-0.02200000,-0.01780000,0.04170000,-0.00600000,-0.01750000,-0.00290000,0.99940000
$GPFPD,2292,546287.300,111.213,-0.252,1.079,31.42733656,120.62753888,12.492,-0.006,-0.009,-0.021,0.799,21,18,04*7F
$GTIMU,2292,546287.300,0.0161,-0.0419,0.0082,-0.0207,-0.0053,1.0004,32.6*40
15:44::29.321,1702683887282,120.62753888,31.42733656,3478524.84441955,559664.25781800,111.21300000,6.00000000,-0.00600000,-0.00900000,-0.02100000,0.01610000,-0.04190000,0.00820000,-0.02070000,-0.00530000,1.00040000
$GPFPD,2292,546287.400,111.213,-0.253,1.080,31.42733659,120.62753889,12.492,-0.005,-0.011,-0.022,0.799,21,18,04*78
$GTIMU,2292,546287.400,-0.0139,0.0064,0.0014,-0.0177,-0.0023,0.9981,32.6*44
15:44::29.421,1702683887382,120.62753889,31.42733659,3478524.84775138,559664.25874978,111.21300000,6.00000000,-0.00500000,-0.01100000,-0.02200000,-0.01390000,0.00640000,0.00140000,-0.01770000,-0.00230000,0.99810000
$GPFPD,2292,546287.500,111.213,-0.253,1.083,31.42733661,120.62753889,12.492,-0.006,-0.011,-0.021,0.797,21,18,04*7F
$GTIMU,2292,546287.500,-0.0059,0.0292,-0.0015,-0.0183,-0.0048,1.0008,32.6*63
15:44::29.521,1702683887482,120.62753889,31.42733661,3478524.84996898,559664.25873712,111.21300000,6.00000000,-0.00600000,-0.01100000,-0.02100000,-0.00590000,0.02920000,-0.00150000,-0.01830000,-0.00480000,1.00080000
$GPFPD,2292,546287.600,111.213,-0.252,1.079,31.42733663,120.62753890,12.491,-0.006,-0.010,-0.021,0.797,21,18,04*70
$GTIMU,2292,546287.600,0.0093,-0.0442,0.0093,-0.0202,-0.0042,1.0003,32.6*45
15:44::29.620,1702683887582,120.62753890,31.42733663,3478524.85219201,559664.25967523,111.21300000,6.00000000,-0.00600000,-0.01000000,-0.02100000,0.00930000,-0.04420000,0.00930000,-0.02020000,-0.00420000,1.00030000
$GPFPD,2292,546287.700,111.213,-0.253,1.082,31.42733666,120.62753890,12.491,-0.005,-0.011,-0.022,0.798,21,18,04*7F
$GTIMU,2292,546287.700,-0.0172,0.0297,-0.0026,-0.0177,-0.0028,0.9979,32.6*66
15:44::29.721,1702683887682,120.62753890,31.42733666,3478524.85551840,559664.25965624,111.21300000,6.00000000,-0.00500000,-0.01100000,-0.02200000,-0.01720000,0.02970000,-0.00260000,-0.01770000,-0.00280000,0.99790000
$GPFPD,2292,546287.800,111.213,-0.252,1.083,31.42733667,120.62753890,12.491,-0.006,-0.011,-0.021,0.798,21,18,04*71
$GTIMU,2292,546287.800,0.0054,0.0036,0.0013,-0.0193,-0.0053,1.0011,32.6*6A
15:44::29.821,1702683887782,120.62753890,31.42733667,3478524.85662720,559664.25964990,111.21300000,6.00000000,-0.00600000,-0.01100000,-0.02100000,0.00540000,0.00360000,0.00130000,-0.01930000,-0.00530000,1.00110000
$GPFPD,2292,546287.900,111.213,-0.252,1.079,31.42733666,120.62753890,12.489,-0.005,-0.010,-0.021,0.800,21,18,04*71
$GTIMU,2292,546287.900,-0.0049,-0.0413,0.0065,-0.0200,-0.0030,0.9992,32.6*63
15:44::29.921,1702683887882,120.62753890,31.42733666,3478524.85551840,559664.25965624,111.21300000,6.00000000,-0.00500000,-0.01000000,-0.02100000,-0.00490000,-0.04130000,0.00650000,-0.02000000,-0.00300000,0.99920000
$GPFPD,2292,546288.000,111.213,-0.253,1.083,31.42733665,120.62753889,12.486,-0.006,-0.012,-0.022,0.800,21,18,04*75
$GTIMU,2292,546288.000,-0.0115,0.0457,-0.0049,-0.0163,-0.0036,0.9989,32.6*69
15:44::30.020,1702683887982,120.62753889,31.42733665,3478524.85440417,559664.25871179,111.21300000,6.00000000,-0.00600000,-0.01200000,-0.02200000,-0.01150000,0.04570000,-0.00490000,-0.01630000,-0.00360000,0.99890000
$GPGGA,074430.00,3125.6402376,N,12037.6530410,E,1,18,0.9,5.802,M,7.80,M,,*6D
$GPFPD,2292,546288.100,111.213,-0.251,1.080,31.42733664,120.62753889,12.484,-0.007,-0.010,-0.021,0.800,21,18,04*76
$GTIMU,2292,546288.100,0.0167,-0.0334,0.0093,-0.0207,-0.0055,1.0010,32.6*40
15:44::30.121,1702683888082,120.62753889,31.42733664,3478524.85329538,559664.25871812,111.21300000,6.00000000,-0.00700000,-0.01000000,-0.02100000,0.01670000,-0.03340000,0.00930000,-0.02070000,-0.00550000,1.00100000
$GPFPD,2292,546288.200,111.213,-0.252,1.080,31.42733663,120.62753888,12.482,-0.005,-0.011,-0.023,0.800,21,18,04*77
$GTIMU,2292,546288.200,-0.0088,-0.0044,0.0031,-0.0184,-0.0018,0.9976,32.6*62
15:44::30.221,1702683888182,120.62753888,31.42733663,3478524.85218115,559664.25777367,111.21300000,6.00000000,-0.00500000,-0.01100000,-0.02300000,-0.00880000,-0.00440000,0.00310000,-0.01840000,-0.00180000,0.99760000
$GPFPD,2292,546288.300,111.213,-0.253,1.083,31.42733664,120.62753887,12.482,-0.007,-0.009,-0.017,0.799,21,18,04*7F
$GTIMU,2292,546288.300,-0.0206,0.0326,-0.0032,-0.0180,-0.0047,1.0009,32.6*64
15:44::30.320,1702683888282,120.62753887,31.42733664,3478524.85328452,559664.25681655,111.21300000,6.00000000,-0.00700000,-0.00900000,-0.01700000,-0.02060000,0.03260000,-0.00320000,-0.01800000,-0.00470000,1.00090000
$GPFPD,2292,546288.400,111.212,-0.251,1.079,31.42733667,120.62753886,12.489,-0.007,-0.007,-0.017,0.799,21,18,04*79
$GTIMU,2292,546288.400,0.0167,-0.0413,0.0093,-0.0207,-0.0045,0.9995,32.6*4A
15:44::30.421,1702683888382,120.62753886,31.42733667,3478524.85660548,559664.25584677,111.21200000,6.00000000,-0.00700000,-0.00700000,-0.01700000,0.01670000,-0.04130000,0.00930000,-0.02070000,-0.00450000,0.99950000
$GPFPD,2292,546288.500,111.213,-0.252,1.082,31.42733671,120.62753885,12.496,-0.007,-0.009,-0.018,0.802,21,18,04*78
$GTIMU,2292,546288.500,-0.0121,0.0258,-0.0060,-0.0171,-0.0031,0.9989,32.6*6D
15:44::30.521,1702683888482,120.62753885,31.42733671,3478524.86103525,559664.25487066,111.21300000,6.00000000,-0.00700000,-0.00900000,-0.01800000,-0.01210000,0.02580000,-0.00600000,-0.01710000,-0.00310000,0.99890000
$GPFPD,2292,546288.600,111.212,-0.252,1.081,31.42733674,120.62753884,12.502,-0.007,-0.008,-0.016,0.802,21,18,04*7E
$GTIMU,2292,546288.600,0.0026,-0.0044,0.0093,-0.0192,-0.0043,1.0018,32.6*47
15:44::30.621,1702683888582,120.62753884,31.42733674,3478524.86435622,559664.25390088,111.21200000,6.00000000,-0.00700000,-0.00800000,-0.01600000,0.00260000,-0.00440000,0.00930000,-0.01920000,-0.00430000,1.00180000
$GPFPD,2292,546288.700,111.213,-0.252,1.080,31.42733678,120.62753882,12.509,-0.007,-0.007,-0.018,0.799,21,18,04*72
$GTIMU,2292,546288.700,-0.0088,-0.0152,-0.0020,-0.0199,-0.0040,0.9974,32.6*4F
15:44::30.720,1702683888682,120.62753882,31.42733678,3478524.86878055,559664.25197398,111.21300000,6.00000000,-0.00700000,-0.00700000,-0.01800000,-0.00880000,-0.01520000,-0.00200000,-0.01990000,-0.00400000,0.99740000
$GPFPD,2292,546288.800,111.213,-0.252,1.083,31.42733681,120.62753881,12.514,-0.007,-0.009,-0.017,0.799,21,18,04*76
$GTIMU,2292,546288.800,-0.0019,0.0258,-0.0021,-0.0174,-0.0039,1.0001,32.6*63
15:44::30.821,1702683888782,120.62753881,31.42733681,3478524.87210152,559664.25100420,111.21300000,6.00000000,-0.00700000,-0.00900000,-0.01700000,-0.00190000,0.02580000,-0.00210000,-0.01740000,-0.00390000,1.00010000
$GPFPD,2292,546288.900,111.212,-0.251,1.077,31.42733680,120.62753880,12.512,-0.007,-0.007,-0.017,0.802,21,18,04*7B
$GTIMU,2292,546288.900,0.0076,-0.0584,0.0110,-0.0206,-0.0042,1.0002,32.6*4A
15:44::30.921,1702683888882,120.62753880,31.42733680,3478524.87098729,559664.25005975,111.21200000,6.00000000,-0.00700000,-0.00700000,-0.01700000,0.00760000,-0.05840000,0.01100000,-0.02060000,-0.00420000,1.00020000
$GPFPD,2292,546289.000,111.213,-0.252,1.081,31.42733679,120.62753880,12.510,-0.006,-0.010,-0.018,0.802,21,18,04*74
$GTIMU,2292,546289.000,-0.0184,0.0349,-0.0060,-0.0165,-0.0020,0.9989,32.6*62
15:44::31.021,1702683888982,120.62753880,31.42733679,3478524.86987849,559664.25006608,111.21300000,6.00000000,-0.00600000,-0.01000000,-0.01800000,-0.01840000,0.03490000,-0.00600000,-0.01650000,-0.00200000,0.99890000
$GPGGA,074431.00,3125.6402427,N,12037.6530394,E,1,18,0.9,5.826,M,7.80,M,,*62
$GPFPD,2292,546289.100,111.213,-0.252,1.082,31.42733678,120.62753879,12.509,-0.007,-0.009,-0.017,0.802,21,18,04*7F
$GTIMU,2292,546289.100,0.0020,0.0121,0.0008,-0.0194,-0.0056,1.0006,32.6*67
15:44::31.121,1702683889082,120.62753879,31.42733678,3478524.86876426,559664.24912163,111.21300000,6.00000000,-0.00700000,-0.00900000,-0.01700000,0.00200000,0.01210000,0.00080000,-0.01940000,-0.00560000,1.00060000
$GPFPD,2292,546289.200,111.213,-0.251,1.078,31.42733678,120.62753878,12.507,-0.007,-0.007,-0.017,0.798,21,18,04*77
$GTIMU,2292,546289.200,0.0088,-0.0430,0.0082,-0.0202,-0.0044,0.9992,32.6*4F
15:44::31.221,1702683889182,120.62753878,31.42733678,3478524.86875883,559664.24817085,111.21300000,6.00000000,-0.00700000,-0.00700000,-0.01700000,0.00880000,-0.04300000,0.00820000,-0.02020000,-0.00440000,0.99920000
$GPFPD,2292,546289.300,111.213,-0.252,1.082,31.42733678,120.62753877,12.507,-0.008,-0.007,-0.013,0.800,21,18,04*7A
$GTIMU,2292,546289.300,-0.0161,0.0388,-0.0003,-0.0166,-0.0026,0.9988,32.6*66
15:44::31.321,1702683889282,120.62753877,31.42733678,3478524.86875340,559664.24722006,111.21300000,6.00000000,-0.00800000,-0.00700000,-0.01300000,-0.01610000,0.03880000,-0.00030000,-0.01660000,-0.00260000,0.99880000
$GPFPD,2292,546289.400,111.213,-0.251,1.079,31.42733681,120.62753876,12.515,-0.008,-0.005,-0.012,0.800,21,18,04*7D
$GTIMU,2292,546289.400,0.0082,-0.0294,0.0042,-0.0211,-0.0048,1.0007,32.6*44
15:44::31.420,1702683889382,120.62753876,31.42733681,3478524.87207437,559664.24625028,111.21300000,6.00000000,-0.00800000,-0.00500000,-0.01200000,0.00820000,-0.02940000,0.00420000,-0.02110000,-0.00480000,1.00070000
$GPFPD,2292,546289.500,111.213,-0.252,1.080,31.42733684,120.62753875,12.522,-0.007,-0.007,-0.013,0.798,21,18,04*79
$GTIMU,2292,546289.500,-0.0212,0.0076,-0.0009,-0.0171,-0.0022,0.9988,32.6*6D
15:44::31.521,1702683889482,120.62753875,31.42733684,3478524.87539533,559664.24528050,111.21300000,6.00000000,-0.00700000,-0.00700000,-0.01300000,-0.02120000,0.00760000,-0.00090000,-0.01710000,-0.00220000,0.99880000
$GPFPD,2292,546289.600,111.213,-0.252,1.081,31.42733688,120.62753874,12.530,-0.008,-0.006,-0.012,0.798,21,18,04*7A
$GTIMU,2292,546289.600,-0.0025,0.0127,0.0042,-0.0190,-0.0053,1.0000,32.6*47
15:44::31.621,1702683889582,120.62753874,31.42733688,3478524.87982510,559664.24430439,111.21300000,6.00000000,-0.00800000,-0.00600000,-0.01200000,-0.00250000,0.01270000,0.00420000,-0.01900000,-0.00530000,1.00000000
$GPFPD,2292,546289.700,111.213,-0.250,1.077,31.42733691,120.62753872,12.537,-0.008,-0.005,-0.012,0.799,21,18,04*7B
$GTIMU,2292,546289.700,0.0161,-0.0391,0.0025,-0.0204,-0.0049,0.9995,32.6*41
15:44::31.721,1702683889682,120.62753872,31.42733691,3478524.88314064,559664.24238382,111.21300000,6.00000000,-0.00800000,-0.00500000,-0.01200000,0.01610000,-0.03910000,0.00250000,-0.02040000,-0.00490000,0.99950000
$GPFPD,2292,546289.800,111.213,-0.252,1.082,31.42733693,120.62753871,12.542,-0.008,-0.007,-0.012,0.799,21,18,04*7D
$GTIMU,2292,546289.800,-0.0217,0.0451,-0.0026,-0.0165,-0.0021,0.9999,32.6*6F
15:44::31.820,1702683889782,120.62753871,31.42733693,3478524.88535281,559664.24142038,111.21300000,6.00000000,-0.00800000,-0.00700000,-0.01200000,-0.02170000,0.04510000,-0.00260000,-0.01650000,-0.00210000,0.99990000
$GPFPD,2292,546289.900,111.213,-0.252,1.078,31.42733693,120.62753870,12.541,-0.008,-0.004,-0.012,0.801,21,18,04*76
$GTIMU,2292,546289.900,0.0025,-0.0391,0.0082,-0.0215,-0.0053,0.9999,32.6*44
15:44::31.921,1702683889882,120.62753870,31.42733693,3478524.88534738,559664.24046959,111.21300000,6.00000000,-0.00800000,-0.00400000,-0.01200000,0.00250000,-0.03910000,0.00820000,-0.02150000,-0.00530000,0.99990000
$GPFPD,2292,546290.000,111.213,-0.252,1.078,31.42733692,120.62753869,12.540,-0.008,-0.007,-0.013,0.801,21,18,04*7D
$GTIMU,2292,546290.000,-0.0031,-0.0004,-0.0038,-0.0166,-0.0026,0.9982,32.6*41
15:44::32.021,1702683889982,120.62753869,31.42733692,3478524.88423315,559664.23952514,111.21300000,6.00000000,-0.00800000,-0.00700000,-0.01300000,-0.00310000,-0.00040000,-0.00380000,-0.01660000,-0.00260000,0.99820000
$GPGGA,074432.00,3125.6402385,N,12037.6530446,E,1,18,0.9,5.871,M,7.80,M,,*64
$GPFPD,2292,546290.100,111.213,-0.252,1.083,31.42733691,120.62753869,12.539,-0.008,-0.008,-0.012,0.801,21,18,04*7B
$GTIMU,2292,546290.100,-0.0047,0.0400,0.0076,-0.0183,-0.0036,1.0013,32.6*48
15:44::32.121,1702683890082,120.62753869,31.42733691,3478524.88312435,559664.23953147,111.21300000,6.00000000,-0.00800000,-0.00800000,-0.01200000,-0.00470000,0.04000000,0.00760000,-0.01830000,-0.00360000,1.00130000
$GPFPD,2292,546290.200,111.213,-0.251,1.079,31.42733691,120.62753868,12.537,-0.008,-0.004,-0.012,0.802,21,18,04*7E
$GTIMU,2292,546290.200,0.0003,-0.0339,0.0048,-0.0219,-0.0052,0.9995,32.6*46
15:44::32.220,1702683890182,120.62753868,31.42733691,3478524.88311892,559664.23858069,111.21300000,6.00000000,-0.00800000,-0.00400000,-0.01200000,0.00030000,-0.03390000,0.00480000,-0.02190000,-0.00520000,0.99950000
$GPFPD,2292,546290.300,111.213,-0.252,1.081,31.42733691,120.62753867,12.538,-0.008,-0.004,-0.009,0.799,21,18,04*7C
$GTIMU,2292,546290.300,-0.0144,0.0189,-0.0060,-0.0166,-0.0034,0.9986,32.6*62
15:44::32.320,1702683890282,120.62753867,31.42733691,3478524.88311349,559664.23762991,111.21300000,6.00000000,-0.00800000,-0.00400000,-0.00900000,-0.01440000,0.01890000,-0.00600000,-0.01660000,-0.00340000,0.99860000
$GPFPD,2292,546290.400,111.213,-0.251,1.079,31.42733694,120.62753868,12.545,-0.009,-0.004,-0.007,0.799,21,18,04*70
$GTIMU,2292,546290.400,0.0128,-0.0283,0.0099,-0.0191,-0.0045,1.0008,32.6*44
15:44::32.421,1702683890382,120.62753868,31.42733694,3478524.88644531,559664.23856169,111.21300000,6.00000000,-0.00900000,-0.00400000,-0.00700000,0.01280000,-0.02830000,0.00990000,-0.01910000,-0.00450000,1.00080000
$GPFPD,2292,546290.500,111.213,-0.251,1.079,31.42733697,120.62753868,12.553,-0.007,-0.004,-0.008,0.798,21,18,04*75
$GTIMU,2292,546290.500,-0.0071,0.0002,0.0019,-0.0193,-0.0029,0.9992,32.6*41
15:44::32.520,1702683890482,120.62753868,31.42733697,3478524.88977171,559664.23854270,111.21300000,6.00000000,-0.00700000,-0.00400000,-0.00800000,-0.00710000,0.00020000,0.00190000,-0.01930000,-0.00290000,0.99920000
$GPFPD,2292,546290.600,111.214,-0.252,1.082,31.42733700,120.62753868,12.560,-0.007,-0.005,-0.009,0.798,21,18,04*79
$GTIMU,2292,546290.600,-0.0150,0.0354,-0.0077,-0.0177,-0.0031,0.9985,32.6*60
15:44::32.621,1702683890582,120.62753868,31.42733700,3478524.89309811,559664.23852370,111.21400000,6.00000000,-0.00700000,-0.00500000,-0.00900000,-0.01500000,0.03540000,-0.00770000,-0.01770000,-0.00310000,0.99850000
$GPFPD,2292,546290.700,111.212,-0.251,1.079,31.42733703,120.62753868,12.567,-0.008,-0.003,-0.007,0.798,21,18,04*7A
$GTIMU,2292,546290.700,0.0122,-0.0385,0.0196,-0.0203,-0.0053,1.0018,32.6*4A
15:44::32.721,1702683890682,120.62753868,31.42733703,3478524.89642450,559664.23850470,111.21200000,6.00000000,-0.00800000,-0.00300000,-0.00700000,0.01220000,-0.03850000,0.01960000,-0.02030000,-0.00530000,1.00180000
$GPFPD,2292,546290.800,111.213,-0.251,1.080,31.42733705,120.62753868,12.573,-0.008,-0.004,-0.008,0.798,21,18,04*79
$GTIMU,2292,546290.800,-0.0099,0.0127,-0.0106,-0.0181,-0.0040,0.9981,32.6*60
15:44::32.820,1702683890782,120.62753868,31.42733705,3478524.89864210,559664.23849204,111.21300000,6.00000000,-0.00800000,-0.00400000,-0.00800000,-0.00990000,0.01270000,-0.01060000,-0.01810000,-0.00400000,0.99810000
$GPFPD,2292,546290.900,111.213,-0.251,1.081,31.42733704,120.62753868,12.572,-0.008,-0.005,-0.008,0.800,21,18,04*76
$GTIMU,2292,546290.900,-0.0025,0.0104,0.0014,-0.0179,-0.0034,1.0002,32.6*46
15:44::32.920,1702683890882,120.62753868,31.42733704,3478524.89753330,559664.23849837,111.21300000,6.00000000,-0.00800000,-0.00500000,-0.00800000,-0.00250000,0.01040000,0.00140000,-0.01790000,-0.00340000,1.00020000
$GPFPD,2292,546291.000,111.212,-0.251,1.078,31.42733704,120.62753867,12.571,-0.008,-0.003,-0.008,0.800,21,18,04*73
$GTIMU,2292,546291.000,0.0048,-0.0345,0.0167,-0.0208,-0.0042,0.9990,32.6*49
15:44::33.020,1702683890982,120.62753867,31.42733704,3478524.89752787,559664.23754759,111.21200000,6.00000000,-0.00800000,-0.00300000,-0.00800000,0.00480000,-0.03450000,0.01670000,-0.02080000,-0.00420000,0.99900000
$GPGGA,074433.00,3125.6402515,N,12037.6530440,E,1,18,0.9,5.852,M,7.80,M,,*6D
$GPFPD,2292,546291.100,111.213,-0.252,1.081,31.42733704,120.62753866,12.570,-0.008,-0.005,-0.009,0.800,21,18,04*71
$GTIMU,2292,546291.100,-0.0178,0.0292,-0.0140,-0.0174,-0.0030,0.9989,32.6*6C
15:44::33.121,1702683891082,120.62753866,31.42733704,3478524.89752244,559664.23659680,111.21300000,6.00000000,-0.00800000,-0.00500000,-0.00900000,-0.01780000,0.02920000,-0.01400000,-0.01740000,-0.00300000,0.99890000
$GPFPD,2292,546291.200,111.213,-0.251,1.080,31.42733703,120.62753865,12.569,-0.008,-0.004,-0.007,0.799,21,18,04*7C
$GTIMU,2292,546291.200,0.0020,-0.0078,0.0071,-0.0188,-0.0045,1.0016,32.6*4D
15:44::33.220,1702683891182,120.62753865,31.42733703,3478524.89640821,559664.23565235,111.21300000,6.00000000,-0.00800000,-0.00400000,-0.00700000,0.00200000,-0.00780000,0.00710000,-0.01880000,-0.00450000,1.00160000
$GPFPD,2292,546291.300,111.212,-0.251,1.078,31.42733704,120.62753865,12.569,-0.007,-0.000,-0.008,0.799,21,18,04*78
$GTIMU,2292,546291.300,0.0026,-0.0254,0.0122,-0.0206,-0.0035,0.9981,32.6*4C
15:44::33.321,1702683891282,120.62753865,31.42733704,3478524.89751701,559664.23564602,111.21200000,6.00000000,-0.00700000,0.00000000,-0.00800000,0.00260000,-0.02540000,0.01220000,-0.02060000,-0.00350000,0.99810000
$GPFPD,2292,546291.400,111.214,-0.253,1.080,31.42733707,120.62753865,12.571,-0.008,-0.002,-0.008,0.799,21,18,04*7B
$GTIMU,2292,546291.400,-0.0201,0.0195,-0.0237,-0.0172,-0.0042,0.9997,32.6*6F
15:44::33.421,1702683891382,120.62753865,31.42733707,3478524.90084341,559664.23562702,111.21400000,6.00000000,-0.00800000,-0.00200000,-0.00800000,-0.02010000,0.01950000,-0.02370000,-0.01720000,-0.00420000,0.99970000
$GPFPD,2292,546291.500,111.212,-0.251,1.078,31.42733710,120.62753865,12.572,-0.009,-0.002,-0.007,0.798,21,18,04*73
$GTIMU,2292,546291.500,0.0162,-0.0243,0.0236,-0.0179,-0.0051,1.0005,32.6*4F
15:44::33.521,1702683891482,120.62753865,31.42733710,3478524.90416981,559664.23560802,111.21200000,6.00000000,-0.00900000,-0.00200000,-0.00700000,0.01620000,-0.02430000,0.02360000,-0.01790000,-0.00510000,1.00050000
$GPFPD,2292,546291.600,111.212,-0.250,1.082,31.42733714,120.62753866,12.574,-0.007,-0.002,-0.007,0.798,21,18,04*7B
$GTIMU,2292,546291.600,0.0015,0.0417,0.0065,-0.0198,-0.0021,0.9991,32.6*67
15:44::33.620,1702683891582,120.62753866,31.42733714,3478524.90861043,559664.23653348,111.21200000,6.00000000,-0.00700000,-0.00200000,-0.00700000,0.00150000,0.04170000,0.00650000,-0.01980000,-0.00210000,0.99910000
$GPFPD,2292,546291.700,111.214,-0.252,1.084,31.42733717,120.62753866,12.576,-0.007,-0.002,-0.007,0.798,21,18,04*79
$GTIMU,2292,546291.700,-0.0224,0.0195,-0.0168,-0.0189,-0.0038,1.0000,32.6*64
15:44::33.721,1702683891682,120.62753866,31.42733717,3478524.91193683,559664.23651448,111.21400000,6.00000000,-0.00700000,-0.00200000,-0.00700000,-0.02240000,0.01950000,-0.01680000,-0.01890000,-0.00380000,1.00000000
$GPFPD,2292,546291.800,111.211,-0.249,1.078,31.42733719,120.62753866,12.577,-0.009,-0.001,-0.006,0.798,21,18,04*79
$GTIMU,2292,546291.800,0.0298,-0.0607,0.0264,-0.0198,-0.0054,1.0008,32.6*40
15:44::33.821,1702683891782,120.62753866,31.42733719,3478524.91415443,559664.23650181,111.21100000,6.00000000,-0.00900000,-0.00100000,-0.00600000,0.02980000,-0.06070000,0.02640000,-0.01980000,-0.00540000,1.00080000
$GPFPD,2292,546291.900,111.213,-0.250,1.081,31.42733719,120.62753865,12.576,-0.008,-0.002,-0.008,0.801,21,18,04*75
$GTIMU,2292,546291.900,-0.0127,0.0235,-0.0106,-0.0179,-0.0029,0.9975,32.6*67
15:44::33.921,1702683891882,120.62753865,31.42733719,3478524.91414900,559664.23555103,111.21300000,6.00000000,-0.00800000,-0.00200000,-0.00800000,-0.01270000,0.02350000,-0.01060000,-0.01790000,-0.00290000,0.99750000
$GPFPD,2292,546292.000,111.214,-0.248,1.082,31.42733719,120.62753865,12.575,-0.009,-0.002,-0.008,0.801,21,18,04*70
$GTIMU,2292,546292.000,0.0077,0.0098,-0.0123,-0.0181,-0.0043,1.0001,32.6*4F
15:44::34.020,1702683891982,120.62753865,31.42733719,3478524.91414900,559664.23555103,111.21400000,6.00000000,-0.00900000,-0.00200000,-0.00800000,0.00770000,0.00980000,-0.01230000,-0.01810000,-0.00430000,1.00010000
$GPGGA,074434.00,3125.6402628,N,12037.6530463,E,1,18,0.9,5.835,M,7.80,M,,*67
$GPFPD,2292,546292.100,111.212,-0.246,1.078,31.42733719,120.62753864,12.575,-0.008,-0.001,-0.005,0.801,21,18,04*72
$GTIMU,2292,546292.100,0.0213,-0.0402,0.0241,-0.0200,-0.0032,1.0017,32.6*45
15:44::34.121,1702683892082,120.62753864,31.42733719,3478524.91414357,559664.23460025,111.21200000,6.00000000,-0.00800000,-0.00100000,-0.00500000,0.02130000,-0.04020000,0.02410000,-0.02000000,-0.00320000,1.00170000
$GPFPD,2292,546292.200,111.213,-0.248,1.082,31.42733719,120.62753863,12.574,-0.008,-0.003,-0.007,0.799,21,18,04*73
$GTIMU,2292,546292.200,-0.0246,0.0400,-0.0094,-0.0172,-0.0034,0.9978,32.6*6B
15:44::34.221,1702683892182,120.62753863,31.42733719,3478524.91413814,559664.23364946,111.21300000,6.00000000,-0.00800000,-0.00300000,-0.00700000,-0.02460000,0.04000000,-0.00940000,-0.01720000,-0.00340000,0.99780000
$GPFPD,2292,546292.300,111.214,-0.246,1.082,31.42733720,120.62753862,12.572,-0.010,0.003,-0.010,0.799,21,18,04*54
$GTIMU,2292,546292.300,0.0219,-0.0033,0.0024,-0.0199,-0.0056,1.0006,32.6*4B
15:44::34.320,1702683892282,120.62753862,31.42733720,3478524.91524151,559664.23269235,111.21400000,6.00000000,-0.01000000,0.00300000,-0.01000000,0.02190000,-0.00330000,0.00240000,-0.01990000,-0.00560000,1.00060000
$GPFPD,2292,546292.400,111.212,-0.245,1.081,31.42733726,120.62753860,12.566,-0.009,0.003,-0.010,0.799,21,18,04*5C
$GTIMU,2292,546292.400,0.0032,-0.0067,0.0156,-0.0192,-0.0030,0.9993,32.6*44
15:44::34.421,1702683892382,120.62753860,31.42733726,3478524.92188344,559664.23075279,111.21200000,6.00000000,-0.00900000,0.00300000,-0.01000000,0.00320000,-0.00670000,0.01560000,-0.01920000,-0.00300000,0.99930000
$GPFPD,2292,546292.500,111.214,-0.246,1.083,31.42733731,120.62753859,12.560,-0.009,0.002,-0.011,0.800,21,18,04*5F
$GTIMU,2292,546292.500,-0.0167,0.0201,-0.0100,-0.0182,-0.0029,0.9992,32.6*60
15:44::34.521,1702683892482,120.62753859,31.42733731,3478524.92742200,559664.22977034,111.21400000,6.00000000,-0.00900000,0.00200000,-0.01100000,-0.01670000,0.02010000,-0.01000000,-0.01820000,-0.00290000,0.99920000
$GPFPD,2292,546292.600,111.214,-0.244,1.077,31.42733737,120.62753857,12.555,-0.010,0.003,-0.010,0.800,21,18,04*53
$GTIMU,2292,546292.600,0.0212,-0.0624,0.0019,-0.0202,-0.0053,1.0005,32.6*4C
15:44::34.621,1702683892582,120.62753857,31.42733737,3478524.93406394,559664.22783078,111.21400000,6.00000000,-0.01000000,0.00300000,-0.01000000,0.02120000,-0.06240000,0.00190000,-0.02020000,-0.00530000,1.00050000
$GPFPD,2292,546292.700,111.213,-0.245,1.081,31.42733743,120.62753855,12.549,-0.009,0.001,-0.011,0.797,21,18,04*5B
$GTIMU,2292,546292.700,-0.0195,0.0400,0.0060,-0.0166,-0.0020,0.9985,32.6*47
15:44::34.720,1702683892682,120.62753855,31.42733743,3478524.94070587,559664.22589122,111.21300000,6.00000000,-0.00900000,0.00100000,-0.01100000,-0.01950000,0.04000000,0.00600000,-0.01660000,-0.00200000,0.99850000
$GPFPD,2292,546292.800,111.214,-0.246,1.082,31.42733747,120.62753854,12.544,-0.009,0.002,-0.010,0.797,21,18,04*59
$GTIMU,2292,546292.800,-0.0093,0.0081,-0.0020,-0.0202,-0.0045,1.0003,32.6*66
15:44::34.820,1702683892782,120.62753854,31.42733747,3478524.94513564,559664.22491510,111.21400000,6.00000000,-0.00900000,0.00200000,-0.01000000,-0.00930000,0.00810000,-0.00200000,-0.02020000,-0.00450000,1.00030000
$GPFPD,2292,546292.900,111.213,-0.244,1.078,31.42733747,120.62753853,12.543,-0.011,0.004,-0.011,0.798,21,18,04*59
$GTIMU,2292,546292.900,0.0173,-0.0402,0.0064,-0.0195,-0.0056,0.9987,32.6*48
15:44::34.921,1702683892882,120.62753853,31.42733747,3478524.94513021,559664.22396432,111.21300000,6.00000000,-0.01100000,0.00400000,-0.01100000,0.01730000,-0.04020000,0.00640000,-0.01950000,-0.00560000,0.99870000
$GPFPD,2292,546293.000,111.213,-0.245,1.083,31.42733748,120.62753852,12.542,-0.010,0.001,-0.011,0.798,21,18,04*5F
$GTIMU,2292,546293.000,-0.0189,0.0434,0.0003,-0.0169,-0.0019,1.0000,32.6*47
15:44::35.021,1702683892982,120.62753852,31.42733748,3478524.94623358,559664.22300721,111.21300000,6.00000000,-0.01000000,0.00100000,-0.01100000,-0.01890000,0.04340000,0.00030000,-0.01690000,-0.00190000,1.00000000
$GPFPD,2292,54629$GPGGA,073.100,1114435.00,3.213,-0.2125.640245,1.079,588,N,1231.4273374037.653048,120.62764,E,1,1853851,12.,0.9,5.86541,-0.001,M,7.80,M9,0.002,,,*69
-0.010,0.798,21,18,04*51
$GTIMU,2292,546293.100,0.0037,-0.0385,0.0036,-0.0205,-0.0033,1.0005,32.6*4D
15:44::35.120,1702683893082,120.62753851,31.42733748,3478524.94622815,559664.22205642,111.21300000,6.00000000,-0.00900000,0.00200000,-0.01000000,0.00370000,-0.03850000,0.00360000,-0.02050000,-0.00330000,1.00050000
$GPFPD,2292,546293.200,111.213,-0.245,1.079,31.42733748,120.62753850,12.540,-0.008,0.002,-0.011,0.796,21,18,04*5C
$GTIMU,2292,546293.200,-0.0099,0.0025,-0.0003,-0.0180,-0.0030,0.9986,32.6*6F
15:44::35.221,1702683893182,120.62753850,31.42733748,3478524.94622272,559664.22110564,111.21300000,6.00000000,-0.00800000,0.00200000,-0.01100000,-0.00990000,0.00250000,-0.00030000,-0.01800000,-0.00300000,0.99860000
$GPFPD,2292,546293.300,111.214,-0.246,1.083,31.42733748,120.62753850,12.538,-0.010,0.002,-0.014,0.795,21,18,04*5C
$GTIMU,2292,546293.300,-0.0121,0.0314,0.0014,-0.0181,-0.0054,0.9998,32.6*4A
15:44::35.321,1702683893282,120.62753850,31.42733748,3478524.94622272,559664.22110564,111.21400000,6.00000000,-0.01000000,0.00200000,-0.01400000,-0.01210000,0.03140000,0.00140000,-0.01810000,-0.00540000,0.99980000
$GPFPD,2292,546293.400,111.213,-0.244,1.078,31.42733749,120.62753850,12.532,-0.010,0.004,-0.013,0.795,21,18,04*50
$GTIMU,2292,546293.400,0.0190,-0.0493,0.0093,-0.0205,-0.0049,1.0006,32.6*45
15:44::35.421,1702683893382,120.62753850,31.42733749,3478524.94733152,559664.22109931,111.21300000,6.00000000,-0.01000000,0.00400000,-0.01300000,0.01900000,-0.04930000,0.00930000,-0.02050000,-0.00490000,1.00060000
$GPFPD,2292,546293.500,111.214,-0.245,1.081,31.42733750,120.62753851,12.527,-0.009,0.001,-0.015,0.798,21,18,04*5A
$GTIMU,2292,546293.500,-0.0172,0.0343,-0.0020,-0.0169,-0.0019,0.9983,32.6*67
15:44::35.520,1702683893482,120.62753851,31.42733750,3478524.94844574,559664.22204376,111.21400000,6.00000000,-0.00900000,0.00100000,-0.01500000,-0.01720000,0.03430000,-0.00200000,-0.01690000,-0.00190000,0.99830000
$GPFPD,2292,546293.600,111.214,-0.246,1.082,31.42733751,120.62753852,12.521,-0.009,0.002,-0.014,0.798,21,18,04*5F
$GTIMU,2292,546293.600,-0.0059,0.0042,0.0025,-0.0197,-0.0045,1.0008,32.6*4C
15:44::35.621,1702683893582,120.62753852,31.42733751,3478524.94955997,559664.22298821,111.21400000,6.00000000,-0.00900000,0.00200000,-0.01400000,-0.00590000,0.00420000,0.00250000,-0.01970000,-0.00450000,1.00080000
$GPFPD,2292,546293.700,111.214,-0.245,1.078,31.42733752,120.62753853,12.516,-0.008,0.003,-0.014,0.797,21,18,04*51
$GTIMU,2292,546293.700,-0.0003,-0.0391,0.0048,-0.0199,-0.0031,0.9991,32.6*65
15:44::35.721,1702683893682,120.62753853,31.42733752,3478524.95067420,559664.22393266,111.21400000,6.00000000,-0.00800000,0.00300000,-0.01400000,-0.00030000,-0.03910000,0.00480000,-0.01990000,-0.00310000,0.99910000
$GPFPD,2292,546293.800,111.214,-0.247,1.083,31.42733753,120.62753853,12.511,-0.009,0.001,-0.015,0.797,21,18,04*5C
$GTIMU,2292,546293.800,-0.0161,0.0457,-0.0049,-0.0166,-0.0040,0.9993,32.6*67
15:44::35.820,1702683893782,120.62753853,31.42733753,3478524.95178300,559664.22392633,111.21400000,6.00000000,-0.00900000,0.00100000,-0.01500000,-0.01610000,0.04570000,-0.00490000,-0.01660000,-0.00400000,0.99930000
$GPFPD,2292,546293.900,111.214,-0.245,1.079,31.42733753,120.62753852,12.510,-0.009,0.003,-0.013,0.797,21,18,04*5E
$GTIMU,2292,546293.900,0.0173,-0.0408,0.0093,-0.0208,-0.0045,1.0010,32.6*41
15:44::35.921,1702683893882,120.62753852,31.42733753,3478524.95177757,559664.22297554,111.21400000,6.00000000,-0.00900000,0.00300000,-0.01300000,0.01730000,-0.04080000,0.00930000,-0.02080000,-0.00450000,1.00100000
$GPFPD,2292,546294.000,111.214,-0.246,1.081,31.42733753,120.62753851,12.509,-0.010,0.002,-0.015,0.797,21,18,04*50
$GTIMU,2292,546294.000,-0.0167,0.0235,0.0008,-0.0175,-0.0034,0.9980,32.6*47
15:44::36.021,1702683893982,120.62753851,31.42733753,3478524.95177214,559664.22202476,111.21400000,6.00000000,-0.01000000,0.00200000,-0.01500000,-0.01670000,0.02350000,0.00080000,-0.01750000,-0.00340000,0.99800000
$GPGGA,074436.00,3125.6402628,N,12037.6530532,E,1,18,0.9,5.889,M,7.80,M,,*67
$GPFPD,2292,546294.100,111.214,-0.246,1.082,31.42733753,120.62753850,12.507,-0.009,0.002,-0.014,0.797,21,18,04*54
$GTIMU,2292,546294.100,-0.0014,0.0064,0.0002,-0.0195,-0.0037,1.0002,32.6*49
15:44::36.121,1702683894082,120.62753850,31.42733753,3478524.95176671,559664.22107398,111.21400000,6.00000000,-0.00900000,0.00200000,-0.01400000,-0.00140000,0.00640000,0.00020000,-0.01950000,-0.00370000,1.00020000
$GPFPD,2292,546294.200,111.213,-0.244,1.077,31.42733753,120.62753849,12.506,-0.009,0.003,-0.014,0.796,21,18,04*51
$GTIMU,2292,546294.200,0.0093,-0.0493,0.0065,-0.0198,-0.0038,1.0000,32.6*48
15:44::36.220,1702683894182,120.62753849,31.42733753,3478524.95176128,559664.22012319,111.21300000,6.00000000,-0.00900000,0.00300000,-0.01400000,0.00930000,-0.04930000,0.00650000,-0.01980000,-0.00380000,1.00000000
$GPFPD,2292,546294.300,111.214,-0.247,1.082,31.42733753,120.62753849,12.503,-0.007,-0.001,-0.019,0.798,21,18,04*79
$GTIMU,2292,546294.300,-0.0263,0.0468,-0.0020,-0.0169,-0.0021,0.9985,32.6*66
15:44::36.321,1702683894282,120.62753849,31.42733753,3478524.95176128,559664.22012319,111.21400000,6.00000000,-0.00700000,-0.00100000,-0.01900000,-0.02630000,0.04680000,-0.00200000,-0.01690000,-0.00210000,0.99850000
$GPFPD,2292,546294.400,111.214,-0.246,1.081,31.42733750,120.62753852,12.498,-0.008,0.001,-0.017,0.798,21,18,04*5A
$GTIMU,2292,546294.400,0.0043,-0.0157,0.0031,-0.0203,-0.0057,1.0012,32.6*44
15:44::36.421,1702683894382,120.62753852,31.42733750,3478524.94845117,559664.22299454,111.21400000,6.00000000,-0.00800000,0.00100000,-0.01700000,0.00430000,-0.01570000,0.00310000,-0.02030000,-0.00570000,1.00120000
$GPFPD,2292,546294.500,111.214,-0.246,1.079,31.42733748,120.62753855,12.493,-0.008,0.001,-0.018,0.798,21,18,04*56
$GTIMU,2292,546294.500,-0.0031,-0.0163,0.0042,-0.0185,-0.0040,0.9990,32.6*6E
15:44::36.521,1702683894482,120.62753855,31.42733748,3478524.94624987,559664.22585956,111.21400000,6.00000000,-0.00800000,0.00100000,-0.01800000,-0.00310000,-0.01630000,0.00420000,-0.01850000,-0.00400000,0.99900000
$GPFPD,2292,546294.600,111.214,-0.247,1.084,31.42733745,120.62753858,12.488,-0.008,-0.001,-0.018,0.798,21,18,04*71
$GTIMU,2292,546294.600,-0.0087,0.0457,-0.0009,-0.0174,-0.0034,0.9994,32.6*64
15:44::36.621,1702683894582,120.62753858,31.42733745,3478524.94293976,559664.22873090,111.21400000,6.00000000,-0.00800000,-0.00100000,-0.01800000,-0.00870000,0.04570000,-0.00090000,-0.01740000,-0.00340000,0.99940000
$GPFPD,2292,546294.700,111.214,-0.245,1.080,31.42733743,120.62753861,12.482,-0.008,0.001,-0.016,0.797,21,18,04*5C
$GTIMU,2292,546294.700,0.0156,-0.0396,0.0076,-0.0211,-0.0046,1.0013,32.6*4C
15:44::36.721,1702683894682,120.62753861,31.42733743,3478524.94073845,559664.23159592,111.21400000,6.00000000,-0.00800000,0.00100000,-0.01600000,0.01560000,-0.03960000,0.00760000,-0.02110000,-0.00460000,1.00130000
$GPFPD,2292,546294.800,111.214,-0.246,1.081,31.42733741,120.62753863,12.478,-0.007,0.000,-0.018,0.797,21,18,04*54
$GTIMU,2292,546294.800,-0.0127,0.0019,-0.0003,-0.0185,-0.0018,0.9974,32.6*6B
15:44::36.821,1702683894782,120.62753863,31.42733741,3478524.93853172,559664.23351015,111.21400000,6.00000000,-0.00700000,0.00000000,-0.01800000,-0.01270000,0.00190000,-0.00030000,-0.01850000,-0.00180000,0.99740000
$GPFPD,2292,546294.900,111.214,-0.247,1.082,31.42733741,120.62753863,12.476,-0.008,0.000,-0.018,0.798,21,18,04*59
$GTIMU,2292,546294.900,-0.0133,0.0116,-0.0015,-0.0179,-0.0049,1.0004,32.6*67
15:44::36.921,1702683894882,120.62753863,31.42733741,3478524.93853172,559664.23351015,111.21400000,6.00000000,-0.00800000,0.00000000,-0.01800000,-0.01330000,0.01160000,-0.00150000,-0.01790000,-0.00490000,1.00040000
$GPFPD,2292,546295.000,111.214,-0.245,1.077,31.42733741,120.62753862,12.474,-0.008,0.001,-0.017,0.798,21,18,04*54
$GTIMU,2292,546295.000,0.0161,-0.0521,0.0059,-0.0203,-0.0042,0.9998,32.6*4C
15:44::37.020,1702683894982,120.62753862,31.42733741,3478524.93852629,559664.23255937,111.21400000,6.00000000,-0.00800000,0.00100000,-0.01700000,0.01610000,-0.05210000,0.00590000,-0.02030000,-0.00420000,0.99980000
$GPFPD,2292,546295$GPGGA,07.100,111.4437.00,3215,-0.24125.640265,1.082,382,N,12031.42733747.65305221,120.627,E,1,18,053861,12..9,5.927,473,-0.00M,7.80,M,8,-0.001,,*62
-0.018,0.798,21,18,04*78
$GTIMU,2292,546295.100,-0.0093,0.0474,-0.0077,-0.0162,-0.0029,0.9992,32.6*62
15:44::37.121,1702683895082,120.62753861,31.42733741,3478524.93852086,559664.23160858,111.21500000,6.00000000,-0.00800000,-0.00100000,-0.01800000,-0.00930000,0.04740000,-0.00770000,-0.01620000,-0.00290000,0.99920000
$GPFPD,2292,546295.200,111.214,-0.246,1.080,31.42733741,120.62753860,12.471,-0.008,0.001,-0.016,0.797,21,18,04*54
$GTIMU,2292,546295.200,-0.0071,-0.0192,0.0116,-0.0209,-0.0042,1.0014,32.6*6A
15:44::37.221,1702683895182,120.62753860,31.42733741,3478524.93851543,559664.23065780,111.21400000,6.00000000,-0.00800000,0.00100000,-0.01600000,-0.00710000,-0.01920000,0.01160000,-0.02090000,-0.00420000,1.00140000
$GPFPD,2292,546295.300,111.215,-0.246,1.079,31.42733740,120.62753861,12.468,-0.004,-0.002,-0.022,0.797,21,18,04*7F
$GTIMU,2292,546295.300,-0.0065,-0.0135,0.0019,-0.0192,-0.0036,0.9969,32.6*64
15:44::37.321,1702683895282,120.62753861,31.42733740,3478524.93741206,559664.23161492,111.21500000,6.00000000,-0.00400000,-0.00200000,-0.02200000,-0.00650000,-0.01350000,0.00190000,-0.01920000,-0.00360000,0.99690000
$GPFPD,2292,546295.400,111.216,-0.246,1.081,31.42733736,120.62753868,12.463,-0.005,-0.003,-0.022,0.797,21,18,04*7F
$GTIMU,2292,546295.400,-0.0059,0.0252,-0.0100,-0.0172,-0.0043,1.0002,32.6*67
15:44::37.420,1702683895382,120.62753868,31.42733736,3478524.93301487,559664.23829573,111.21600000,6.00000000,-0.00500000,-0.00300000,-0.02200000,-0.00590000,0.02520000,-0.01000000,-0.01720000,-0.00430000,1.00020000
$GPFPD,2292,546295.500,111.214,-0.245,1.077,31.42733732,120.62753874,12.458,-0.005,-0.002,-0.020,0.795,21,18,04*76
$GTIMU,2292,546295.500,0.0145,-0.0414,0.0179,-0.0197,-0.0047,1.0015,32.6*44
15:44::37.521,1702683895482,120.62753874,31.42733732,3478524.92861225,559664.24402576,111.21400000,6.00000000,-0.00500000,-0.00200000,-0.02000000,0.01450000,-0.04140000,0.01790000,-0.01970000,-0.00470000,1.00150000
$GPFPD,2292,546295.600,111.215,-0.247,1.082,31.42733728,120.62753881,12.453,-0.004,-0.004,-0.022,0.795,21,18,04*73
$GTIMU,2292,546295.600,-0.0240,0.0479,-0.0020,-0.0180,-0.0015,0.9974,32.6*6D
15:44::37.621,1702683895582,120.62753881,31.42733728,3478524.92421507,559664.25070657,111.21500000,6.00000000,-0.00400000,-0.00400000,-0.02200000,-0.02400000,0.04790000,-0.00200000,-0.01800000,-0.00150000,0.99740000
$GPFPD,2292,546295.700,111.216,-0.246,1.083,31.42733725,120.62753887,12.448,-0.004,-0.002,-0.022,0.796,21,18,04*75
$GTIMU,2292,546295.700,0.0031,0.0081,-0.0072,-0.0200,-0.0051,1.0002,32.6*4A
15:44::37.721,1702683895682,120.62753887,31.42733725,3478524.92092125,559664.25643027,111.21600000,6.00000000,-0.00400000,-0.00200000,-0.02200000,0.00310000,0.00810000,-0.00720000,-0.02000000,-0.00510000,1.00020000
$GPFPD,2292,546295.800,111.214,-0.244,1.077,31.42733722,120.62753892,12.444,-0.004,-0.001,-0.021,0.796,21,18,04*7E
$GTIMU,2292,546295.800,0.0139,-0.0595,0.0150,-0.0200,-0.0041,1.0002,32.6*4C
15:44::37.821,1702683895782,120.62753892,31.42733722,3478524.91762201,559664.26120319,111.21400000,6.00000000,-0.00400000,-0.00100000,-0.02100000,0.01390000,-0.05950000,0.01500000,-0.02000000,-0.00410000,1.00020000
$GPFPD,2292,546295.900,111.215,-0.246,1.081,31.42733721,120.62753892,12.442,-0.005,-0.003,-0.022,0.798,21,19,04*7F
$GTIMU,2292,546295.900,-0.0240,0.0400,-0.0077,-0.0163,-0.0034,0.9986,32.6*6D
15:44::37.921,1702683895882,120.62753892,31.42733721,3478524.91651321,559664.26120952,111.21500000,6.00000000,-0.00500000,-0.00300000,-0.02200000,-0.02400000,0.04000000,-0.00770000,-0.01630000,-0.00340000,0.99860000
$GPFPD,2292,546296.000,111.215,-0.245,1.080,31.42733721,120.62753891,12.440,-0.005,-0.002,-0.021,0.798,21,19,04*74
$GTIMU,2292,546296.000,0.0116,-0.0175,0.0042,-0.0201,-0.0042,1.0011,32.6*42
15:44::38.021,1702683895982,120.62753891,31.42733721,3478524.91650778,559664.26025873,111.21500000,6.00000000,-0.00500000,-0.00200000,-0.02100000,0.01160000,-0.01750000,0.00420000,-0.02010000,-0.00420000,1.00110000
$GPGGA,074438.00,3125.6402732,N,12037.6530577,E,1,19,0.8,6.062,M,7.80,M,,*6C
$GPFPD,2292,546296.100,111.214,-0.245,1.079,31.42733721,120.62753891,12.438,-0.003,-0.003,-0.022,0.798,21,19,04*79
$GTIMU,2292,546296.100,-0.0065,-0.0129,0.0105,-0.0189,-0.0024,0.9986,32.6*6C
15:44::38.120,1702683896082,120.62753891,31.42733721,3478524.91650778,559664.26025873,111.21400000,6.00000000,-0.00300000,-0.00300000,-0.02200000,-0.00650000,-0.01290000,0.01050000,-0.01890000,-0.00240000,0.99860000
$GPFPD,2292,546296.200,111.215,-0.247,1.083,31.42733721,120.62753890,12.436,-0.004,-0.004,-0.022,0.800,21,19,04*7D
$GTIMU,2292,546296.200,-0.0257,0.0394,-0.0071,-0.0178,-0.0038,0.9996,32.6*68
15:44::38.221,1702683896182,120.62753890,31.42733721,3478524.91650235,559664.25930795,111.21500000,6.00000000,-0.00400000,-0.00400000,-0.02200000,-0.02570000,0.03940000,-0.00710000,-0.01780000,-0.00380000,0.99960000
$GPFPD,2292,546296.300,111.215,-0.245,1.079,31.42733721,120.62753891,12.436,-0.003,-0.001,-0.017,0.796,21,19,04*7E
$GTIMU,2292,546296.300,0.0201,-0.0396,0.0099,-0.0202,-0.0053,1.0006,32.6*48
15:44::38.321,1702683896282,120.62753891,31.42733721,3478524.91650778,559664.26025873,111.21500000,6.00000000,-0.00300000,-0.00100000,-0.01700000,0.02010000,-0.03960000,0.00990000,-0.02020000,-0.00530000,1.00060000
$GPFPD,2292,546296.400,111.215,-0.246,1.082,31.42733722,120.62753894,12.443,-0.003,-0.002,-0.018,0.796,21,19,04*76
$GTIMU,2292,546296.400,-0.0138,0.0320,0.0025,-0.0174,-0.0029,0.9987,32.6*4B
15:44::38.420,1702683896382,120.62753894,31.42733722,3478524.91763287,559664.26310475,111.21500000,6.00000000,-0.00300000,-0.00200000,-0.01800000,-0.01380000,0.03200000,0.00250000,-0.01740000,-0.00290000,0.99870000
$GPFPD,2292,546296.500,111.215,-0.246,1.084,31.42733724,120.62753896,12.451,-0.003,-0.002,-0.017,0.796,21,19,04*79
$GTIMU,2292,546296.500,-0.0036,0.0121,-0.0038,-0.0197,-0.0043,1.0004,32.6*6C
15:44::38.521,1702683896482,120.62753896,31.42733724,3478524.91986132,559664.26499365,111.21500000,6.00000000,-0.00300000,-0.00200000,-0.01700000,-0.00360000,0.01210000,-0.00380000,-0.01970000,-0.00430000,1.00040000
$GPFPD,2292,546296.600,111.215,-0.245,1.079,31.42733726,120.62753899,12.458,-0.003,-0.001,-0.018,0.796,21,19,04*73
$GTIMU,2292,546296.600,0.0036,-0.0459,0.0065,-0.0200,-0.0036,0.9992,32.6*41
15:44::38.621,1702683896582,120.62753899,31.42733726,3478524.92209521,559664.26783334,111.21500000,6.00000000,-0.00300000,-0.00100000,-0.01800000,0.00360000,-0.04590000,0.00650000,-0.02000000,-0.00360000,0.99920000
$GPFPD,2292,546296.700,111.215,-0.247,1.083,31.42733727,120.62753902,12.465,-0.003,-0.003,-0.018,0.795,21,19,04*78
$GTIMU,2292,546296.700,-0.0166,0.0405,-0.0032,-0.0167,-0.0030,0.9994,32.6*60
15:44::38.721,1702683896682,120.62753902,31.42733727,3478524.92322030,559664.27067936,111.21500000,6.00000000,-0.00300000,-0.00300000,-0.01800000,-0.01660000,0.04050000,-0.00320000,-0.01670000,-0.00300000,0.99940000
$GPFPD,2292,546296.800,111.215,-0.245,1.080,31.42733728,120.62753904,12.470,-0.003,-0.001,-0.017,0.795,21,19,04*76
$GTIMU,2292,546296.800,0.0133,-0.0345,0.0082,-0.0205,-0.0048,1.0005,32.6*4B
15:44::38.821,1702683896782,120.62753904,31.42733728,3478524.92433996,559664.27257459,111.21500000,6.00000000,-0.00300000,-0.00100000,-0.01700000,0.01330000,-0.03450000,0.00820000,-0.02050000,-0.00480000,1.00050000
$GPFPD,2292,546296.900,111.215,-0.246,1.082,31.42733728,120.62753904,12.468,-0.002,-0.002,-0.018,0.796,21,19,04*71
$GTIMU,2292,546296.900,-0.0121,0.0161,-0.0009,-0.0180,-0.0022,0.9988,32.6*65
15:44::38.921,1702683896882,120.62753904,31.42733728,3478524.92433996,559664.27257459,111.21500000,6.00000000,-0.00200000,-0.00200000,-0.01800000,-0.01210000,0.01610000,-0.00090000,-0.01800000,-0.00220000,0.99880000
$GPFPD,2292,546297.000,111.215,-0.247,1.083,31.42733728,120.62753903,12.467,-0.004,-0.002,-0.017,0.796,21,19,04*78
$GTIMU,2292,546297.000,-0.0127,0.0144,-0.0003,-0.0188,-0.0053,1.0004,32.6*6D
15:44::39.021,1702683896982,120.62753903,31.42733728,3478524.92433453,559664.27162381,111.21500000,6.00000000,-0.00400000,-0.00200000,-0.01700000,-0.01270000,0.01440000,-0.00030000,-0.01880000,-0.00530000,1.00040000
$GPFPD,2292,546297$GPGGA,07.100,111.4439.00,3215,-0.24125.640525,1.077,25,N,12031.42733737.6528328,120.656,E,1,192753903,1,0.8,8.12.465,-0.61,M,7.80003,-0.00,M,,*69
0,-0.018,0.796,21,19,04*78
$GTIMU,2292,546297.100,0.0155,-0.0601,0.0076,-0.0206,-0.0041,0.9992,32.6*48
15:44::39.121,1702683897082,120.62753903,31.42733728,3478524.92433453,559664.27162381,111.21500000,6.00000000,-0.00300000,0.00000000,-0.01800000,0.01550000,-0.06010000,0.00760000,-0.02060000,-0.00410000,0.99920000
$GPFPD,2292,546297.200,111.216,-0.246,1.081,31.42733728,120.62753903,12.463,-0.003,-0.003,-0.018,0.797,21,19,04*76
$GTIMU,2292,546297.200,-0.0150,0.0383,-0.0077,-0.0165,-0.0031,0.9991,32.6*6F
15:44::39.220,1702683897182,120.62753903,31.42733728,3478524.92433453,559664.27162381,111.21600000,6.00000000,-0.00300000,-0.00300000,-0.01800000,-0.01500000,0.03830000,-0.00770000,-0.01650000,-0.00310000,0.99910000
$GPFPD,2292,546297.300,111.215,-0.245,1.079,31.42733729,120.62753902,12.462,-0.002,0.000,-0.019,0.796,21,19,04*5E
$GTIMU,2292,546297.300,0.0071,-0.0277,0.0110,-0.0202,-0.0036,1.0007,32.6*40
15:44::39.321,1702683897282,120.62753902,31.42733729,3478524.92543790,559664.27066669,111.21500000,6.00000000,-0.00200000,0.00000000,-0.01900000,0.00710000,-0.02770000,0.01100000,-0.02020000,-0.00360000,1.00070000
$GPFPD,2292,546297.400,111.216,-0.247,1.080,31.42733734,120.62753902,12.464,-0.001,-0.001,-0.020,0.796,21,19,04*71
$GTIMU,2292,546297.400,-0.0190,0.0150,-0.0020,-0.0183,-0.0032,0.9992,32.6*63
15:44::39.421,1702683897382,120.62753902,31.42733734,3478524.93098189,559664.27063503,111.21600000,6.00000000,-0.00100000,-0.00100000,-0.02000000,-0.01900000,0.01500000,-0.00200000,-0.01830000,-0.00320000,0.99920000
$GPFPD,2292,546297.500,111.216,-0.248,1.083,31.42733739,120.62753902,12.465,-0.002,-0.001,-0.020,0.797,21,19,04*72
$GTIMU,2292,546297.500,-0.0121,0.0269,-0.0043,-0.0178,-0.0046,0.9993,32.6*62
15:44::39.521,1702683897482,120.62753902,31.42733739,3478524.93652589,559664.27060337,111.21600000,6.00000000,-0.00200000,-0.00100000,-0.02000000,-0.01210000,0.02690000,-0.00430000,-0.01780000,-0.00460000,0.99930000
$GPFPD,2292,546297.600,111.215,-0.245,1.080,31.42733744,120.62753902,12.467,-0.003,0.001,-0.020,0.797,21,19,04*58
$GTIMU,2292,546297.600,0.0219,-0.0294,0.0201,-0.0208,-0.0051,1.0000,32.6*4B
15:44::39.620,1702683897582,120.62753902,31.42733744,3478524.94206988,559664.27057170,111.21500000,6.00000000,-0.00300000,0.00100000,-0.02000000,0.02190000,-0.02940000,0.02010000,-0.02080000,-0.00510000,1.00000000
$GPFPD,2292,546297.700,111.216,-0.247,1.085,31.42733749,120.62753901,12.468,-0.001,-0.001,-0.020,0.796,21,19,04*72
$GTIMU,2292,546297.700,-0.0252,0.0406,-0.0106,-0.0180,-0.0017,0.9990,32.6*68
15:44::39.721,1702683897682,120.62753901,31.42733749,3478524.94760845,559664.26958926,111.21600000,6.00000000,-0.00100000,-0.00100000,-0.02000000,-0.02520000,0.04060000,-0.01060000,-0.01800000,-0.00170000,0.99900000
$GPFPD,2292,546297.800,111.215,-0.247,1.082,31.42733753,120.62753901,12.469,-0.002,-0.001,-0.019,0.796,21,19,04*7A
$GTIMU,2292,546297.800,-0.0026,-0.0271,0.0071,-0.0188,-0.0040,1.0010,32.6*62
15:44::39.821,1702683897782,120.62753901,31.42733753,3478524.95204364,559664.26956393,111.21500000,6.00000000,-0.00200000,-0.00100000,-0.01900000,-0.00260000,-0.02710000,0.00710000,-0.01880000,-0.00400000,1.00100000
$GPFPD,2292,546297.900,111.215,-0.247,1.082,31.42733753,120.62753901,12.467,-0.001,-0.001,-0.020,0.794,21,19,04*7E
$GTIMU,2292,546297.900,-0.0065,0.0002,0.0105,-0.0189,-0.0033,0.9986,32.6*46
15:44::39.920,1702683897882,120.62753901,31.42733753,3478524.95204364,559664.26956393,111.21500000,6.00000000,-0.00100000,-0.00100000,-0.02000000,-0.00650000,0.00020000,0.01050000,-0.01890000,-0.00330000,0.99860000
$GPFPD,2292,546298.000,111.216,-0.248,1.087,31.42733753,120.62753901,12.465,-0.003,-0.001,-0.021,0.794,21,19,04*70
$GTIMU,2292,546298.000,-0.0104,0.0485,-0.0112,-0.0179,-0.0050,0.9994,32.6*6F
15:44::40.021,1702683897982,120.62753901,31.42733753,3478524.95204364,559664.26956393,111.21600000,6.00000000,-0.00300000,-0.00100000,-0.02100000,-0.01040000,0.04850000,-0.01120000,-0.01790000,-0.00500000,0.99940000
$GPGGA,074440.00,3125.6407665,N,12037.6526110,E,1,19,0.8,10.278,M,7.80,M,,*59
$GPFPD,2292,546298.100,111.215,-0.245,1.082,31.42733753,120.62753901,12.463,-0.003,0.001,-0.019,0.794,21,19,04*5A
$GTIMU,2292,546298.100,0.0230,-0.0482,0.0104,-0.0214,-0.0047,1.0009,32.6*4C
15:44::40.121,1702683898082,120.62753901,31.42733753,3478524.95204364,559664.26956393,111.21500000,6.00000000,-0.00300000,0.00100000,-0.01900000,0.02300000,-0.04820000,0.01040000,-0.02140000,-0.00470000,1.00090000
$GPFPD,2292,546298.200,111.216,-0.246,1.083,31.42733753,120.62753900,12.461,-0.002,-0.000,-0.021,0.797,21,19,04*7E
$GTIMU,2292,546298.200,-0.0122,0.0076,-0.0026,-0.0176,-0.0023,0.9984,32.6*6D
15:44::40.221,1702683898182,120.62753900,31.42733753,3478524.95203821,559664.26861315,111.21600000,6.00000000,-0.00200000,0.00000000,-0.02100000,-0.01220000,0.00760000,-0.00260000,-0.01760000,-0.00230000,0.99840000
$GPFPD,2292,546298.300,111.216,-0.246,1.085,31.42733755,120.62753898,12.462,-0.004,0.000,-0.016,0.798,21,19,04*5C
$GTIMU,2292,546298.300,-0.0025,0.0132,0.0002,-0.0181,-0.0046,1.0001,32.6*47
15:44::40.320,1702683898282,120.62753898,31.42733755,3478524.95424495,559664.26669891,111.21600000,6.00000000,-0.00400000,0.00000000,-0.01600000,-0.00250000,0.01320000,0.00020000,-0.01810000,-0.00460000,1.00010000
$GPFPD,2292,546298.400,111.216,-0.244,1.081,31.42733762,120.62753890,12.474,-0.004,0.002,-0.016,0.798,21,19,04*54
$GTIMU,2292,546298.400,0.0207,-0.0413,0.0082,-0.0202,-0.0039,1.0001,32.6*4C
15:44::40.421,1702683898382,120.62753890,31.42733762,3478524.96196310,559664.25904832,111.21600000,6.00000000,-0.00400000,0.00200000,-0.01600000,0.02070000,-0.04130000,0.00820000,-0.02020000,-0.00390000,1.00010000
$GPFPD,2292,546298.500,111.217,-0.245,1.086,31.42733769,120.62753882,12.486,-0.003,-0.001,-0.016,0.795,21,19,04*73
$GTIMU,2292,546298.500,-0.0200,0.0531,-0.0077,-0.0170,-0.0019,0.9989,32.6*69
15:44::40.521,1702683898482,120.62753882,31.42733769,3478524.96968126,559664.25139772,111.21700000,6.00000000,-0.00300000,-0.00100000,-0.01600000,-0.02000000,0.05310000,-0.00770000,-0.01700000,-0.00190000,0.99890000
$GPFPD,2292,546298.600,111.216,-0.245,1.085,31.42733776,120.62753874,12.498,-0.004,0.001,-0.015,0.795,21,19,04*53
$GTIMU,2292,546298.600,0.0026,-0.0141,0.0110,-0.0207,-0.0056,1.0007,32.6*4D
15:44::40.621,1702683898582,120.62753874,31.42733776,3478524.97739941,559664.24374713,111.21600000,6.00000000,-0.00400000,0.00100000,-0.01500000,0.00260000,-0.01410000,0.01100000,-0.02070000,-0.00560000,1.00070000
$GPFPD,2292,546298.700,111.216,-0.244,1.083,31.42733783,120.62753866,12.510,-0.004,0.001,-0.016,0.796,21,19,04*5D
$GTIMU,2292,546298.700,0.0071,-0.0186,-0.0004,-0.0190,-0.0040,0.9989,32.6*61
15:44::40.720,1702683898682,120.62753866,31.42733783,3478524.98511756,559664.23609654,111.21600000,6.00000000,-0.00400000,0.00100000,-0.01600000,0.00710000,-0.01860000,-0.00040000,-0.01900000,-0.00400000,0.99890000
$GPFPD,2292,546298.800,111.217,-0.245,1.088,31.42733789,120.62753859,12.518,-0.004,-0.001,-0.016,0.796,21,19,04*7A
$GTIMU,2292,546298.800,-0.0138,0.0513,-0.0043,-0.0166,-0.0026,1.0002,32.6*62
15:44::40.821,1702683898782,120.62753859,31.42733789,3478524.99173234,559664.22940306,111.21700000,6.00000000,-0.00400000,-0.00100000,-0.01600000,-0.01380000,0.05130000,-0.00430000,-0.01660000,-0.00260000,1.00020000
$GPFPD,2292,546298.900,111.215,-0.244,1.082,31.42733789,120.62753859,12.517,-0.003,0.002,-0.016,0.799,21,19,04*5B
$GTIMU,2292,546298.900,0.0025,-0.0641,0.0207,-0.0223,-0.0042,0.9995,32.6*4A
15:44::40.921,1702683898882,120.62753859,31.42733789,3478524.99173234,559664.22940306,111.21500000,6.00000000,-0.00300000,0.00200000,-0.01600000,0.00250000,-0.06410000,0.02070000,-0.02230000,-0.00420000,0.99950000
$GPFPD,2292,546299.000,111.216,-0.245,1.081,31.42733789,120.62753859,12.515,-0.004,0.001,-0.016,0.799,21,19,04*54
$GTIMU,2292,546299.000,-0.0100,-0.0140,-0.0129,-0.0176,-0.0033,0.9990,32.6*4D
15:44::41.021,1702683898982,120.62753859,31.42733789,3478524.99173234,559664.22940306,111.21600000,6.00000000,-0.00400000,0.00100000,-0.01600000,-0.01000000,-0.01400000,-0.01290000,-0.01760000,-0.00330000,0.99900000
$GPGGA,074441.00,3125.6406199,N,12037.6527516,E,1,19,0.8,8.973,M,7.80,M,,*67
$GPFPD,2292,546299.100,111.217,-0.246,1.083,31.42733789,120.62753858,12.514,-0.004,-0.001,-0.016,0.799,21,19,04*78
$GTIMU,2292,546299.100,-0.0161,0.0195,0.0008,-0.0173,-0.0038,0.9998,32.6*47
15:44::41.120,1702683899082,120.62753858,31.42733789,3478524.99172692,559664.22845227,111.21700000,6.00000000,-0.00400000,-0.00100000,-0.01600000,-0.01610000,0.01950000,0.00080000,-0.01730000,-0.00380000,0.99980000
$GPFPD,2292,546299.200,111.215,-0.245,1.078,31.42733789,120.62753858,12.512,-0.003,0.002,-0.016,0.796,21,19,04*5E
$GTIMU,2292,546299.200,0.0111,-0.0470,0.0184,-0.0212,-0.0037,0.9999,32.6*42
15:44::41.221,1702683899182,120.62753858,31.42733789,3478524.99172692,559664.22845227,111.21500000,6.00000000,-0.00300000,0.00200000,-0.01600000,0.01110000,-0.04700000,0.01840000,-0.02120000,-0.00370000,0.99990000
$GPFPD,2292,546299.300,111.217,-0.247,1.082,31.42733790,120.62753856,12.514,-0.005,0.001,-0.013,0.795,21,19,04*59
$GTIMU,2292,546299.300,-0.0275,0.0332,-0.0163,-0.0175,-0.0029,0.9986,32.6*64
15:44::41.321,1702683899282,120.62753856,31.42733790,3478524.99282485,559664.22654438,111.21700000,6.00000000,-0.00500000,0.00100000,-0.01300000,-0.02750000,0.03320000,-0.01630000,-0.01750000,-0.00290000,0.99860000
$GPFPD,2292,546299.400,111.216,-0.247,1.080,31.42733795,120.62753849,12.525,-0.007,0.002,-0.013,0.795,21,19,04*55
$GTIMU,2292,546299.400,0.0009,-0.0231,0.0105,-0.0189,-0.0061,1.0004,32.6*41
15:44::41.420,1702683899382,120.62753849,31.42733795,3478524.99833084,559664.21985723,111.21600000,6.00000000,-0.00700000,0.00200000,-0.01300000,0.00090000,-0.02310000,0.01050000,-0.01890000,-0.00610000,1.00040000
$GPFPD,2292,546299.500,111.216,-0.245,1.077,31.42733800,120.62753842,12.537,-0.006,0.002,-0.012,0.796,21,19,04*56
$GTIMU,2292,546299.500,0.0094,-0.0294,0.0076,-0.0200,-0.0029,0.9998,32.6*44
15:44::41.521,1702683899482,120.62753842,31.42733800,3478525.00383682,559664.21317008,111.21600000,6.00000000,-0.00600000,0.00200000,-0.01200000,0.00940000,-0.02940000,0.00760000,-0.02000000,-0.00290000,0.99980000
$GPFPD,2292,546299.600,111.217,-0.248,1.081,31.42733805,120.62753835,12.549,-0.006,0.000,-0.013,0.796,21,19,04*5F
$GTIMU,2292,546299.600,-0.0314,0.0423,-0.0145,-0.0167,-0.0027,0.9995,32.6*6B
15:44::41.621,1702683899582,120.62753835,31.42733805,3478525.00934281,559664.20648294,111.21700000,6.00000000,-0.00600000,0.00000000,-0.01300000,-0.03140000,0.04230000,-0.01450000,-0.01670000,-0.00270000,0.99950000
$GPFPD,2292,546299.700,111.216,-0.247,1.079,31.42733810,120.62753828,12.561,-0.007,0.002,-0.012,0.798,21,19,04*59
$GTIMU,2292,546299.700,0.0134,-0.0243,0.0162,-0.0200,-0.0058,1.0001,32.6*44
15:44::41.720,1702683899682,120.62753828,31.42733810,3478525.01484879,559664.19979579,111.21600000,6.00000000,-0.00700000,0.00200000,-0.01200000,0.01340000,-0.02430000,0.01620000,-0.02000000,-0.00580000,1.00010000
$GPFPD,2292,546299.800,111.216,-0.246,1.080,31.42733814,120.62753822,12.569,-0.006,0.001,-0.013,0.798,21,19,04*54
$GTIMU,2292,546299.800,-0.0014,0.0047,0.0025,-0.0190,-0.0025,0.9988,32.6*4C
15:44::41.820,1702683899782,120.62753822,31.42733814,3478525.01925141,559664.19406576,111.21600000,6.00000000,-0.00600000,0.00100000,-0.01300000,-0.00140000,0.00470000,0.00250000,-0.01900000,-0.00250000,0.99880000
$GPFPD,2292,546299.900,111.217,-0.248,1.083,31.42733814,120.62753822,12.568,-0.006,0.001,-0.012,0.798,21,19,04*59
$GTIMU,2292,546299.900,-0.0207,0.0326,-0.0089,-0.0182,-0.0038,1.0002,32.6*6E
15:44::41.921,1702683899882,120.62753822,31.42733814,3478525.01925141,559664.19406576,111.21700000,6.00000000,-0.00600000,0.00100000,-0.01200000,-0.02070000,0.03260000,-0.00890000,-0.01820000,-0.00380000,1.00020000
$GPFPD,2292,546300.000,111.216,-0.246,1.076,31.42733814,120.62753821,12.567,-0.006,0.003,-0.012,0.798,21,19,04*5A
$GTIMU,2292,546300.000,0.0138,-0.0692,0.0133,-0.0206,-0.0043,1.0002,32.6*4D
15:44::42.021,1702683899982,120.62753821,31.42733814,3478525.01924598,559664.19311498,111.21600000,6.00000000,-0.00600000,0.00300000,-0.01200000,0.01380000,-0.06920000,0.01330000,-0.02060000,-0.00430000,1.00020000
$GPFPD,2292,546300$GPGGA,07.100,111.4442.00,3217,-0.24125.640277,1.079,344,N,12031.42733817.65305354,120.627,E,1,18,053820,12..9,6.051,565,-0.00M,7.80,M,7,0.000,-,*66
0.013,0.798,21,19,04*54
$GTIMU,2292,546300.100,-0.0133,0.0315,-0.0049,-0.0161,-0.0033,0.9987,32.6*65
