$GPFPD,2292,538519.300,113.010,-0.406,1.267,31.42736844,120.62746927,12.503,-0.004,-0.007,-0.016,0.797,15,13,04*74
$GTIMU,2292,538519.300,0.0661,-0.0379,-0.0016,-0.0227,-0.0092,0.9976,22.9*6A
13:35::01.323,1702676119282,120.62746927,31.42736844,3478528.34147429,559657.61922909,113.01000000,6.00000000,-0.00400000,-0.00700000,-0.01600000,0.06610000,-0.03790000,-0.00160000,-0.02270000,-0.00920000,0.99760000
$GPFPD,2292,538519.400,113.011,-0.399,1.265,31.42736846,120.62746929,12.506,-0.004,-0.009,-0.013,0.797,15,13,04*73
$GTIMU,2292,538519.400,0.0622,-0.0226,-0.0022,-0.0206,-0.0065,1.0030,22.9*6E
13:35::01.423,1702676119382,120.62746929,31.42736846,3478528.34370275,559657.62111799,113.01100000,6.00000000,-0.00400000,-0.00900000,-0.01300000,0.06220000,-0.02260000,-0.00220000,-0.02060000,-0.00650000,1.00300000
$GPFPD,2292,538519.500,113.011,-0.399,1.267,31.42736848,120.62746932,12.509,-0.001,-0.011,-0.013,0.793,15,13,04*73
$GTIMU,2292,538519.500,0.0009,0.0218,0.0036,-0.0212,-0.0024,0.9988,22.9*6A
13:35::01.524,1702676119482,120.62746932,31.42736848,3478528.34593663,559657.62395768,113.01100000,6.00000000,-0.00100000,-0.01100000,-0.01300000,0.00090000,0.02180000,0.00360000,-0.02120000,-0.00240000,0.99880000
$GPFPD,2292,538519.600,113.011,-0.396,1.267,31.42736849,120.62746934,12.513,-0.004,-0.008,-0.013,0.793,15,13,04*7E
$GTIMU,2292,538519.600,0.0242,-0.0072,0.0042,-0.0225,-0.0110,1.0002,22.9*45
13:35::01.623,1702676119582,120.62746934,31.42736849,3478528.34705629,559657.62585291,113.01100000,6.00000000,-0.00400000,-0.00800000,-0.01300000,0.02420000,-0.00720000,0.00420000,-0.02250000,-0.01100000,1.00020000
$GPFPD,2292,538519.700,113.011,-0.395,1.269,31.42736851,120.62746936,12.516,-0.002,-0.009,-0.015,0.796,15,13,04*78
$GTIMU,2292,538519.700,0.0094,0.0155,-0.0004,-0.0216,-0.0040,0.9975,22.9*4E
13:35::01.723,1702676119682,120.62746936,31.42736851,3478528.34928475,559657.62774182,113.01100000,6.00000000,-0.00200000,-0.00900000,-0.01500000,0.00940000,0.01550000,-0.00040000,-0.02160000,-0.00400000,0.99750000
$GPFPD,2292,538519.800,113.011,-0.389,1.266,31.42736852,120.62746938,12.518,-0.003,-0.009,-0.012,0.796,15,13,04*70
$GTIMU,2292,538519.800,0.0542,-0.0271,0.0058,-0.0217,-0.0072,1.0019,22.9*48
13:35::01.823,1702676119782,120.62746938,31.42736852,3478528.35040441,559657.62963705,113.01100000,6.00000000,-0.00300000,-0.00900000,-0.01200000,0.05420000,-0.02710000,0.00580000,-0.02170000,-0.00720000,1.00190000
$GPFPD,2292,538519.900,113.011,-0.391,1.267,31.42736851,120.62746938,12.516,-0.004,-0.009,-0.013,0.795,15,13,04*71
$GTIMU,2292,538519.900,-0.0263,0.0133,-0.0009,-0.0215,-0.0070,0.9993,22.9*62
13:35::01.923,1702676119882,120.62746938,31.42736851,3478528.34929561,559657.62964338,113.01100000,6.00000000,-0.00400000,-0.00900000,-0.01300000,-0.02630000,0.01330000,-0.00090000,-0.02150000,-0.00700000,0.99930000
$GPFPD,2292,538520.000,113.011,-0.390,1.268,31.42736851,120.62746938,12.515,-0.002,-0.010,-0.014,0.795,15,13,04*76
$GTIMU,2292,538520.000,0.0140,0.0087,0.0030,-0.0218,-0.0047,0.9978,22.9*6B
13:35::02.023,1702676119982,120.62746938,31.42736851,3478528.34929561,559657.62964338,113.01100000,6.00000000,-0.00200000,-0.01000000,-0.01400000,0.01400000,0.00870000,0.00300000,-0.02180000,-0.00470000,0.99780000
$GPGGA,053502.00,3125.6420067,N,12037.6488868,E,1,13,1.2,5.361,M,7.80,M,,*65
$GPFPD,2292,538520.100,113.011,-0.386,1.266,31.42736850,120.62746937,12.514,-0.004,-0.008,-0.012,0.795,15,13,04*78
$GTIMU,2292,538520.100,0.0281,-0.0237,0.0053,-0.0227,-0.0083,1.0019,22.9*47
13:35::02.123,1702676120082,120.62746937,31.42736850,3478528.34818138,559657.62869893,113.01100000,6.00000000,-0.00400000,-0.00800000,-0.01200000,0.02810000,-0.02370000,0.00530000,-0.02270000,-0.00830000,1.00190000
$GPFPD,2292,538520.200,113.011,-0.389,1.269,31.42736849,120.62746937,12.513,-0.003,-0.010,-0.013,0.796,15,13,04*78
$GTIMU,2292,538520.200,-0.0320,0.0218,-0.0043,-0.0205,-0.0048,0.9984,22.9*6D
13:35::02.223,1702676120182,120.62746937,31.42736849,3478528.34707258,559657.62870526,113.01100000,6.00000000,-0.00300000,-0.01000000,-0.01300000,-0.03200000,0.02180000,-0.00430000,-0.02050000,-0.00480000,0.99840000
$GPFPD,2292,538520.300,113.011,-0.386,1.267,31.42736848,120.62746936,12.510,-0.004,-0.007,-0.015,0.794,15,13,04*7E
$GTIMU,2292,538520.300,0.0298,-0.0197,0.0087,-0.0224,-0.0068,0.9994,22.9*4F
13:35::02.323,1702676120282,120.62746936,31.42736848,3478528.34595835,559657.62776081,113.01100000,6.00000000,-0.00400000,-0.00700000,-0.01500000,0.02980000,-0.01970000,0.00870000,-0.02240000,-0.00680000,0.99940000
$GPFPD,2292,538520.400,113.012,-0.387,1.269,31.42736849,120.62746936,12.503,-0.005,-0.008,-0.015,0.794,15,13,04*78
$GTIMU,2292,538520.400,-0.0127,0.0263,-0.0026,-0.0212,-0.0067,1.0001,22.9*66
13:35::02.423,1702676120382,120.62746936,31.42736849,3478528.34706715,559657.62775448,113.01200000,6.00000000,-0.00500000,-0.00800000,-0.01500000,-0.01270000,0.02630000,-0.00260000,-0.02120000,-0.00670000,1.00010000
$GPFPD,2292,538520.500,113.011,-0.386,1.269,31.42736850,120.62746935,12.496,-0.003,-0.008,-0.015,0.793,15,13,04*7C
$GTIMU,2292,538520.500,0.0100,-0.0089,0.0059,-0.0222,-0.0046,0.9989,22.9*40
13:35::02.523,1702676120482,120.62746935,31.42736850,3478528.34817052,559657.62679737,113.01100000,6.00000000,-0.00300000,-0.00800000,-0.01500000,0.01000000,-0.00890000,0.00590000,-0.02220000,-0.00460000,0.99890000
$GPFPD,2292,538520.600,113.011,-0.386,1.268,31.42736850,120.62746934,12.490,-0.005,-0.007,-0.014,0.793,15,13,04*71
$GTIMU,2292,538520.600,-0.0065,-0.0055,0.0002,-0.0222,-0.0082,1.0009,22.9*62
13:35::02.623,1702676120582,120.62746934,31.42736850,3478528.34816509,559657.62584658,113.01100000,6.00000000,-0.00500000,-0.00700000,-0.01400000,-0.00650000,-0.00550000,0.00020000,-0.02220000,-0.00820000,1.00090000
$GPFPD,2292,538520.700,113.012,-0.386,1.268,31.42736851,120.62746933,12.483,-0.003,-0.008,-0.016,0.798,15,13,04*77
$GTIMU,2292,538520.700,-0.0088,-0.0015,0.0008,-0.0209,-0.0042,0.9975,22.9*61
13:35::02.723,1702676120682,120.62746933,31.42736851,3478528.34926846,559657.62488947,113.01200000,6.00000000,-0.00300000,-0.00800000,-0.01600000,-0.00880000,-0.00150000,0.00080000,-0.02090000,-0.00420000,0.99750000
$GPFPD,2292,538520.800,113.011,-0.384,1.267,31.42736851,120.62746933,12.477,-0.005,-0.007,-0.014,0.798,15,13,04*76
$GTIMU,2292,538520.800,0.0196,-0.0175,0.0059,-0.0224,-0.0085,1.0011,22.9*49
13:35::02.823,1702676120782,120.62746933,31.42736851,3478528.34926846,559657.62488947,113.01100000,6.00000000,-0.00500000,-0.00700000,-0.01400000,0.01960000,-0.01750000,0.00590000,-0.02240000,-0.00850000,1.00110000
$GPFPD,2292,538520.900,113.012,-0.387,1.270,31.42736850,120.62746932,12.476,-0.003,-0.009,-0.015,0.796,15,13,04*77
$GTIMU,2292,538520.900,-0.0326,0.0298,-0.0020,-0.0205,-0.0036,0.9988,22.9*68
13:35::02.923,1702676120882,120.62746932,31.42736850,3478528.34815423,559657.62394502,113.01200000,6.00000000,-0.00300000,-0.00900000,-0.01500000,-0.03260000,0.02980000,-0.00200000,-0.02050000,-0.00360000,0.99880000
$GPFPD,2292,538521.000,113.011,-0.385,1.266,31.42736850,120.62746932,12.475,-0.005,-0.006,-0.014,0.796,15,13,04*72
$GTIMU,2292,538521.000,0.0196,-0.0413,0.0064,-0.0239,-0.0091,1.0004,22.9*46
13:35::03.023,1702676120982,120.62746932,31.42736850,3478528.34815423,559657.62394502,113.01100000,6.00000000,-0.00500000,-0.00600000,-0.01400000,0.01960000,-0.04130000,0.00640000,-0.02390000,-0.00910000,1.00040000
$GPGGA,053503.00,3125.6420066,N,12037.6488831,E,1,13,1.2,5.314,M,7.80,M,,*6B
$GPFPD,2292,538521.100,113.012,-0.387,1.268,31.42736849,120.62746931,12.473,-0.004,-0.009,-0.016,0.796,15,13,04*7D
$GTIMU,2292,538521.100,-0.0241,0.0212,-0.0020,-0.0199,-0.0040,0.9974,22.9*67
13:35::03.123,1702676121082,120.62746931,31.42736849,3478528.34704000,559657.62300056,113.01200000,6.00000000,-0.00400000,-0.00900000,-0.01600000,-0.02410000,0.02120000,-0.00200000,-0.01990000,-0.00400000,0.99740000
$GPFPD,2292,538521.200,113.011,-0.384,1.264,31.42736848,120.62746931,12.471,-0.004,-0.008,-0.014,0.797,15,13,04*73
$GTIMU,2292,538521.200,0.0298,-0.0374,0.0093,-0.0226,-0.0071,1.0020,22.9*41
13:35::03.223,1702676121182,120.62746931,31.42736848,3478528.34593120,559657.62300690,113.01100000,6.00000000,-0.00400000,-0.00800000,-0.01400000,0.02980000,-0.03740000,0.00930000,-0.02260000,-0.00710000,1.00200000
$GPFPD,2292,538521.300,113.013,-0.388,1.269,31.42736846,120.62746932,12.471,-0.002,-0.012,-0.011,0.797,15,13,04*74
$GTIMU,2292,538521.300,-0.0405,0.0451,-0.0071,-0.0209,-0.0062,0.9986,22.9*61
13:35::03.323,1702676121282,120.62746932,31.42736846,3478528.34371903,559657.62397034,113.01300000,6.00000000,-0.00200000,-0.01200000,-0.01100000,-0.04050000,0.04510000,-0.00710000,-0.02090000,-0.00620000,0.99860000
$GPFPD,2292,538521.400,113.012,-0.384,1.265,31.42736840,120.62746937,12.474,-0.001,-0.010,-0.012,0.797,15,13,04*76
$GTIMU,2292,538521.400,0.0315,-0.0425,0.0133,-0.0230,-0.0067,0.9985,22.9*45
13:35::03.423,1702676121382,120.62746937,31.42736840,3478528.33709339,559657.62876225,113.01200000,6.00000000,-0.00100000,-0.01000000,-0.01200000,0.03150000,-0.04250000,0.01330000,-0.02300000,-0.00670000,0.99850000
$GPFPD,2292,538521.500,113.012,-0.385,1.267,31.42736834,120.62746942,12.477,-0.001,-0.011,-0.010,0.796,15,13,04*74
$GTIMU,2292,538521.500,-0.0116,0.0178,-0.0060,-0.0209,-0.0059,1.0013,22.9*6B
13:35::03.523,1702676121482,120.62746942,31.42736834,3478528.33046774,559657.63355416,113.01200000,6.00000000,-0.00100000,-0.01100000,-0.01000000,-0.01160000,0.01780000,-0.00600000,-0.02090000,-0.00590000,1.00130000
$GPFPD,2292,538521.600,113.012,-0.386,1.266,31.42736828,120.62746948,12.481,-0.000,-0.012,-0.011,0.796,15,13,04*78
$GTIMU,2292,538521.600,-0.0110,-0.0078,0.0048,-0.0217,-0.0049,0.9982,22.9*62
13:35::03.623,1702676121582,120.62746948,31.42736828,3478528.32384752,559657.63929685,113.01200000,6.00000000,0.00000000,-0.01200000,-0.01100000,-0.01100000,-0.00780000,0.00480000,-0.02170000,-0.00490000,0.99820000
$GPFPD,2292,538521.700,113.011,-0.385,1.267,31.42736822,120.62746953,12.484,-0.004,-0.010,-0.010,0.797,15,13,04*7B
$GTIMU,2292,538521.700,-0.0002,0.0007,0.0088,-0.0221,-0.0100,1.0012,22.9*49
13:35::03.723,1702676121682,120.62746953,31.42736822,3478528.31722188,559657.64408875,113.01100000,6.00000000,-0.00400000,-0.01000000,-0.01000000,-0.00020000,0.00070000,0.00880000,-0.02210000,-0.01000000,1.00120000
$GPFPD,2292,538521.800,113.012,-0.388,1.267,31.42736817,120.62746956,12.486,-0.001,-0.012,-0.012,0.797,15,13,04*7E
$GTIMU,2292,538521.800,-0.0269,0.0019,-0.0037,-0.0213,-0.0035,0.9975,22.9*69
13:35::03.823,1702676121782,120.62746956,31.42736817,3478528.31169417,559657.64697276,113.01200000,6.00000000,-0.00100000,-0.01200000,-0.01200000,-0.02690000,0.00190000,-0.00370000,-0.02130000,-0.00350000,0.99750000
$GPFPD,2292,538521.900,113.011,-0.386,1.264,31.42736816,120.62746956,12.485,-0.003,-0.010,-0.009,0.796,15,13,04*78
$GTIMU,2292,538521.900,0.0099,-0.0288,0.0110,-0.0226,-0.0082,1.0024,22.9*49
13:35::03.923,1702676121882,120.62746956,31.42736816,3478528.31058537,559657.64697909,113.01100000,6.00000000,-0.00300000,-0.01000000,-0.00900000,0.00990000,-0.02880000,0.01100000,-0.02260000,-0.00820000,1.00240000
$GPFPD,2292,538522.000,113.011,-0.393,1.266,31.42736815,120.62746956,12.484,-0.001,-0.012,-0.011,0.796,15,13,04*7F
$GTIMU,2292,538522.000,-0.0661,0.0184,-0.0019,-0.0205,-0.0043,0.9970,22.9*64
13:35::04.023,1702676121982,120.62746956,31.42736815,3478528.30947657,559657.64698542,113.01100000,6.00000000,-0.00100000,-0.01200000,-0.01100000,-0.06610000,0.01840000,-0.00190000,-0.02050000,-0.00430000,0.99700000
$GPGGA,053504.00,3125.6420048,N,12037.6488849,E,1,13,1.2,5.261,M,7.80,M,,*6C
$GPFPD,2292,538522.100,113.011,-0.389,1.265,31.42736814,120.62746956,12.483,-0.004,-0.010,-0.010,0.796,15,13,04*76
$GTIMU,2292,538522.100,0.0304,-0.0112,0.0041,-0.0222,-0.0091,1.0014,22.9*45
13:35::04.123,1702676122082,120.62746956,31.42736814,3478528.30836777,559657.64699175,113.01100000,6.00000000,-0.00400000,-0.01000000,-0.01000000,0.03040000,-0.01120000,0.00410000,-0.02220000,-0.00910000,1.00140000
$GPFPD,2292,538522.200,113.011,-0.397,1.269,31.42736813,120.62746955,12.482,-0.002,-0.012,-0.009,0.797,15,13,04*7E
$GTIMU,2292,538522.200,-0.0797,0.0326,0.0038,-0.0213,-0.0045,1.0004,22.9*49
13:35::04.223,1702676122182,120.62746955,31.42736813,3478528.30725355,559657.64604730,113.01100000,6.00000000,-0.00200000,-0.01200000,-0.00900000,-0.07970000,0.03260000,0.00380000,-0.02130000,-0.00450000,1.00040000
$GPFPD,2292,538522.300,113.012,-0.400,1.267,31.42736813,120.62746955,12.480,-0.004,-0.007,-0.011,0.794,15,13,04*71
$GTIMU,2292,538522.300,-0.0309,-0.0129,-0.0043,-0.0227,-0.0066,0.9991,22.9*41
13:35::04.323,1702676122282,120.62746955,31.42736813,3478528.30725355,559657.64604730,113.01200000,6.00000000,-0.00400000,-0.00700000,-0.01100000,-0.03090000,-0.01290000,-0.00430000,-0.02270000,-0.00660000,0.99910000
$GPFPD,2292,538522.400,113.012,-0.404,1.269,31.42736817,120.62746952,12.473,-0.004,-0.008,-0.013,0.794,15,13,04*7E
$GTIMU,2292,538522.400,-0.0462,0.0127,0.0026,-0.0207,-0.0064,0.9982,22.9*43
13:35::04.423,1702676122382,120.62746952,31.42736817,3478528.31167245,559657.64316963,113.01200000,6.00000000,-0.00400000,-0.00800000,-0.01300000,-0.04620000,0.01270000,0.00260000,-0.02070000,-0.00640000,0.99820000
$GPFPD,2292,538522.500,113.011,-0.405,1.271,31.42736821,120.62746950,12.466,-0.004,-0.008,-0.013,0.798,15,13,04*7B
$GTIMU,2292,538522.500,-0.0172,0.0178,0.0077,-0.0217,-0.0061,0.9995,22.9*4A
13:35::04.523,1702676122482,120.62746950,31.42736821,3478528.31609679,559657.64124273,113.01100000,6.00000000,-0.00400000,-0.00800000,-0.01300000,-0.01720000,0.01780000,0.00770000,-0.02170000,-0.00610000,0.99950000
$GPFPD,2292,538522.600,113.012,-0.407,1.270,31.42736825,120.62746947,12.459,-0.003,-0.007,-0.012,0.798,15,13,04*7F
$GTIMU,2292,538522.600,-0.0167,-0.0112,-0.0009,-0.0232,-0.0063,0.9996,22.9*4E
13:35::04.623,1702676122582,120.62746947,31.42736825,3478528.32051570,559657.63836506,113.01200000,6.00000000,-0.00300000,-0.00700000,-0.01200000,-0.01670000,-0.01120000,-0.00090000,-0.02320000,-0.00630000,0.99960000
$GPFPD,2292,538522.700,113.012,-0.408,1.271,31.42736829,120.62746945,12.453,-0.004,-0.007,-0.013,0.796,15,13,04*7C
$GTIMU,2292,538522.700,-0.0184,0.0104,0.0020,-0.0207,-0.0075,0.9989,22.9*41
13:35::04.723,1702676122682,120.62746945,31.42736829,3478528.32494004,559657.63643816,113.01200000,6.00000000,-0.00400000,-0.00700000,-0.01300000,-0.01840000,0.01040000,0.00200000,-0.02070000,-0.00750000,0.99890000
$GPFPD,2292,538522.800,113.012,-0.409,1.268,31.42736832,120.62746943,12.447,-0.003,-0.007,-0.013,0.796,15,13,04*74
$GTIMU,2292,538522.800,-0.0105,-0.0288,0.0020,-0.0231,-0.0057,0.9996,22.9*66
13:35::04.823,1702676122782,120.62746943,31.42736832,3478528.32825557,559657.63451760,113.01200000,6.00000000,-0.00300000,-0.00700000,-0.01300000,-0.01050000,-0.02880000,0.00200000,-0.02310000,-0.00570000,0.99960000
$GPFPD,2292,538522.900,113.012,-0.409,1.269,31.42736832,120.62746943,12.446,-0.004,-0.008,-0.013,0.801,15,13,04*7C
$GTIMU,2292,538522.900,-0.0059,0.0104,-0.0003,-0.0201,-0.0068,0.9993,22.9*63
13:35::04.923,1702676122882,120.62746943,31.42736832,3478528.32825557,559657.63451760,113.01200000,6.00000000,-0.00400000,-0.00800000,-0.01300000,-0.00590000,0.01040000,-0.00030000,-0.02010000,-0.00680000,0.99930000
$GPFPD,2292,538523.000,113.011,-0.409,1.267,31.42736831,120.62746942,12.445,-0.003,-0.007,-0.013,0.801,15,13,04*70
$GTIMU,2292,538523.000,-0.0054,-0.0237,0.0071,-0.0229,-0.0066,0.9994,22.9*63
13:35::05.023,1702676122982,120.62746942,31.42736831,3478528.32714134,559657.63357315,113.01100000,6.00000000,-0.00300000,-0.00700000,-0.01300000,-0.00540000,-0.02370000,0.00710000,-0.02290000,-0.00660000,0.99940000
$GPGGA,053505.00,3125.6420042,N,12037.6488880,E,1,13,1.2,5.242,M,7.80,M,,*63
$GPFPD,2292,538523.100,113.013,-0.410,1.272,31.42736830,120.62746942,12.443,-0.003,-0.008,-0.013,0.801,15,13,04*77
$GTIMU,2292,538523.100,-0.0155,0.0434,-0.0094,-0.0207,-0.0065,0.9998,22.9*6F
13:35::05.123,1702676123082,120.62746942,31.42736830,3478528.32603255,559657.63357948,113.01300000,6.00000000,-0.00300000,-0.00800000,-0.01300000,-0.01550000,0.04340000,-0.00940000,-0.02070000,-0.00650000,0.99980000
$GPFPD,2292,538523.200,113.012,-0.409,1.267,31.42736830,120.62746941,12.442,-0.004,-0.007,-0.013,0.793,15,13,04*77
$GTIMU,2292,538523.200,0.0162,-0.0459,0.0122,-0.0227,-0.0080,0.9993,22.9*40
13:35::05.223,1702676123182,120.62746941,31.42736830,3478528.32602712,559657.63262870,113.01200000,6.00000000,-0.00400000,-0.00700000,-0.01300000,0.01620000,-0.04590000,0.01220000,-0.02270000,-0.00800000,0.99930000
$GPFPD,2292,538523.300,113.012,-0.409,1.271,31.42736829,120.62746940,12.440,-0.006,-0.009,-0.015,0.797,15,13,04*74
$GTIMU,2292,538523.300,-0.0110,0.0360,0.0008,-0.0199,-0.0052,0.9984,22.9*4F
13:35::05.323,1702676123282,120.62746940,31.42736829,3478528.32491289,559657.63168425,113.01200000,6.00000000,-0.00600000,-0.00900000,-0.01500000,-0.01100000,0.03600000,0.00080000,-0.01990000,-0.00520000,0.99840000
$GPFPD,2292,538523.400,113.012,-0.410,1.279,31.42736828,120.62746937,12.435,-0.006,-0.009,-0.014,0.797,15,13,04*71
$GTIMU,2292,538523.400,-0.0143,0.0758,0.0071,-0.0216,-0.0070,1.0012,22.9*45
13:35::05.423,1702676123382,120.62746937,31.42736828,3478528.32378780,559657.62883823,113.01200000,6.00000000,-0.00600000,-0.00900000,-0.01400000,-0.01430000,0.07580000,0.00710000,-0.02160000,-0.00700000,1.00120000
$GPFPD,2292,538523.500,113.012,-0.410,1.276,31.42736827,120.62746934,12.429,-0.004,-0.005,-0.014,0.797,15,13,04*70
$GTIMU,2292,538523.500,-0.0043,-0.0265,0.0048,-0.0260,-0.0061,0.9985,22.9*67
13:35::05.523,1702676123482,120.62746934,31.42736827,3478528.32266271,559657.62599221,113.01200000,6.00000000,-0.00400000,-0.00500000,-0.01400000,-0.00430000,-0.02650000,0.00480000,-0.02600000,-0.00610000,0.99850000
$GPFPD,2292,538523.600,113.013,-0.413,1.273,31.42736826,120.62746931,12.424,-0.004,-0.007,-0.015,0.797,15,13,04*7E
$GTIMU,2292,538523.600,-0.0265,-0.0305,-0.0128,-0.0207,-0.0064,0.9993,22.9*4C
13:35::05.623,1702676123582,120.62746931,31.42736826,3478528.32153763,559657.62314620,113.01300000,6.00000000,-0.00400000,-0.00700000,-0.01500000,-0.02650000,-0.03050000,-0.01280000,-0.02070000,-0.00640000,0.99930000
$GPFPD,2292,538523.700,113.012,-0.410,1.266,31.42736825,120.62746928,12.419,-0.007,-0.007,-0.013,0.796,15,13,04*78
$GTIMU,2292,538523.700,0.0257,-0.0766,0.0087,-0.0209,-0.0091,1.0011,22.9*46
13:35::05.723,1702676123682,120.62746928,31.42736825,3478528.32041254,559657.62030018,113.01200000,6.00000000,-0.00700000,-0.00700000,-0.01300000,0.02570000,-0.07660000,0.00870000,-0.02090000,-0.00910000,1.00110000
$GPFPD,2292,538523.800,113.013,-0.410,1.271,31.42736824,120.62746926,12.415,-0.007,-0.009,-0.015,0.796,15,13,04*7B
$GTIMU,2292,538523.800,-0.0041,0.0508,-0.0003,-0.0194,-0.0053,0.9976,22.9*6E
13:35::05.823,1702676123782,120.62746926,31.42736824,3478528.31929288,559657.61840494,113.01300000,6.00000000,-0.00700000,-0.00900000,-0.01500000,-0.00410000,0.05080000,-0.00030000,-0.01940000,-0.00530000,0.99760000
$GPFPD,2292,538523.900,113.014,-0.403,1.281,31.42736823,120.62746926,12.413,0.002,-0.011,-0.020,0.800,15,13,04*56
$GTIMU,2292,538523.900,0.0703,0.0996,-0.0108,-0.0235,0.0018,0.9944,22.9*69
13:35::05.923,1702676123882,120.62746926,31.42736823,3478528.31818408,559657.61841128,113.01400000,6.00000000,0.00200000,-0.01100000,-0.02000000,0.07030000,0.09960000,-0.01080000,-0.02350000,0.00180000,0.99440000
$GPFPD,2292,538524.000,113.016,-0.380,1.283,31.42736822,120.62746927,12.411,0.024,-0.017,-0.025,0.800,15,13,04*51
$GTIMU,2292,538524.000,0.2223,0.0234,-0.0077,-0.0252,0.0167,0.9943,22.9*67
13:35::06.023,1702676123982,120.62746927,31.42736822,3478528.31708071,559657.61936839,113.01600000,6.00000000,0.02400000,-0.01700000,-0.02500000,0.22230000,0.02340000,-0.00770000,-0.02520000,0.01670000,0.99430000
$GPGGA,053506.00,3125.6420048,N,12037.6488877,E,1,13,1.2,5.211,M,7.80,M,,*64
$GPFPD,2292,538524.100,113.017,-0.349,1.281,31.42736820,120.62746931,12.408,0.057,-0.032,-0.027,0.800,15,13,04*5A
$GTIMU,2292,538524.100,0.3091,-0.0307,-0.0062,-0.0215,0.0318,0.9978,22.9*45
13:35::06.123,1702676124082,120.62746931,31.42736820,3478528.31488483,559657.62318419,113.01700000,6.00000000,0.05700000,-0.03200000,-0.02700000,0.30910000,-0.03070000,-0.00620000,-0.02150000,0.03180000,0.99780000
$GPFPD,2292,538524.200,113.012,-0.309,1.273,31.42736816,120.62746939,12.405,0.095,-0.051,-0.024,0.798,15,13,04*53
$GTIMU,2292,538524.200,0.3920,-0.0814,0.0586,-0.0189,0.0381,1.0034,22.9*61
13:35::06.223,1702676124182,120.62746939,31.42736816,3478528.31049307,559657.63081578,113.01200000,6.00000000,0.09500000,-0.05100000,-0.02400000,0.39200000,-0.08140000,0.05860000,-0.01890000,0.03810000,1.00340000
$GPFPD,2292,538524.300,113.006,-0.287,1.282,31.42736811,120.62746951,12.404,0.140,-0.068,-0.016,0.797,15,13,04*5B
$GTIMU,2292,538524.300,0.2147,0.0904,0.0824,-0.0205,0.0479,1.0038,22.9*4B
13:35::06.323,1702676124282,120.62746951,31.42736811,3478528.30501423,559657.64225683,113.00600000,6.00000000,0.14000000,-0.06800000,-0.01600000,0.21470000,0.09040000,0.08240000,-0.02050000,0.04790000,1.00380000
$GPFPD,2292,538524.400,112.993,-0.269,1.294,31.42736809,120.62746966,12.406,0.188,-0.090,-0.013,0.797,15,13,04*56
$GTIMU,2292,538524.400,0.1775,0.1233,0.1361,-0.0209,0.0498,1.0026,22.9*41
13:35::06.423,1702676124382,120.62746966,31.42736809,3478528.30287807,559657.65653124,112.99300000,6.00000000,0.18800000,-0.09000000,-0.01300000,0.17750000,0.12330000,0.13610000,-0.02090000,0.04980000,1.00260000
$GPFPD,2292,538524.500,112.973,-0.250,1.300,31.42736804,120.62746986,12.409,0.246,-0.113,-0.015,0.802,15,13,04*5D
$GTIMU,2292,538524.500,0.1758,0.0595,0.2068,-0.0238,0.0593,0.9982,22.9*4B
13:35::06.523,1702676124482,120.62746986,31.42736804,3478528.29744267,559657.67557856,112.97300000,6.00000000,0.24600000,-0.11300000,-0.01500000,0.17580000,0.05950000,0.20680000,-0.02380000,0.05930000,0.99820000
$GPFPD,2292,538524.600,112.942,-0.240,1.300,31.42736798,120.62747012,12.411,0.297,-0.137,-0.007,0.802,15,13,04*52
$GTIMU,2292,538524.600,0.0892,-0.0025,0.3108,-0.0200,0.0535,1.0082,22.9*63
13:35::06.623,1702676124582,120.62747012,31.42736798,3478528.29093104,559657.70033691,112.94200000,6.00000000,0.29700000,-0.13700000,-0.00700000,0.08920000,-0.00250000,0.31080000,-0.02000000,0.05350000,1.00820000
$GPFPD,2292,538524.700,112.901,-0.261,1.301,31.42736789,120.62747042,12.415,0.334,-0.154,-0.002,0.804,15,13,04*59
$GTIMU,2292,538524.700,-0.2222,0.0049,0.4108,-0.0223,0.0378,1.0043,22.9*6F
13:35::06.723,1702676124682,120.62747042,31.42736789,3478528.28111473,559657.72891739,112.90100000,6.00000000,0.33400000,-0.15400000,-0.00200000,-0.22220000,0.00490000,0.41080000,-0.02230000,0.03780000,1.00430000
$GPFPD,2292,538524.800,112.853,-0.256,1.312,31.42736778,120.62747078,12.417,0.379,-0.174,-0.015,0.804,15,13,04*5E
$GTIMU,2292,538524.800,0.0433,0.1065,0.4826,-0.0202,0.0462,0.9866,22.9*4B
13:35::06.823,1702676124782,120.62747078,31.42736778,3478528.26911340,559657.76321523,112.85300000,6.00000000,0.37900000,-0.17400000,-0.01500000,0.04330000,0.10650000,0.48260000,-0.02020000,0.04620000,0.98660000
$GPFPD,2292,538524.900,112.790,-0.237,1.319,31.42736761,120.62747120,12.415,0.428,-0.197,-0.012,0.806,15,13,04*5E
$GTIMU,2292,538524.900,0.1702,0.0653,0.6312,-0.0206,0.0515,1.0023,22.9*42
13:35::06.923,1702676124882,120.62747120,31.42736761,3478528.25049186,559657.80325576,112.79000000,6.00000000,0.42800000,-0.19700000,-0.01200000,0.17020000,0.06530000,0.63120000,-0.02060000,0.05150000,1.00230000
$GPFPD,2292,538525.000,112.715,-0.239,1.327,31.42736743,120.62747168,12.414,0.480,-0.217,-0.010,0.806,15,13,04*5E
$GTIMU,2292,538525.000,-0.0440,0.0743,0.7577,-0.0246,0.0531,1.0017,22.9*62
13:35::07.023,1702676124982,120.62747168,31.42736743,3478528.23079409,559657.84900732,112.71500000,6.00000000,0.48000000,-0.21700000,-0.01000000,-0.04400000,0.07430000,0.75770000,-0.02460000,0.05310000,1.00170000
$GPGGA,053507.00,3125.6419341,N,12037.6490472,E,1,13,1.2,5.298,M,7.80,M,,*64
$GPFPD,2292,538525.100,112.631,-0.223,1.339,31.42736722,120.62747221,12.413,0.535,-0.242,-0.016,0.806,15,13,04*5B
$GTIMU,2292,538525.100,0.1328,0.1145,0.8440,-0.0216,0.0582,0.9945,22.9*46
13:35::07.123,1702676125082,120.62747221,31.42736722,3478528.20779707,559657.89953179,112.63100000,6.00000000,0.53500000,-0.24200000,-0.01600000,0.13280000,0.11450000,0.84400000,-0.02160000,0.05820000,0.99450000
$GPFPD,2292,538525.200,112.533,-0.195,1.345,31.42736699,120.62747281,12.411,0.602,-0.269,-0.019,0.808,15,13,04*5A
$GTIMU,2292,538525.200,0.2574,0.0529,0.9868,-0.0235,0.0706,0.9964,22.9*4D
13:35::07.223,1702676125182,120.62747281,31.42736699,3478528.18262046,559657.95672441,112.53300000,6.00000000,0.60200000,-0.26900000,-0.01900000,0.25740000,0.05290000,0.98680000,-0.02350000,0.07060000,0.99640000
$GPFPD,2292,538525.300,112.425,-0.157,1.357,31.42736673,120.62747349,12.410,0.680,-0.300,-0.019,0.790,15,13,04*5A
$GTIMU,2292,538525.300,0.3504,0.1203,1.0955,-0.0251,0.0820,0.9957,22.9*4A
13:35::07.323,1702676125282,120.62747349,31.42736673,3478528.15416089,559658.02154229,112.42500000,6.00000000,0.68000000,-0.30000000,-0.01900000,0.35040000,0.12030000,1.09550000,-0.02510000,0.08200000,0.99570000
$GPFPD,2292,538525.400,112.304,-0.113,1.367,31.42736641,120.62747427,12.413,0.765,-0.338,-0.019,0.790,15,13,04*56
$GTIMU,2292,538525.400,0.4109,0.0929,1.2243,-0.0212,0.0928,0.9993,22.9*49
13:35::07.423,1702676125382,120.62747427,31.42736641,3478528.11910283,559658.09590599,112.30400000,6.00000000,0.76500000,-0.33800000,-0.01900000,0.41090000,0.09290000,1.22430000,-0.02120000,0.09280000,0.99930000
$GPFPD,2292,538525.500,112.161,-0.075,1.368,31.42736606,120.62747514,12.415,0.857,-0.371,-0.014,0.798,14,13,04*5B
$GTIMU,2292,538525.500,0.3369,0.0011,1.4355,-0.0273,0.0986,1.0050,22.9*44
13:35::07.523,1702676125482,120.62747514,31.42736606,3478528.08076723,559658.17884573,112.16100000,6.00000000,0.85700000,-0.37100000,-0.01400000,0.33690000,0.00110000,1.43550000,-0.02730000,0.09860000,1.00500000
$GPFPD,2292,538525.600,112.006,-0.060,1.347,31.42736568,120.62747612,12.419,0.952,-0.406,-0.006,0.798,14,13,04*53
$GTIMU,2292,538525.600,0.1143,-0.2093,1.5569,-0.0274,0.1023,1.0072,22.9*62
13:35::07.623,1702676125582,120.62747612,31.42736568,3478528.03916496,559658.27226308,112.00600000,6.00000000,0.95200000,-0.40600000,-0.00600000,0.11430000,-0.20930000,1.55690000,-0.02740000,0.10230000,1.00720000
$GPFPD,2292,538525.700,111.850,-0.079,1.286,31.42736527,120.62747719,12.423,1.060,-0.435,-0.008,0.808,15,13,04*56
$GTIMU,2292,538525.700,-0.2271,-0.6133,1.5606,-0.0364,0.1131,0.9981,22.9*45
13:35::07.723,1702676125682,120.62747719,31.42736527,3478527.99428516,559658.37425648,111.85000000,6.00000000,1.06000000,-0.43500000,-0.00800000,-0.22710000,-0.61330000,1.56060000,-0.03640000,0.11310000,0.99810000
$GPFPD,2292,538525.800,111.691,-0.129,1.174,31.42736484,120.62747838,12.425,1.167,-0.468,-0.010,0.808,15,13,04*55
$GTIMU,2292,538525.800,-0.5420,-1.1277,1.5779,-0.0301,0.1127,0.9974,22.9*4D
13:35::07.823,1702676125782,120.62747838,31.42736484,3478527.94725291,559658.48767194,111.69100000,6.00000000,1.16700000,-0.46800000,-0.01000000,-0.54200000,-1.12770000,1.57790000,-0.03010000,0.11270000,0.99740000
$GPFPD,2292,538525.900,111.493,-0.171,1.086,31.42736440,120.62747966,12.424,1.257,-0.516,-0.013,0.800,12,13,04*52
$GTIMU,2292,538525.900,-0.4593,-0.8815,1.9775,-0.0070,0.1007,0.9964,22.9*45
13:35::07.923,1702676125882,120.62747966,31.42736440,3478527.89916073,559658.60965078,111.49300000,6.00000000,1.25700000,-0.51600000,-0.01300000,-0.45930000,-0.88150000,1.97750000,-0.00700000,0.10070000,0.99640000
$GPFPD,2292,538526.000,111.250,-0.146,1.100,31.42736391,120.62748103,12.423,1.338,-0.565,-0.014,0.800,12,13,04*59
$GTIMU,2292,538526.000,0.1962,0.1336,2.4351,-0.0022,0.0932,0.9996,22.9*43
13:35::08.023,1702676125982,120.62748103,31.42736391,3478527.84557343,559658.74021833,111.25000000,6.00000000,1.33800000,-0.56500000,-0.01400000,0.19620000,0.13360000,2.43510000,-0.00220000,0.09320000,0.99960000
$GPGGA,053508.00,3125.6417348,N,12037.6496227,E,1,13,1.2,5.235,M,7.80,M,,*6B
$GPFPD,2292,538526.100,111.024,-0.054,1.191,31.42736338,120.62748249,12.421,1.445,-0.601,-0.019,0.800,12,13,04*5E
$GTIMU,2292,538526.100,0.8717,0.9004,2.2766,-0.0248,0.1138,0.9942,22.9*4F
13:35::08.123,1702676126082,120.62748249,31.42736338,3478527.78759980,559658.87936826,111.02400000,6.00000000,1.44500000,-0.60100000,-0.01900000,0.87170000,0.90040000,2.27660000,-0.02480000,0.11380000,0.99420000
$GPFPD,2292,538526.200,110.825,0.051,1.270,31.42736282,120.62748408,12.418,1.576,-0.639,-0.033,0.793,15,13,04*78
$GTIMU,2292,538526.200,1.0053,0.7898,2.0179,-0.0327,0.1393,0.9848,22.9*4B
13:35::08.223,1702676126182,120.62748408,31.42736282,3478527.72637035,559659.03089736,110.82500000,6.00000000,1.57600000,-0.63900000,-0.03300000,1.00530000,0.78980000,2.01790000,-0.03270000,0.13930000,0.98480000
$GPFPD,2292,538526.300,110.600,0.135,1.323,31.42736223,120.62748583,12.413,1.727,-0.687,-0.038,0.809,15,13,04*72
$GTIMU,2292,538526.300,0.7881,0.5309,2.2813,-0.0286,0.1616,0.9982,23.0*40
13:35::08.323,1702676126282,120.62748583,31.42736223,3478527.66190139,559659.19765799,110.60000000,6.00000000,1.72700000,-0.68700000,-0.03800000,0.78810000,0.53090000,2.28130000,-0.02860000,0.16160000,0.99820000
$GPFPD,2292,538526.400,110.358,0.175,1.305,31.42736159,120.62748779,12.401,1.891,-0.726,-0.029,0.809,15,13,04*7F
$GTIMU,2292,538526.400,0.3460,-0.1729,2.4290,-0.0446,0.1734,1.0083,23.0*63
13:35::08.423,1702676126382,120.62748779,31.42736159,3478527.59200245,559659.38441673,110.35800000,6.00000000,1.89100000,-0.72600000,-0.02900000,0.34600000,-0.17290000,2.42900000,-0.04460000,0.17340000,1.00830000
$GPFPD,2292,538526.500,110.132,0.184,1.282,31.42736092,120.62748992,12.391,2.046,-0.774,-0.021,0.796,15,13,04*74
$GTIMU,2292,538526.500,0.0315,-0.2197,2.2564,-0.0308,0.1693,1.0070,23.0*63
13:35::08.523,1702676126482,120.62748992,31.42736092,3478527.51886943,559659.58735779,110.13200000,6.00000000,2.04600000,-0.77400000,-0.02100000,0.03150000,-0.21970000,2.25640000,-0.03080000,0.16930000,1.00700000
$GPFPD,2292,538526.600,109.913,0.154,1.242,31.42736021,120.62749221,12.381,2.194,-0.821,-0.007,0.796,15,13,04*7B
$GTIMU,2292,538526.600,-0.3488,-0.3934,2.1945,-0.0289,0.1615,1.0126,23.0*45
13:35::08.623,1702676126582,120.62749221,31.42736021,3478527.44138809,559659.80553670,109.91300000,6.00000000,2.19400000,-0.82100000,-0.00700000,-0.34880000,-0.39340000,2.19450000,-0.02890000,0.16150000,1.01260000
$GPFPD,2292,538526.700,109.695,0.115,1.237,31.42735945,120.62749465,12.372,2.328,-0.867,-0.001,0.800,15,13,04*7F
$GTIMU,2292,538526.700,-0.4424,-0.0545,2.1634,-0.0239,0.1479,1.0054,23.0*42
13:35::08.723,1702676126682,120.62749465,31.42735945,3478527.35844420,559660.03800902,109.69500000,6.00000000,2.32800000,-0.86700000,-0.00100000,-0.44240000,-0.05450000,2.16340000,-0.02390000,0.14790000,1.00540000
$GPFPD,2292,538526.800,109.485,0.063,1.230,31.42735866,120.62749721,12.366,2.456,-0.901,0.004,0.800,15,13,04*55
$GTIMU,2292,538526.800,-0.5647,-0.0600,2.0935,-0.0322,0.1362,1.0039,23.0*4B
13:35::08.823,1702676126782,120.62749721,31.42735866,3478527.27223907,559660.28190974,109.48500000,6.00000000,2.45600000,-0.90100000,0.00400000,-0.56470000,-0.06000000,2.09350000,-0.03220000,0.13620000,1.00390000
$GPFPD,2292,538526.900,109.310,0.031,1.223,31.42735784,120.62749986,12.366,2.582,-0.928,-0.004,0.795,14,13,04*76
$GTIMU,2292,538526.900,-0.3698,-0.0688,1.7423,-0.0375,0.1315,0.9916,23.0*4E
13:35::08.923,1702676126882,120.62749986,31.42735784,3478527.18275642,559660.53438652,109.31000000,6.00000000,2.58200000,-0.92800000,-0.00400000,-0.36980000,-0.06880000,1.74230000,-0.03750000,0.13150000,0.99160000
$GPFPD,2292,538527.000,109.167,-0.022,1.219,31.42735698,120.62750265,12.366,2.704,-0.963,0.009,0.795,14,13,04*7B
$GTIMU,2292,538527.000,-0.5631,-0.0473,1.4274,-0.0283,0.1306,1.0119,23.0*47
13:35::09.023,1702676126982,120.62750265,31.42735698,3478527.08891460,559660.80019958,109.16700000,6.00000000,2.70400000,-0.96300000,0.00900000,-0.56310000,-0.04730000,1.42740000,-0.02830000,0.13060000,1.01190000
$GPGGA,053509.00,3125.6413667,N,12037.6508866,E,1,13,1.2,5.146,M,7.80,M,,*68
$GPFPD,2292,538527.100,109.039,-0.056,1.159,31.42735610,120.62750556,12.365,2.825,-0.996,-0.039,0.795,14,13,04*58
$GTIMU,2292,538527.100,-0.3687,-0.6004,1.2735,-0.0283,0.1271,0.9512,23.0*4F
13:35::09.123,1702676127082,120.62750556,31.42735610,3478526.99292034,559661.07743472,109.03900000,6.00000000,2.82500000,-0.99600000,-0.03900000,-0.36870000,-0.60040000,1.27350000,-0.02830000,0.12710000,0.95120000
$GPFPD,2292,538527.200,108.947,-0.039,1.170,31.42735519,120.62750859,12.361,2.937,-1.012,-0.018,0.795,14,13,04*51
$GTIMU,2292,538527.200,0.1529,0.1036,0.9289,-0.0417,0.1131,1.0202,23.0*45
13:35::09.223,1702676127182,120.62750859,31.42735519,3478526.89366485,559661.36609826,108.94700000,6.00000000,2.93700000,-1.01200000,-0.01800000,0.15290000,0.10360000,0.92890000,-0.04170000,0.11310000,1.02020000
$GPFPD,2292,538527.300,108.886,-0.074,1.151,31.42735425,120.62751176,12.362,3.049,-1.063,0.010,0.795,14,13,04*7C
$GTIMU,2292,538527.300,-0.3623,-0.1931,0.6039,-0.0107,0.1198,1.0243,23.0*45
13:35::09.323,1702676127282,120.62751176,31.42735425,3478526.79115899,559661.66809176,108.88600000,6.00000000,3.04900000,-1.06300000,0.01000000,-0.36230000,-0.19310000,0.60390000,-0.01070000,0.11980000,1.02430000
$GPFPD,2292,538527.400,108.814,-0.076,1.164,31.42735321,120.62751510,12.366,3.156,-1.104,-0.011,0.795,14,13,04*54
$GTIMU,2292,538527.400,-0.0378,0.1312,0.7223,-0.0152,0.1155,0.9788,23.0*6F
13:35::09.423,1702676127382,120.62751510,31.42735321,3478526.67765746,559661.98631191,108.81400000,6.00000000,3.15600000,-1.10400000,-0.01100000,-0.03780000,0.13120000,0.72230000,-0.01520000,0.11550000,0.97880000
$GPFPD,2292,538527.500,108.718,-0.017,1.219,31.42735213,120.62751855,12.367,3.265,-1.142,-0.041,0.803,14,13,04*51
$GTIMU,2292,538527.500,0.5581,0.5491,0.9736,-0.0193,0.1173,0.9684,23.0*45
13:35::09.523,1702676127482,120.62751855,31.42735213,3478526.55978046,559662.31501601,108.71800000,6.00000000,3.26500000,-1.14200000,-0.04100000,0.55810000,0.54910000,0.97360000,-0.01930000,0.11730000,0.96840000
$GPFPD,2292,538527.600,108.639,0.075,1.242,31.42735103,120.62752213,12.367,3.388,-1.161,-0.045,0.803,14,13,04*79
$GTIMU,2292,538527.600,0.9079,0.2296,0.8165,-0.0428,0.1254,0.9948,23.0*43
13:35::09.623,1702676127582,120.62752213,31.42735103,3478526.43975647,559662.65609296,108.63900000,6.00000000,3.38800000,-1.16100000,-0.04500000,0.90790000,0.22960000,0.81650000,-0.04280000,0.12540000,0.99480000
$GPFPD,2292,538527.700,108.580,0.135,1.205,31.42734992,120.62752584,12.367,3.513,-1.184,-0.022,0.795,14,14,04*7E
$GTIMU,2292,538527.700,0.5763,-0.3715,0.6034,-0.0393,0.1312,1.0226,23.0*64
13:35::09.723,1702676127682,120.62752584,31.42734992,3478526.31869428,559663.00953644,108.58000000,6.00000000,3.51300000,-1.18400000,-0.02200000,0.57630000,-0.37150000,0.60340000,-0.03930000,0.13120000,1.02260000
$GPFPD,2292,538527.800,108.504,0.140,1.169,31.42734878,120.62752966,12.369,3.629,-1.230,-0.018,0.795,14,14,04*72
$GTIMU,2292,538527.800,0.0380,-0.3618,0.7672,-0.0144,0.1298,1.0034,23.0*64
13:35::09.823,1702676127782,120.62752966,31.42734878,3478526.19436543,559663.37345753,108.50400000,6.00000000,3.62900000,-1.23000000,-0.01800000,0.03800000,-0.36180000,0.76720000,-0.01440000,0.12980000,1.00340000
$GPFPD,2292,538527.900,108.423,0.136,1.162,31.42734765,120.62753353,12.367,3.728,-1.266,-0.011,0.797,14,13,04*72
$GTIMU,2292,538527.900,-0.0658,-0.0701,0.8057,-0.0173,0.1106,1.0061,23.0*4C
13:35::09.923,1702676127882,120.62753353,31.42734765,3478526.07117255,559663.74212622,108.42300000,6.00000000,3.72800000,-1.26600000,-0.01100000,-0.06580000,-0.07010000,0.80570000,-0.01730000,0.11060000,1.00610000
$GPFPD,2292,538528.000,108.359,0.132,1.171,31.42734650,120.62753750,12.366,3.820,-1.291,-0.002,0.797,14,13,04*74
$GTIMU,2292,538528.000,-0.0591,0.0967,0.6488,-0.0255,0.0995,1.0087,23.0*6B
13:35::10.023,1702676127982,120.62753750,31.42734650,3478525.94581638,559664.12031542,108.35900000,6.00000000,3.82000000,-1.29100000,-0.00200000,-0.05910000,0.09670000,0.64880000,-0.02550000,0.09950000,1.00870000
$GPGGA,053510.00,3125.6407775,N,12037.6529490,E,1,13,1.2,5.085,M,7.80,M,,*6F
$GPFPD,2292,538528.100,108.301,0.150,1.233,31.42734532,120.62754157,12.366,3.914,-1.326,0.000,0.797,14,13,04*5C
$GTIMU,2292,538528.100,0.1688,0.6140,0.5781,-0.0166,0.1055,1.0015,23.0*43
13:35::10.122,1702676128082,120.62754157,31.42734532,3478525.81718813,559664.50803146,108.30100000,6.00000000,3.91400000,-1.32600000,0.00000000,0.16880000,0.61400000,0.57810000,-0.01660000,0.10550000,1.00150000
$GPFPD,2292,538528.200,108.252,0.174,1.287,31.42734411,120.62754574,12.367,4.009,-1.347,0.009,0.801,14,13,04*59
$GTIMU,2292,538528.200,0.2292,0.5413,0.4981,-0.0319,0.1023,1.0081,23.0*45
13:35::10.222,1702676128182,120.62754574,31.42734411,3478525.68528779,559664.90527434,108.25200000,6.00000000,4.00900000,-1.34700000,0.00900000,0.22920000,0.54130000,0.49810000,-0.03190000,0.10230000,1.00810000
$GPFPD,2292,538528.300,108.222,0.126,1.286,31.42734290,120.62755001,12.367,4.085,-1.353,0.018,0.800,14,14,04*57
$GTIMU,2292,538528.300,-0.4911,-0.0073,0.3031,-0.0361,0.0766,1.0097,23.0*4F
13:35::10.323,1702676128282,120.62755001,31.42734290,3478525.55344177,559665.31202506,108.22200000,6.00000000,4.08500000,-1.35300000,0.01800000,-0.49110000,-0.00730000,0.30310000,-0.03610000,0.07660000,1.00970000
$GPFPD,2292,538528.400,108.199,0.063,1.261,31.42734171,120.62755441,12.363,4.146,-1.368,-0.007,0.800,14,14,04*77
$GTIMU,2292,538528.400,-0.6343,-0.2522,0.2116,-0.0268,0.0656,0.9737,23.0*4E
13:35::10.423,1702676128382,120.62755441,31.42734171,3478525.42388396,559665.73112331,108.19900000,6.00000000,4.14600000,-1.36800000,-0.00700000,-0.63430000,-0.25220000,0.21160000,-0.02680000,0.06560000,0.97370000
$GPFPD,2292,538528.500,108.179,0.103,1.196,31.42734051,120.62755888,12.354,4.226,-1.391,-0.037,0.798,14,13,04*73
$GTIMU,2292,538528.500,0.3829,-0.6416,0.2092,-0.0231,0.0865,0.9694,23.0*65
13:35::10.523,1702676128482,120.62755888,31.42734051,3478525.29325538,559666.15688338,108.17900000,6.00000000,4.22600000,-1.39100000,-0.03700000,0.38290000,-0.64160000,0.20920000,-0.02310000,0.08650000,0.96940000
$GPFPD,2292,538528.600,108.163,0.166,1.180,31.42733928,120.62756344,12.346,4.309,-1.428,-0.010,0.798,14,13,04*78
$GTIMU,2292,538528.600,0.6278,-0.1664,0.1761,-0.0118,0.0955,1.0269,23.0*61
13:35::10.623,1702676128582,120.62756344,31.42733928,3478525.15934929,559666.59121952,108.16300000,6.00000000,4.30900000,-1.42800000,-0.01000000,0.62780000,-0.16640000,0.17610000,-0.01180000,0.09550000,1.02690000
$GPFPD,2292,538528.700,108.141,0.164,1.176,31.42733801,120.62756809,12.341,4.406,-1.459,0.021,0.796,14,15,04*54
$GTIMU,2292,538528.700,-0.0235,-0.0353,0.2290,-0.0214,0.1071,1.0306,23.0*43
13:35::10.723,1702676128682,120.62756809,31.42733801,3478525.02105689,559667.03413805,108.14100000,6.00000000,4.40600000,-1.45900000,0.02100000,-0.02350000,-0.03530000,0.22900000,-0.02140000,0.10710000,1.03060000
$GPFPD,2292,538528.800,108.131,0.132,1.226,31.42733671,120.62757283,12.339,4.504,-1.492,0.003,0.796,14,15,04*52
$GTIMU,2292,538528.800,-0.3334,0.4988,0.0894,-0.0196,0.1082,0.9812,23.0*65
13:35::10.823,1702676128782,120.62757283,31.42733671,3478524.87948699,559667.48563264,108.13100000,6.00000000,4.50400000,-1.49200000,0.00300000,-0.33340000,0.49880000,0.08940000,-0.01960000,0.10820000,0.98120000
$GPFPD,2292,538528.900,108.128,0.160,1.263,31.42733535,120.62757764,12.338,4.620,-1.532,-0.026,0.799,14,15,04*78
$GTIMU,2292,538528.900,0.2827,0.3633,0.0406,-0.0191,0.1276,0.9694,23.0*40
13:35::10.922,1702676128882,120.62757764,31.42733535,3478524.73130232,559667.94382072,108.12800000,6.00000000,4.62000000,-1.53200000,-0.02600000,0.28270000,0.36330000,0.04060000,-0.01910000,0.12760000,0.96940000
$GPFPD,2292,538529.000,108.119,0.195,1.263,31.42733395,120.62758256,12.335,4.738,-1.564,-0.013,0.799,14,15,04*7F
$GTIMU,2292,538529.000,0.3367,0.0044,0.0969,-0.0286,0.1283,1.0117,23.0*4C
13:35::11.023,1702676128982,120.62758256,31.42733395,3478524.57874222,559668.41249277,108.11900000,6.00000000,4.73800000,-1.56400000,-0.01300000,0.33670000,0.00440000,0.09690000,-0.02860000,0.12830000,1.01170000
$GPFPD,2292,538529$GPGGA,05.100,108.3511.00,3107,0.190125.64003,1.192,3137,N,1203.427332537.6556246,120.6275,E,1,15,08761,12.3.9,5.056,35,4.857,M,7.80,M,-1.590,0.,*6C
006,0.799,14,15,04*57
$GTIMU,2292,538529.100,-0.0529,-0.7100,0.1207,-0.0334,0.1280,1.0189,23.0*4A
13:35::11.123,1702676129082,120.62758761,31.42733253,3478524.42403513,559668.89353768,108.10700000,6.00000000,4.85700000,-1.59000000,0.00600000,-0.05290000,-0.71000000,0.12070000,-0.03340000,0.12800000,1.01890000
$GPFPD,2292,538529.200,108.113,0.176,1.097,31.42733108,120.62759278,12.336,4.972,-1.616,0.009,0.796,14,15,04*54
$GTIMU,2292,538529.200,-0.1362,-0.9571,-0.0628,-0.0308,0.1235,1.0020,23.0*6B
13:35::11.223,1702676129182,120.62759278,31.42733108,3478524.26606684,559669.38601101,108.11300000,6.00000000,4.97200000,-1.61600000,0.00900000,-0.13620000,-0.95710000,-0.06280000,-0.03080000,0.12350000,1.00200000
$GPFPD,2292,538529.300,108.128,0.179,1.039,31.42732959,120.62759805,12.337,5.069,-1.668,0.005,0.805,14,15,04*58
$GTIMU,2292,538529.300,0.0244,-0.5813,-0.1339,-0.0043,0.1165,0.9908,23.0*43
13:35::11.323,1702676129282,120.62759805,31.42732959,3478524.10371767,559669.88801752,108.12800000,6.00000000,5.06900000,-1.66800000,0.00500000,0.02440000,-0.58130000,-0.13390000,-0.00430000,0.11650000,0.99080000
$GPFPD,2292,538529.400,108.124,0.212,1.026,31.42732801,120.62760338,12.340,5.164,-1.718,-0.006,0.805,14,15,04*74
$GTIMU,2292,538529.400,0.3261,-0.1280,0.0434,0.0008,0.1119,0.9887,23.0*4D
13:35::11.423,1702676129382,120.62760338,31.42732801,3478523.93142193,559670.39578574,108.12400000,6.00000000,5.16400000,-1.71800000,-0.00600000,0.32610000,-0.12800000,0.04340000,0.00080000,0.11190000,0.98870000
$GPFPD,2292,538529.500,108.106,0.266,1.069,31.42732639,120.62760881,12.342,5.263,-1.753,-0.007,0.791,14,15,04*7B
$GTIMU,2292,538529.500,0.5291,0.4215,0.1911,-0.0146,0.1114,0.9979,23.0*41
13:35::11.523,1702676129482,120.62760881,31.42732639,3478523.75474532,559670.91308715,108.10600000,6.00000000,5.26300000,-1.75300000,-0.00700000,0.52910000,0.42150000,0.19110000,-0.01460000,0.11140000,0.99790000
$GPFPD,2292,538529.600,108.112,0.286,1.052,31.42732475,120.62761435,12.344,5.369,-1.764,-0.000,0.791,14,15,04*7D
$GTIMU,2292,538529.600,0.1980,-0.1716,-0.0522,-0.0413,0.1118,1.0055,23.0*45
13:35::11.623,1702676129582,120.62761435,31.42732475,3478523.57591087,559671.44085987,108.11200000,6.00000000,5.36900000,-1.76400000,0.00000000,0.19800000,-0.17160000,-0.05220000,-0.04130000,0.11180000,1.00550000
$GPFPD,2292,538529.700,108.140,0.266,1.029,31.42732310,120.62762000,12.348,5.467,-1.794,0.006,0.806,14,16,04*5F
$GTIMU,2292,538529.700,-0.1967,-0.2308,-0.2753,-0.0200,0.1108,1.0055,23.0*6B
13:35::11.723,1702676129682,120.62762000,31.42732310,3478523.39602739,559671.97909755,108.14000000,6.00000000,5.46700000,-1.79400000,0.00600000,-0.19670000,-0.23080000,-0.27530000,-0.02000000,0.11080000,1.00550000
$GPFPD,2292,538529.800,108.138,0.206,0.953,31.42732142,120.62762576,12.352,5.559,-1.833,0.026,0.806,14,16,04*5A
$GTIMU,2292,538529.800,-0.5978,-0.7630,0.0045,-0.0091,0.1062,1.0195,23.0*40
13:35::11.823,1702676129782,120.62762576,31.42732142,3478523.21287728,559672.52781287,108.13800000,6.00000000,5.55900000,-1.83300000,0.02600000,-0.59780000,-0.76300000,0.00450000,-0.00910000,0.10620000,1.01950000
$GPFPD,2292,538529.900,108.127,0.124,0.931,31.42731975,120.62763166,12.355,5.653,-1.867,0.037,0.795,14,16,04*53
$GTIMU,2292,538529.900,-0.8298,-0.2156,0.1049,-0.0131,0.1050,1.0109,23.0*49
13:35::11.923,1702676129882,120.62763166,31.42731975,3478523.03091203,559673.08983285,108.12700000,6.00000000,5.65300000,-1.86700000,0.03700000,-0.82980000,-0.21560000,0.10490000,-0.01310000,0.10500000,1.01090000
$GPFPD,2292,538530.000,108.135,0.040,0.937,31.42731805,120.62763766,12.358,5.748,-1.899,0.015,0.795,14,16,04*53
$GTIMU,2292,538530.000,-0.8400,0.0598,-0.0907,-0.0149,0.1040,0.9767,23.0*41
13:35::12.023,1702676129982,120.62763766,31.42731805,3478522.84567472,559673.66137968,108.13500000,6.00000000,5.74800000,-1.89900000,0.01500000,-0.84000000,0.05980000,-0.09070000,-0.01490000,0.10400000,0.97670000
$GPFPD,2292,538530$GPGGA,05.100,108.3512.00,3148,-0.05125.639226,0.970,350,N,12031.42731637.65883772,120.627,E,1,16,064375,12..8,5.447,359,5.838M,7.80,M,,-1.940,0,*65
.001,0.795,14,16,04*73
$GTIMU,2292,538530.100,-0.9589,0.3289,-0.1452,-0.0049,0.1002,0.9853,23.0*46
13:35::12.123,1702676130082,120.62764375,31.42731632,3478522.65715992,559674.24150259,108.14800000,6.00000000,5.83800000,-1.94000000,0.00100000,-0.95890000,0.32890000,-0.14520000,-0.00490000,0.10020000,0.98530000
$GPFPD,2292,538530.200,108.139,-0.137,0.984,31.42731455,120.62764995,12.359,5.928,-1.969,-0.005,0.804,14,16,04*59
$GTIMU,2292,538530.200,-0.8178,0.1330,0.0792,-0.0166,0.0959,0.9937,23.0*65
13:35::12.223,1702676130182,120.62764995,31.42731455,3478522.46426970,559674.83210948,108.13900000,6.00000000,5.92800000,-1.96900000,-0.00500000,-0.81780000,0.13300000,0.07920000,-0.01660000,0.09590000,0.99370000
$GPFPD,2292,538530.300,108.134,-0.210,1.005,31.42731277,120.62765622,12.357,6.018,-1.992,-0.010,0.796,15,15,04*57
$GTIMU,2292,538530.300,-0.7412,0.2132,0.0328,-0.0257,0.0957,0.9984,23.0*63
13:35::12.323,1702676130282,120.62765622,31.42731277,3478522.27030873,559675.42937820,108.13400000,6.00000000,6.01800000,-1.99200000,-0.01000000,-0.74120000,0.21320000,0.03280000,-0.02570000,0.09570000,0.99840000
$GPFPD,2292,538530.400,108.152,-0.350,0.991,31.42731097,120.62766252,12.351,6.109,-2.016,-0.010,0.796,15,15,04*5D
$GTIMU,2292,538530.400,-1.3959,-0.1433,-0.1977,-0.0225,0.0915,0.9998,23.0*6B
13:35::12.423,1702676130382,120.62766252,31.42731097,3478522.07414649,559676.02951197,108.15200000,6.00000000,6.10900000,-2.01600000,-0.01000000,-1.39590000,-0.14330000,-0.19770000,-0.02250000,0.09150000,0.99980000
$GPFPD,2292,538530.500,108.170,-0.441,0.982,31.42730913,120.62766891,12.342,6.190,-2.052,-0.037,0.800,15,16,04*5C
$GTIMU,2292,538530.500,-0.9121,-0.0924,-0.1909,-0.0078,0.0844,0.9722,23.0*65
13:35::12.523,1702676130482,120.62766891,31.42730913,3478521.87359797,559676.63822815,108.17000000,6.00000000,6.19000000,-2.05200000,-0.03700000,-0.91210000,-0.09240000,-0.19090000,-0.00780000,0.08440000,0.97220000
$GPFPD,2292,538530.600,108.183,-0.458,0.952,31.42730728,120.62767539,12.332,6.277,-2.079,-0.058,0.800,15,16,04*53
$GTIMU,2292,538530.600,-0.1669,-0.2963,-0.1345,-0.0175,0.0856,0.9790,23.0*60
13:35::12.623,1702676130582,120.62767539,31.42730728,3478521.67198956,559677.25550774,108.18300000,6.00000000,6.27700000,-2.07900000,-0.05800000,-0.16690000,-0.29630000,-0.13450000,-0.01750000,0.08560000,0.97900000
$GPFPD,2292,538530.700,108.223,-0.434,0.985,31.42730539,120.62768196,12.320,6.367,-2.115,-0.069,0.807,15,16,04*5A
$GTIMU,2292,538530.700,0.2451,0.3348,-0.3962,-0.0104,0.0912,0.9894,23.0*68
13:35::12.723,1702676130682,120.62768196,31.42730539,3478521.46599488,559677.88136974,108.22300000,6.00000000,6.36700000,-2.11500000,-0.06900000,0.24510000,0.33480000,-0.39620000,-0.01040000,0.09120000,0.98940000
$GPFPD,2292,538530.800,108.272,-0.411,1.007,31.42730347,120.62768865,12.307,6.452,-2.155,-0.079,0.807,15,16,04*5F
$GTIMU,2292,538530.800,0.2316,0.2224,-0.4811,-0.0054,0.0888,0.9898,23.0*61
13:35::12.823,1702676130782,120.62768865,31.42730347,3478521.25673901,559678.51866017,108.27200000,6.00000000,6.45200000,-2.15500000,-0.07900000,0.23160000,0.22240000,-0.48110000,-0.00540000,0.08880000,0.98980000
$GPFPD,2292,538530.900,108.310,-0.416,1.047,31.42730151,120.62769548,12.300,6.539,-2.187,-0.074,0.795,15,16,04*53
$GTIMU,2292,538530.900,-0.0459,0.3958,-0.3761,-0.0145,0.0876,1.0061,23.0*4B
13:35::12.923,1702676130882,120.62769548,31.42730151,3478521.04312403,559679.16928694,108.31000000,6.00000000,6.53900000,-2.18700000,-0.07400000,-0.04590000,0.39580000,-0.37610000,-0.01450000,0.08760000,1.00610000
$GPFPD,2292,538531.000,108.387,-0.429,1.064,31.42729953,120.62770241,12.294,6.625,-2.202,-0.040,0.795,15,16,04*57
$GTIMU,2292,538531.000,-0.1161,0.1803,-0.7740,-0.0319,0.0802,1.0341,23.0*4F
13:35::13.023,1702676130982,120.62770241,31.42729953,3478520.82734580,559679.82943425,108.38700000,6.00000000,6.62500000,-2.20200000,-0.04000000,-0.11610000,0.18030000,-0.77400000,-0.03190000,0.08020000,1.03410000
$GPFPD,2292,538531$GPGGA,0.100,108.53513.00,476,-0.443125.6381,1.087,30845,N,121.4272975037.662512,120.62750,E,1,1570941,12.,0.9,5.88290,6.6902,M,7.80,,-2.243,-M,,*6D
0.046,0.795,15,16,04*51
$GTIMU,2292,538531.100,-0.1084,0.2344,-0.8904,0.0006,0.0693,0.9950,23.0*6A
13:35::13.123,1702676131082,120.62770941,31.42729752,3478520.60827923,559680.49625607,108.47600000,6.00000000,6.69000000,-2.24300000,-0.04600000,-0.10840000,0.23440000,-0.89040000,0.00060000,0.06930000,0.99500000
$GPFPD,2292,538531.200,108.544,-0.369,1.104,31.42729549,120.62771648,12.284,6.753,-2.283,-0.088,0.807,14,15,04*59
$GTIMU,2292,538531.200,0.7284,0.1723,-0.6660,0.0002,0.0677,0.9575,23.0*40
13:35::13.222,1702676131182,120.62771648,31.42729549,3478520.38703314,559681.16974608,108.54400000,6.00000000,6.75300000,-2.28300000,-0.08800000,0.72840000,0.17230000,-0.66600000,0.00020000,0.06770000,0.95750000
$GPFPD,2292,538531.300,108.580,-0.264,1.086,31.42729342,120.62772363,12.277,6.821,-2.313,-0.077,0.795,16,14,04*5C
$GTIMU,2292,538531.300,1.0561,-0.1785,-0.3382,-0.0066,0.0684,1.0054,23.0*4B
13:35::13.323,1702676131282,120.62772363,31.42729342,3478520.16139534,559681.85086772,108.58000000,6.00000000,6.82100000,-2.31300000,-0.07700000,1.05610000,-0.17850000,-0.33820000,-0.00660000,0.06840000,1.00540000
$GPFPD,2292,538531.400,108.625,-0.218,1.144,31.42729140,120.62773084,12.283,6.865,-2.342,-0.040,0.795,16,14,04*53
$GTIMU,2292,538531.400,0.4573,0.5775,-0.4355,-0.0063,0.0486,1.0375,23.0*64
13:35::13.423,1702676131382,120.62773084,31.42729140,3478519.94133417,559682.53766242,108.62500000,6.00000000,6.86500000,-2.34200000,-0.04000000,0.45730000,0.57750000,-0.43550000,-0.00630000,0.04860000,1.03750000
$GPFPD,2292,538531.500,108.654,-0.203,1.178,31.42728935,120.62773811,12.292,6.918,-2.369,-0.019,0.808,16,14,04*5B
$GTIMU,2292,538531.500,0.1524,0.3421,-0.2882,-0.0112,0.0568,1.0217,23.0*62
13:35::13.523,1702676131482,120.62773811,31.42728935,3478519.71797924,559683.23018086,108.65400000,6.00000000,6.91800000,-2.36900000,-0.01900000,0.15240000,0.34210000,-0.28820000,-0.01120000,0.05680000,1.02170000
$GPFPD,2292,538531.600,108.692,-0.183,1.209,31.42728728,120.62774543,12.301,6.982,-2.373,-0.030,0.808,16,14,04*5B
$GTIMU,2292,538531.600,0.2100,0.3149,-0.3687,-0.0374,0.0607,0.9880,23.0*65
13:35::13.623,1702676131582,120.62774543,31.42728728,3478519.49243392,559683.92746592,108.69200000,6.00000000,6.98200000,-2.37300000,-0.03000000,0.21000000,0.31490000,-0.36870000,-0.03740000,0.06070000,0.98800000
$GPFPD,2292,538531.700,108.754,-0.120,1.173,31.42728521,120.62775283,12.309,7.041,-2.392,-0.040,0.799,15,14,04*54
$GTIMU,2292,538531.700,0.6401,-0.3593,-0.6121,-0.0216,0.0609,0.9893,23.0*4D
13:35::13.723,1702676131682,120.62775283,31.42728521,3478519.26693209,559684.63235728,108.75400000,6.00000000,7.04100000,-2.39200000,-0.04000000,0.64010000,-0.35930000,-0.61210000,-0.02160000,0.06090000,0.98930000
$GPFPD,2292,538531.800,108.794,-0.060,1.097,31.42728309,120.62776027,12.316,7.095,-2.421,-0.016,0.799,15,14,04*51
$GTIMU,2292,538531.800,0.6024,-0.7621,-0.3868,-0.0098,0.0608,1.0240,23.0*47
13:35::13.823,1702676131782,120.62776027,31.42728309,3478519.03590805,559685.34108349,108.79400000,6.00000000,7.09500000,-2.42100000,-0.01600000,0.60240000,-0.76210000,-0.38680000,-0.00980000,0.06080000,1.02400000
$GPFPD,2292,538531.900,108.841,-0.034,1.083,31.42728090,120.62776777,12.315,7.163,-2.448,-0.021,0.812,14,14,04*5F
$GTIMU,2292,538531.900,0.2616,-0.1438,-0.4629,-0.0143,0.0736,0.9949,23.0*44
13:35::13.923,1702676131882,120.62776777,31.42728090,3478518.79715505,559686.05555877,108.84100000,6.00000000,7.16300000,-2.44800000,-0.02100000,0.26160000,-0.14380000,-0.46290000,-0.01430000,0.07360000,0.99490000
$GPFPD,2292,538532.000,108.889,-0.032,1.046,31.42727867,120.62777534,12.313,7.228,-2.482,-0.010,0.812,14,14,04*5B
$GTIMU,2292,538532.000,0.0239,-0.3648,-0.4692,-0.0077,0.0748,1.0107,23.0*47
13:35::14.023,1702676131982,120.62777534,31.42727867,3478518.55400494,559686.77671491,108.88900000,6.00000000,7.22800000,-2.48200000,-0.01000000,0.02390000,-0.36480000,-0.46920000,-0.00770000,0.07480000,1.01070000
$GPGGA,053514.00,3125.6368028,N,12037.6671926,E,1,14,1.1,5.094,M,7.80,M,,*60
$GPFPD,2292,538532.100,108.924,-0.095,1.084,31.42727642,120.62778298,12.314,7.297,-2.523,0.009,0.812,14,14,04*74
$GTIMU,2292,538532.100,-0.6188,0.3728,-0.3673,-0.0018,0.0795,1.0196,23.0*47
13:35::14.123,1702676132082,120.62778298,31.42727642,3478518.30867529,559687.50453925,108.92400000,6.00000000,7.29700000,-2.52300000,0.00900000,-0.61880000,0.37280000,-0.36730000,-0.00180000,0.07950000,1.01960000
$GPFPD,2292,538532.200,108.960,-0.164,1.087,31.42727413,120.62779069,12.315,7.369,-2.544,-0.002,0.799,13,14,04*5D
$GTIMU,2292,538532.200,-0.6909,0.0322,-0.3694,-0.0220,0.0737,0.9886,23.0*40
13:35::14.223,1702676132182,120.62779069,31.42727413,3478518.05894853,559688.23904445,108.96000000,6.00000000,7.36900000,-2.54400000,-0.00200000,-0.69090000,0.03220000,-0.36940000,-0.02200000,0.07370000,0.98860000
$GPFPD,2292,538532.300,109.004,-0.213,1.117,31.42727183,120.62779849,12.315,7.438,-2.575,-0.003,0.794,14,13,04*56
$GTIMU,2292,538532.300,-0.4840,0.3034,-0.4395,-0.0057,0.0715,0.9939,23.0*4C
13:35::14.323,1702676132282,120.62779849,31.42727183,3478517.80816191,559688.98211307,109.00400000,6.00000000,7.43800000,-2.57500000,-0.00300000,-0.48400000,0.30340000,-0.43950000,-0.00570000,0.07150000,0.99390000
$GPFPD,2292,538532.400,109.036,-0.189,1.168,31.42726957,120.62780643,12.318,7.501,-2.607,-0.038,0.794,14,13,04*52
$GTIMU,2292,538532.400,0.2434,0.5064,-0.3163,-0.0088,0.0687,0.9644,23.0*6D
13:35::14.423,1702676132382,120.62780643,31.42726957,3478517.56188659,559689.73846737,109.03600000,6.00000000,7.50100000,-2.60700000,-0.03800000,0.24340000,0.50640000,-0.31630000,-0.00880000,0.06870000,0.96440000
$GPFPD,2292,538532.500,109.081,-0.140,1.187,31.42726727,120.62781443,12.319,7.572,-2.627,-0.025,0.802,14,12,04*5B
$GTIMU,2292,538532.500,0.4997,0.1966,-0.4356,-0.0251,0.0730,1.0129,23.0*6D
13:35::14.523,1702676132482,120.62781443,31.42726727,3478517.31120873,559690.50055176,109.08100000,6.00000000,7.57200000,-2.62700000,-0.02500000,0.49970000,0.19660000,-0.43560000,-0.02510000,0.07300000,1.01290000
$GPFPD,2292,538532.600,109.133,-0.140,1.225,31.42726496,120.62782250,12.321,7.643,-2.665,-0.024,0.802,14,12,04*58
$GTIMU,2292,538532.600,0.0076,0.3760,-0.5137,-0.0075,0.0783,1.0006,23.0*62
13:35::14.622,1702676132582,120.62782250,31.42726496,3478517.05946014,559691.26929800,109.13300000,6.00000000,7.64300000,-2.66500000,-0.02400000,0.00760000,0.37600000,-0.51370000,-0.00750000,0.07830000,1.00060000
$GPFPD,2292,538532.700,109.162,-0.186,1.190,31.42726261,120.62783065,12.324,7.707,-2.691,-0.006,0.800,14,12,04*5C
$GTIMU,2292,538532.700,-0.4650,-0.3540,-0.3049,-0.0174,0.0685,1.0186,23.0*65
13:35::14.723,1702676132682,120.62783065,31.42726261,3478516.80331988,559692.04567590,109.16200000,6.00000000,7.70700000,-2.69100000,-0.00600000,-0.46500000,-0.35400000,-0.30490000,-0.01740000,0.06850000,1.01860000
$GPFPD,2292,538532.800,109.219,-0.132,1.150,31.42726023,120.62783885,12.327,7.772,-2.710,-0.025,0.800,14,12,04*55
$GTIMU,2292,538532.800,0.5527,-0.3917,-0.5515,-0.0234,0.0666,0.9796,23.0*44
13:35::14.823,1702676132782,120.62783885,31.42726023,3478516.54388044,559692.82682676,109.21900000,6.00000000,7.77200000,-2.71000000,-0.02500000,0.55270000,-0.39170000,-0.55150000,-0.02340000,0.06660000,0.97960000
$GPFPD,2292,538532.900,109.277,-0.007,1.071,31.42725777,120.62784706,12.324,7.835,-2.741,-0.040,0.793,14,12,04*52
$GTIMU,2292,538532.900,1.2525,-0.7935,-0.5589,-0.0099,0.0707,0.9843,23.0*44
13:35::14.923,1702676132882,120.62784706,31.42725777,3478516.27557610,559693.60897913,109.27700000,6.00000000,7.83500000,-2.74100000,-0.04000000,1.25250000,-0.79350000,-0.55890000,-0.00990000,0.07070000,0.98430000
$GPFPD,2292,538533.000,109.346,0.117,1.054,31.42725528,120.62785534,12.319,7.903,-2.769,-0.021,0.793,14,12,04*7E
$GTIMU,2292,538533.000,1.2563,-0.1725,-0.6592,-0.0147,0.0767,1.0187,23.0*43
13:35::15.023,1702676132982,120.62785534,31.42725528,3478516.00398345,559694.39780604,109.34600000,6.00000000,7.90300000,-2.76900000,-0.02100000,1.25630000,-0.17250000,-0.65920000,-0.01470000,0.07670000,1.01870000
$GPGGA,053515.00,3125.6354743,N,12037.6720876,E,1,12,1.5,4.875,M,7.80,M,,*61
$GPFPD,2292,538533.100,109.457,0.020,1.030,31.42725277,120.62786369,12.321,7.965,-2.805,0.052,0.793,14,12,04*58
$GTIMU,2292,538533.100,-0.9547,-0.2379,-1.1279,-0.0059,0.0736,1.0741,23.0*6F
13:35::15.123,1702676133082,120.62786369,31.42725277,3478515.73021129,559695.19330116,109.45700000,6.00000000,7.96500000,-2.80500000,0.05200000,-0.95470000,-0.23790000,-1.12790000,-0.00590000,0.07360000,1.07410000
$GPFPD,2292,538533.200,109.579,-0.166,0.961,31.42725022,120.62787210,12.327,8.023,-2.840,0.059,0.796,14,12,04*75
$GTIMU,2292,538533.200,-1.8398,-0.6972,-1.2529,-0.0031,0.0673,1.0070,23.0*67
13:35::15.223,1702676133182,120.62787210,31.42725022,3478515.45203660,559695.99452636,109.57900000,6.00000000,8.02300000,-2.84000000,0.05900000,-1.83980000,-0.69720000,-1.25290000,-0.00310000,0.06730000,1.00700000
$GPFPD,2292,538533.300,109.726,-0.283,0.974,31.42724763,120.62788058,12.329,8.077,-2.894,-0.002,0.800,14,12,04*57
$GTIMU,2292,538533.300,-1.1541,0.1390,-1.4753,0.0148,0.0637,0.9436,23.0*64
13:35::15.323,1702676133282,120.62788058,31.42724763,3478515.16946480,559696.80243245,109.72600000,6.00000000,8.07700000,-2.89400000,-0.00200000,-1.15410000,0.13900000,-1.47530000,0.01480000,0.06370000,0.94360000
$GPFPD,2292,538533.400,109.860,-0.309,1.036,31.42724495,120.62788914,12.314,8.128,-2.955,-0.053,0.800,14,12,04*56
$GTIMU,2292,538533.400,-0.2349,0.6205,-1.3395,0.0243,0.0651,0.9484,23.0*6D
13:35::15.423,1702676133382,120.62788914,31.42724495,3478514.87695733,559697.61800187,109.86000000,6.00000000,8.12800000,-2.95500000,-0.05300000,-0.23490000,0.62050000,-1.33950000,0.02430000,0.06510000,0.94840000
$GPFPD,2292,538533.500,109.998,-0.280,1.100,31.42724224,120.62789775,12.297,8.187,-2.986,-0.058,0.793,14,12,04*5E
$GTIMU,2292,538533.500,0.3118,0.6498,-1.3687,-0.0091,0.0636,0.9942,23.0*64
13:35::15.523,1702676133482,120.62789775,31.42724224,3478514.58115070,559698.43834428,109.99800000,6.00000000,8.18700000,-2.98600000,-0.05800000,0.31180000,0.64980000,-1.36870000,-0.00910000,0.06360000,0.99420000
$GPFPD,2292,538533.600,110.142,-0.274,1.159,31.42723949,120.62790643,12.282,8.242,-3.031,-0.035,0.793,14,12,04*57
$GTIMU,2292,538533.600,0.0804,0.5892,-1.4452,0.0036,0.0639,1.0243,23.0*45
13:35::15.623,1702676133582,120.62790643,31.42723949,3478514.28094696,559699.26536756,110.14200000,6.00000000,8.24200000,-3.03100000,-0.03500000,0.08040000,0.58920000,-1.44520000,0.00360000,0.06390000,1.02430000
$GPFPD,2292,538533.700,110.248,-0.258,1.163,31.42723669,120.62791517,12.267,8.298,-3.071,-0.039,0.807,14,12,04*50
$GTIMU,2292,538533.700,0.1821,0.0451,-1.0530,-0.0013,0.0634,0.9962,23.0*62
13:35::15.723,1702676133682,120.62791517,31.42723669,3478513.97523190,559700.09812729,110.24800000,6.00000000,8.29800000,-3.07100000,-0.03900000,0.18210000,0.04510000,-1.05300000,-0.00130000,0.06340000,0.99620000
$GPFPD,2292,538533.800,110.368,-0.305,1.105,31.42723388,120.62792396,12.255,8.359,-3.094,-0.026,0.807,14,12,04*5B
