$GPFPD,2292,543072.300,290.037,-0.085,1.005,31.42698170,120.62962663,14.252,0.007,0.003,0.008,0.802,24,21,04*58
$GTIMU,2292,543072.300,-0.0070,0.0076,0.0048,-0.0164,-0.0002,0.9969,31.6*4C
14:50::54.320,1702680672282,120.62962663,31.42698170,3478486.63311390,559862.98310067,290.03700000,6.00000000,0.00700000,0.00300000,0.00800000,-0.00700000,0.00760000,0.00480000,-0.01640000,-0.00020000,0.99690000
$GPFPD,2292,543072.400,290.038,-0.084,1.008,31.42698168,120.62962664,14.259,0.007,0.003,0.010,0.802,24,21,04*50
$GTIMU,2292,543072.400,0.0174,0.0292,-0.0124,-0.0186,-0.0004,1.0019,31.6*41
14:50::54.420,1702680672382,120.62962664,31.42698168,3478486.63090175,559862.98406417,290.03800000,6.00000000,0.00700000,0.00300000,0.01000000,0.01740000,0.02920000,-0.01240000,-0.01860000,-0.00040000,1.00190000
$GPFPD,2292,543072.500,290.036,-0.086,1.003,31.42698165,120.62962665,14.267,0.006,0.003,0.010,0.801,24,21,04*55
$GTIMU,2292,543072.500,-0.0219,-0.0459,0.0185,-0.0178,-0.0006,0.9988,31.6*65
14:50::54.520,1702680672482,120.62962665,31.42698165,3478486.62758080,559862.98503402,290.03600000,6.00000000,0.00600000,0.00300000,0.01000000,-0.02190000,-0.04590000,0.01850000,-0.01780000,-0.00060000,0.99880000
$GPFPD,2292,543072.600,290.037,-0.082,1.005,31.42698163,120.62962666,14.274,0.006,0.003,0.007,0.801,24,21,04*54
$GTIMU,2292,543072.600,0.0423,0.0246,-0.0079,-0.0170,-0.0004,0.9971,31.6*42
14:50::54.620,1702680672582,120.62962666,31.42698163,3478486.62536865,559862.98599751,290.03700000,6.00000000,0.00600000,0.00300000,0.00700000,0.04230000,0.02460000,-0.00790000,-0.01700000,-0.00040000,0.99710000
$GPFPD,2292,543072.700,290.039,-0.075,1.006,31.42698161,120.62962666,14.282,0.002,0.005,0.006,0.801,24,21,04*58
$GTIMU,2292,543072.700,0.0769,0.0075,-0.0131,-0.0171,0.0043,0.9987,31.6*67
14:50::54.720,1702680672682,120.62962666,31.42698161,3478486.62315105,559862.98601022,290.03900000,6.00000000,0.00200000,0.00500000,0.00600000,0.07690000,0.00750000,-0.01310000,-0.01710000,0.00430000,0.99870000
$GPFPD,2292,543072.800,290.037,-0.074,1.006,31.42698159,120.62962667,14.288,0.008,0.003,0.008,0.801,24,21,04*5A
$GTIMU,2292,543072.800,0.0117,0.0053,0.0230,-0.0179,-0.0074,1.0016,31.6*64
14:50::54.820,1702680672782,120.62962667,31.42698159,3478486.62093890,559862.98697371,290.03700000,6.00000000,0.00800000,0.00300000,0.00800000,0.01170000,0.00530000,0.02300000,-0.01790000,-0.00740000,1.00160000
$GPFPD,2292,543072.900,290.039,-0.069,1.008,31.42698160,120.62962668,14.288,0.009,0.002,0.008,0.803,24,21,04*50
$GTIMU,2292,543072.900,0.0565,0.0155,-0.0113,-0.0184,-0.0021,1.0000,31.6*49
14:50::54.920,1702680672882,120.62962668,31.42698160,3478486.62205315,559862.98791814,290.03900000,6.00000000,0.00900000,0.00200000,0.00800000,0.05650000,0.01550000,-0.01130000,-0.01840000,-0.00210000,1.00000000
$GPFPD,2292,543073.000,290.039,-0.063,1.005,31.42698160,120.62962669,14.289,0.006,0.003,0.009,0.803,24,21,04*50
$GTIMU,2292,543073.000,0.0610,-0.0254,0.0029,-0.0174,0.0035,1.0004,31.6*69
14:50::55.020,1702680672982,120.62962669,31.42698160,3478486.62205859,559862.98886893,290.03900000,6.00000000,0.00600000,0.00300000,0.00900000,0.06100000,-0.02540000,0.00290000,-0.01740000,0.00350000,1.00040000
$GPGGA,065055.00,3125.6188468,N,12037.7769639,E,1,21,0.9,7.462,M,7.80,M,,*61
$GPFPD,2292,543073.100,290.038,-0.066,1.006,31.42698160,120.62962670,14.290,0.006,0.004,0.010,0.803,24,21,04*59
$GTIMU,2292,543073.100,-0.0235,0.0064,0.0031,-0.0172,-0.0011,1.0005,31.6*4F
14:50::55.120,1702680673082,120.62962670,31.42698160,3478486.62206404,559862.98981972,290.03800000,6.00000000,0.00600000,0.00400000,0.01000000,-0.02350000,0.00640000,0.00310000,-0.01720000,-0.00110000,1.00050000
$GPFPD,2292,543073.200,290.039,-0.063,1.006,31.42698160,120.62962670,14.291,0.006,0.003,0.008,0.804,24,21,04*56
$GTIMU,2292,543073.200,0.0304,0.0093,-0.0038,-0.0177,-0.0007,0.9976,31.6*49
14:50::55.220,1702680673182,120.62962670,31.42698160,3478486.62206404,559862.98981972,290.03900000,6.00000000,0.00600000,0.00300000,0.00800000,0.03040000,0.00930000,-0.00380000,-0.01770000,-0.00070000,0.99760000
$GPFPD,2292,543073.300,290.039,-0.059,1.006,31.42698160,120.62962671,14.293,0.007,0.001,0.012,0.802,24,21,04*53
$GTIMU,2292,543073.300,0.0429,-0.0050,0.0070,-0.0177,-0.0016,1.0011,31.6*43
14:50::55.320,1702680673282,120.62962671,31.42698160,3478486.62206949,559862.99077051,290.03900000,6.00000000,0.00700000,0.00100000,0.01200000,0.04290000,-0.00500000,0.00700000,-0.01770000,-0.00160000,1.00110000
$GPFPD,2292,543073.400,290.039,-0.058,1.005,31.42698158,120.62962671,14.299,0.006,0.001,0.012,0.802,24,21,04*56
$GTIMU,2292,543073.400,0.0111,-0.0032,0.0002,-0.0184,0.0009,1.0000,31.6*64
14:50::55.420,1702680673382,120.62962671,31.42698158,3478486.61985189,559862.99078321,290.03900000,6.00000000,0.00600000,0.00100000,0.01200000,0.01110000,-0.00320000,0.00020000,-0.01840000,0.00090000,1.00000000
$GPFPD,2292,543073.500,290.040,-0.057,1.005,31.42698155,120.62962671,14.305,0.006,0.002,0.012,0.803,24,21,04*5D
$GTIMU,2292,543073.500,0.0139,-0.0067,-0.0010,-0.0165,-0.0003,0.9988,31.6*68
14:50::55.520,1702680673482,120.62962671,31.42698155,3478486.61652549,559862.99080227,290.04000000,6.00000000,0.00600000,0.00200000,0.01200000,0.01390000,-0.00670000,-0.00100000,-0.01650000,-0.00030000,0.99880000
$GPFPD,2292,543073.600,290.039,-0.054,1.004,31.42698153,120.62962671,14.311,0.008,0.001,0.012,0.803,24,21,04*5C
$GTIMU,2292,543073.600,0.0350,-0.0016,0.0127,-0.0177,-0.0026,1.0002,31.6*4F
14:50::55.620,1702680673582,120.62962671,31.42698153,3478486.61430790,559862.99081498,290.03900000,6.00000000,0.00800000,0.00100000,0.01200000,0.03500000,-0.00160000,0.01270000,-0.01770000,-0.00260000,1.00020000
$GPFPD,2292,543073.700,290.040,-0.054,1.006,31.42698150,120.62962671,14.317,0.006,0.002,0.012,0.802,24,21,04*58
$GTIMU,2292,543073.700,0.0071,0.0155,-0.0055,-0.0178,0.0016,1.0000,31.6*6F
14:50::55.720,1702680673682,120.62962671,31.42698150,3478486.61098150,559862.99083404,290.04000000,6.00000000,0.00600000,0.00200000,0.01200000,0.00710000,0.01550000,-0.00550000,-0.01780000,0.00160000,1.00000000
$GPFPD,2292,543073.800,290.039,-0.054,1.006,31.42698149,120.62962671,14.322,0.006,0.002,0.013,0.802,24,21,04*56
$GTIMU,2292,543073.800,0.0020,0.0019,0.0053,-0.0178,0.0001,0.9997,31.6*4F
14:50::55.820,1702680673782,120.62962671,31.42698149,3478486.60987270,559862.99084039,290.03900000,6.00000000,0.00600000,0.00200000,0.01300000,0.00200000,0.00190000,0.00530000,-0.01780000,0.00010000,0.99970000
$GPFPD,2292,543073.900,290.039,-0.053,1.004,31.42698149,120.62962672,14.323,0.008,0.001,0.013,0.803,24,21,04*5C
$GTIMU,2292,543073.900,0.0139,-0.0123,0.0030,-0.0178,-0.0026,1.0000,31.6*40
14:50::55.920,1702680673882,120.62962672,31.42698149,3478486.60987815,559862.99179118,290.03900000,6.00000000,0.00800000,0.00100000,0.01300000,0.01390000,-0.01230000,0.00300000,-0.01780000,-0.00260000,1.00000000
$GPFPD,2292,543074.000,290.040,-0.053,1.007,31.42698149,120.62962673,14.324,0.006,0.002,0.012,0.803,24,21,04*55
$GTIMU,2292,543074.000,0.0060,0.0218,-0.0038,-0.0168,0.0020,0.9983,31.6*60
14:50::56.020,1702680673982,120.62962673,31.42698149,3478486.60988360,559862.99274197,290.04000000,6.00000000,0.00600000,0.00200000,0.01200000,0.00600000,0.02180000,-0.00380000,-0.01680000,0.00200000,0.99830000
$GPGGA,065056.00,3125.6188442,N,12037.7769692,E,1,21,0.9,7.445,M,7.80,M,,*6E
$GPFPD,2292,543074.100,290.039,-0.052,1.003,31.42698149,120.62962673,14.325,0.006,0.001,0.014,0.803,24,21,04*5B
$GTIMU,2292,543074.100,0.0133,-0.0300,0.0105,-0.0192,-0.0011,1.0018,31.6*48
14:50::56.120,1702680674082,120.62962673,31.42698149,3478486.60988360,559862.99274197,290.03900000,6.00000000,0.00600000,0.00100000,0.01400000,0.01330000,-0.03000000,0.01050000,-0.01920000,-0.00110000,1.00180000
$GPFPD,2292,543074.200,290.039,-0.054,1.005,31.42698149,120.62962674,14.327,0.006,0.002,0.013,0.804,24,21,04*5E
$GTIMU,2292,543074.200,-0.0178,0.0155,0.0008,-0.0162,-0.0002,0.9984,31.6*43
14:50::56.220,1702680674182,120.62962674,31.42698149,3478486.60988904,559862.99369276,290.03900000,6.00000000,0.00600000,0.00200000,0.01300000,-0.01780000,0.01550000,0.00080000,-0.01620000,-0.00020000,0.99840000
$GPFPD,2292,543074.300,290.039,-0.050,1.002,31.42698148,120.62962675,14.329,0.009,-0.003,0.016,0.800,24,21,04*70
$GTIMU,2292,543074.300,0.0389,-0.0271,0.0024,-0.0185,-0.0020,0.9998,31.6*41
14:50::56.320,1702680674282,120.62962675,31.42698148,3478486.60878569,559862.99464990,290.03900000,6.00000000,0.00900000,-0.00300000,0.01600000,0.03890000,-0.02710000,0.00240000,-0.01850000,-0.00200000,0.99980000
$GPFPD,2292,543074.400,290.039,-0.051,1.007,31.42698143,120.62962679,14.337,0.007,-0.001,0.016,0.800,24,21,04*77
$GTIMU,2292,543074.400,-0.0053,0.0519,0.0025,-0.0160,0.0022,0.9990,31.6*66
14:50::56.420,1702680674382,120.62962679,31.42698143,3478486.60326349,559862.99848481,290.03900000,6.00000000,0.00700000,-0.00100000,0.01600000,-0.00530000,0.05190000,0.00250000,-0.01600000,0.00220000,0.99900000
$GPFPD,2292,543074.500,290.039,-0.048,1.005,31.42698139,120.62962682,14.344,0.008,-0.002,0.017,0.804,24,21,04*78
$GTIMU,2292,543074.500,0.0275,-0.0180,0.0093,-0.0191,-0.0019,1.0007,31.6*4C
14:50::56.520,1702680674482,120.62962682,31.42698139,3478486.59884464,559863.00136259,290.03900000,6.00000000,0.00800000,-0.00200000,0.01700000,0.02750000,-0.01800000,0.00930000,-0.01910000,-0.00190000,1.00070000
$GPFPD,2292,543074.600,290.040,-0.050,1.011,31.42698134,120.62962685,14.351,0.008,-0.000,0.015,0.804,24,21,04*77
$GTIMU,2292,543074.600,-0.0081,0.0639,-0.0100,-0.0155,0.0011,0.9981,31.6*47
14:50::56.620,1702680674582,120.62962685,31.42698134,3478486.59331699,559863.00424672,290.04000000,6.00000000,0.00800000,0.00000000,0.01500000,-0.00810000,0.06390000,-0.01000000,-0.01550000,0.00110000,0.99810000
$GPFPD,2292,543074.700,290.039,-0.045,1.013,31.42698129,120.62962688,14.359,0.009,-0.002,0.017,0.802,24,21,04*70
$GTIMU,2292,543074.700,0.0435,0.0200,0.0161,-0.0195,-0.0019,1.0012,31.6*66
14:50::56.720,1702680674682,120.62962688,31.42698129,3478486.58778933,559863.00713085,290.03900000,6.00000000,0.00900000,-0.00200000,0.01700000,0.04350000,0.02000000,0.01610000,-0.01950000,-0.00190000,1.00120000
$GPFPD,2292,543074.800,290.039,-0.046,1.016,31.42698126,120.62962691,14.365,0.007,-0.001,0.016,0.802,24,21,04*7D
$GTIMU,2292,543074.800,-0.0019,0.0314,-0.0055,-0.0177,0.0023,0.9983,31.6*40
14:50::56.820,1702680674782,120.62962691,31.42698126,3478486.58447928,559863.01000227,290.03900000,6.00000000,0.00700000,-0.00100000,0.01600000,-0.00190000,0.03140000,-0.00550000,-0.01770000,0.00230000,0.99830000
$GPFPD,2292,543074.900,290.039,-0.044,1.014,31.42698126,120.62962692,14.366,0.008,-0.003,0.017,0.803,24,21,04*71
$GTIMU,2292,543074.900,0.0270,-0.0254,0.0053,-0.0188,-0.0021,1.0012,31.6*44
14:50::56.920,1702680674882,120.62962692,31.42698126,3478486.58448473,559863.01095305,290.03900000,6.00000000,0.00800000,-0.00300000,0.01700000,0.02700000,-0.02540000,0.00530000,-0.01880000,-0.00210000,1.00120000
$GPFPD,2292,543075.000,290.039,-0.045,1.015,31.42698125,120.62962693,14.368,0.008,-0.001,0.016,0.803,24,21,04*76
$GTIMU,2292,543075.000,-0.0059,0.0189,0.0025,-0.0159,0.0013,0.9983,31.6*6E
14:50::57.020,1702680674982,120.62962693,31.42698125,3478486.58338138,559863.01191019,290.03900000,6.00000000,0.00800000,-0.00100000,0.01600000,-0.00590000,0.01890000,0.00250000,-0.01590000,0.00130000,0.99830000
$GPFPD,2292,54307$GPGGA,05.100,2965057.00,0.039,-03125.6188.042,1.01415,N,1206,31.42637.77697798125,120,E,1,21,0.6296260.9,7.46294,14.369,M,7.80,M,0.008,-0.002,0.01,,*65
7,0.803,24,21,04*77
$GTIMU,2292,543075.100,0.0259,0.0070,0.0013,-0.0189,-0.0010,1.0010,31.6*6A
14:50::57.120,1702680675082,120.62962694,31.42698125,3478486.58338683,559863.01286098,290.03900000,6.00000000,0.00800000,-0.00200000,0.01700000,0.02590000,0.00700000,0.00130000,-0.01890000,-0.00100000,1.00100000
$GPFPD,2292,543075.200,290.039,-0.045,1.016,31.42698125,120.62962694,14.371,0.007,-0.002,0.017,0.803,24,21,04*75
$GTIMU,2292,543075.200,-0.0201,0.0047,0.0060,-0.0183,0.0012,0.9991,31.6*64
14:50::57.219,1702680675182,120.62962694,31.42698125,3478486.58338683,559863.01286098,290.03900000,6.00000000,0.00700000,-0.00200000,0.01700000,-0.02010000,0.00470000,0.00600000,-0.01830000,0.00120000,0.99910000
$GPFPD,2292,543075.300,290.039,-0.043,1.010,31.42698124,120.62962695,14.371,0.009,-0.006,0.014,0.801,24,21,04*7F
$GTIMU,2292,543075.300,0.0206,-0.0635,0.0047,-0.0185,-0.0035,1.0004,31.6*47
14:50::57.320,1702680675282,120.62962695,31.42698124,3478486.58228348,559863.01381812,290.03900000,6.00000000,0.00900000,-0.00600000,0.01400000,0.02060000,-0.06350000,0.00470000,-0.01850000,-0.00350000,1.00040000
$GPFPD,2292,543075.400,290.039,-0.046,1.014,31.42698122,120.62962696,14.367,0.008,-0.002,0.013,0.801,24,21,04*79
$GTIMU,2292,543075.400,-0.0229,0.0417,-0.0043,-0.0146,0.0022,0.9990,31.6*4E
14:50::57.420,1702680675382,120.62962696,31.42698122,3478486.58007132,559863.01478162,290.03900000,6.00000000,0.00800000,-0.00200000,0.01300000,-0.02290000,0.04170000,-0.00430000,-0.01460000,0.00220000,0.99900000
$GPFPD,2292,543075.500,290.038,-0.045,1.015,31.42698119,120.62962697,14.363,0.009,-0.004,0.014,0.802,24,21,04*75
$GTIMU,2292,543075.500,0.0072,0.0115,0.0184,-0.0193,-0.0015,1.0013,31.6*65
14:50::57.520,1702680675482,120.62962697,31.42698119,3478486.57675038,559863.01575146,290.03800000,6.00000000,0.00900000,-0.00400000,0.01400000,0.00720000,0.01150000,0.01840000,-0.01930000,-0.00150000,1.00130000
$GPFPD,2292,543075.600,290.038,-0.050,1.018,31.42698117,120.62962698,14.358,0.009,-0.004,0.014,0.802,24,21,04*76
$GTIMU,2292,543075.600,-0.0473,0.0360,-0.0042,-0.0180,0.0003,0.9995,31.6*4F
14:50::57.620,1702680675582,120.62962698,31.42698117,3478486.57453823,559863.01671496,290.03800000,6.00000000,0.00900000,-0.00400000,0.01400000,-0.04730000,0.03600000,-0.00420000,-0.01800000,0.00030000,0.99950000
$GPFPD,2292,543075.700,290.037,-0.051,1.014,31.42698114,120.62962699,14.354,0.008,-0.005,0.015,0.801,24,22,04*7A
$GTIMU,2292,543075.700,-0.0066,-0.0459,0.0111,-0.0191,0.0003,0.9999,31.6*48
14:50::57.720,1702680675682,120.62962699,31.42698114,3478486.57121728,559863.01768481,290.03700000,6.00000000,0.00800000,-0.00500000,0.01500000,-0.00660000,-0.04590000,0.01110000,-0.01910000,0.00030000,0.99990000
$GPFPD,2292,543075.800,290.037,-0.058,1.010,31.42698112,120.62962700,14.352,0.009,-0.004,0.016,0.801,24,22,04*7A
$GTIMU,2292,543075.800,-0.0622,-0.0305,0.0026,-0.0169,-0.0011,1.0008,31.6*6A
14:50::57.820,1702680675782,120.62962700,31.42698112,3478486.56900513,559863.01864830,290.03700000,6.00000000,0.00900000,-0.00400000,0.01600000,-0.06220000,-0.03050000,0.00260000,-0.01690000,-0.00110000,1.00080000
$GPFPD,2292,543075.900,290.038,-0.061,1.012,31.42698111,120.62962701,14.353,0.009,-0.003,0.014,0.802,24,22,04*79
$GTIMU,2292,543075.900,-0.0309,0.0121,-0.0105,-0.0166,-0.0002,0.9978,31.6*68
14:50::57.920,1702680675882,120.62962701,31.42698111,3478486.56790178,559863.01960544,290.03800000,6.00000000,0.00900000,-0.00300000,0.01400000,-0.03090000,0.01210000,-0.01050000,-0.01660000,-0.00020000,0.99780000
$GPFPD,2292,543076.000,290.038,-0.063,1.014,31.42698111,120.62962701,14.354,0.008,-0.003,0.014,0.802,24,22,04*71
$GTIMU,2292,543076.000,-0.0161,0.0235,0.0082,-0.0181,0.0005,0.9997,31.6*69
14:50::58.020,1702680675982,120.62962701,31.42698111,3478486.56790178,559863.01960544,290.03800000,6.00000000,0.00800000,-0.00300000,0.01400000,-0.01610000,0.02350000,0.00820000,-0.01810000,0.00050000,0.99970000
$GPGGA,065058.00,3125.6188443,N,12037.7769728,E,1,22,0.9,7.535,M,7.80,M,,*64
$GPFPD,2292,543076.100,290.037,-0.066,1.015,31.42698111,120.62962702,14.356,0.007,-0.004,0.014,0.802,24,22,04*72
$GTIMU,2292,543076.100,-0.0246,0.0115,0.0100,-0.0183,0.0003,0.9999,31.6*6E
14:50::58.120,1702680676082,120.62962702,31.42698111,3478486.56790722,559863.02055623,290.03700000,6.00000000,0.00700000,-0.00400000,0.01400000,-0.02460000,0.01150000,0.01000000,-0.01830000,0.00030000,0.99990000
$GPFPD,2292,543076.200,290.038,-0.069,1.012,31.42698110,120.62962703,14.357,0.007,-0.005,0.013,0.801,24,22,04*72
$GTIMU,2292,543076.200,-0.0236,-0.0225,-0.0083,-0.0184,-0.0014,0.9988,31.6*4C
14:50::58.220,1702680676182,120.62962703,31.42698110,3478486.56680387,559863.02151337,290.03800000,6.00000000,0.00700000,-0.00500000,0.01300000,-0.02360000,-0.02250000,-0.00830000,-0.01840000,-0.00140000,0.99880000
$GPFPD,2292,543076.300,290.038,-0.068,1.014,31.42698111,120.62962704,14.359,0.010,-0.002,0.014,0.804,24,22,04*7F
$GTIMU,2292,543076.300,0.0077,0.0161,0.0048,-0.0159,-0.0017,0.9994,31.6*6D
14:50::58.320,1702680676282,120.62962704,31.42698111,3478486.56791812,559863.02245780,290.03800000,6.00000000,0.01000000,-0.00200000,0.01400000,0.00770000,0.01610000,0.00480000,-0.01590000,-0.00170000,0.99940000
$GPFPD,2292,543076.400,290.037,-0.068,1.014,31.42698113,120.62962705,14.362,0.007,-0.002,0.014,0.804,24,22,04*7A
$GTIMU,2292,543076.400,0.0026,-0.0032,0.0071,-0.0191,0.0013,0.9997,31.6*60
14:50::58.420,1702680676382,120.62962705,31.42698113,3478486.57014117,559863.02339588,290.03700000,6.00000000,0.00700000,-0.00200000,0.01400000,0.00260000,-0.00320000,0.00710000,-0.01910000,0.00130000,0.99970000
$GPFPD,2292,543076.500,290.037,-0.072,1.019,31.42698115,120.62962707,14.365,0.007,-0.000,0.014,0.801,24,22,04*79
$GTIMU,2292,543076.500,-0.0331,0.0576,-0.0020,-0.0161,0.0008,1.0002,31.6*40
14:50::58.520,1702680676482,120.62962707,31.42698115,3478486.57236966,559863.02528475,290.03700000,6.00000000,0.00700000,0.00000000,0.01400000,-0.03310000,0.05760000,-0.00200000,-0.01610000,0.00080000,1.00020000
$GPFPD,2292,543076.600,290.036,-0.072,1.013,31.42698116,120.62962708,14.368,0.008,-0.005,0.014,0.801,24,22,04*7A
$GTIMU,2292,543076.600,-0.0026,-0.0567,0.0133,-0.0216,-0.0029,0.9995,31.6*67
14:50::58.620,1702680676582,120.62962708,31.42698116,3478486.57348391,559863.02622918,290.03600000,6.00000000,0.00800000,-0.00500000,0.01400000,-0.00260000,-0.05670000,0.01330000,-0.02160000,-0.00290000,0.99950000
$GPFPD,2292,543076.700,290.037,-0.072,1.011,31.42698118,120.62962710,14.371,0.009,-0.002,0.013,0.801,24,21,04*75
$GTIMU,2292,543076.700,0.0042,-0.0186,-0.0072,-0.0151,-0.0006,0.9984,31.6*66
14:50::58.720,1702680676682,120.62962710,31.42698118,3478486.57571240,559863.02811805,290.03700000,6.00000000,0.00900000,-0.00200000,0.01300000,0.00420000,-0.01860000,-0.00720000,-0.01510000,-0.00060000,0.99840000
$GPFPD,2292,543076.800,290.038,-0.072,1.015,31.42698120,120.62962711,14.374,0.008,-0.002,0.014,0.801,24,21,04*78
$GTIMU,2292,543076.800,0.0066,0.0343,-0.0038,-0.0174,-0.0004,1.0005,31.6*4A
14:50::58.820,1702680676782,120.62962711,31.42698120,3478486.57793545,559863.02905613,290.03800000,6.00000000,0.00800000,-0.00200000,0.01400000,0.00660000,0.03430000,-0.00380000,-0.01740000,-0.00040000,1.00050000
$GPFPD,2292,543076.900,290.037,-0.072,1.011,31.42698119,120.62962712,14.375,0.007,-0.003,0.014,0.802,24,21,04*77
$GTIMU,2292,543076.900,0.0026,-0.0362,0.0150,-0.0191,-0.0001,0.9992,31.6*42
14:50::58.920,1702680676882,120.62962712,31.42698119,3478486.57683210,559863.03001327,290.03700000,6.00000000,0.00700000,-0.00300000,0.01400000,0.00260000,-0.03620000,0.01500000,-0.01910000,-0.00010000,0.99920000
$GPFPD,2292,543077.000,290.038,-0.075,1.016,31.42698119,120.62962713,14.376,0.007,-0.001,0.014,0.802,24,21,04*70
$GTIMU,2292,543077.000,-0.0257,0.0514,-0.0094,-0.0159,0.0000,0.9999,31.6*4E
14:50::59.020,1702680676982,120.62962713,31.42698119,3478486.57683755,559863.03096406,290.03800000,6.00000000,0.00700000,-0.00100000,0.01400000,-0.02570000,0.05140000,-0.00940000,-0.01590000,0.00000000,0.99990000
$GPGGA,065059.00,3125.6188476,N,12037.7769811,E,1,21,0.9,7.418,M,7.80,M,,*6B
$GPFPD,2292,543077.100,290.037,-0.073,1.016,31.42698119,120.62962713,14.378,0.008,-0.002,0.014,0.802,24,21,04*7A
$GTIMU,2292,543077.100,0.0185,0.0036,0.0093,-0.0185,-0.0015,1.0000,31.6*68
14:50::59.120,1702680677082,120.62962713,31.42698119,3478486.57683755,559863.03096406,290.03700000,6.00000000,0.00800000,-0.00200000,0.01400000,0.01850000,0.00360000,0.00930000,-0.01850000,-0.00150000,1.00000000
$GPFPD,2292,543077.200,290.037,-0.074,1.017,31.42698119,120.62962714,14.379,0.008,-0.002,0.014,0.803,24,21,04*78
$GTIMU,2292,543077.200,-0.0036,0.0110,0.0071,-0.0185,-0.0005,0.9995,31.6*4A
14:50::59.220,1702680677182,120.62962714,31.42698119,3478486.57684299,559863.03191485,290.03700000,6.00000000,0.00800000,-0.00200000,0.01400000,-0.00360000,0.01100000,0.00710000,-0.01850000,-0.00050000,0.99950000
$GPFPD,2292,543077.300,290.038,-0.074,1.020,31.42698119,120.62962714,14.379,0.006,-0.003,0.009,0.801,24,21,04*73
$GTIMU,2292,543077.300,0.0015,0.0320,-0.0112,-0.0180,-0.0010,0.9991,31.6*4A
14:50::59.320,1702680677282,120.62962714,31.42698119,3478486.57684299,559863.03191485,290.03800000,6.00000000,0.00600000,-0.00300000,0.00900000,0.00150000,0.03200000,-0.01120000,-0.01800000,-0.00100000,0.99910000
$GPFPD,2292,543077.400,290.037,-0.071,1.011,31.42698118,120.62962713,14.373,0.006,-0.004,0.010,0.801,24,21,04*7F
$GTIMU,2292,543077.400,0.0337,-0.0908,0.0115,-0.0194,-0.0006,1.0007,31.6*45
14:50::59.420,1702680677382,120.62962713,31.42698118,3478486.57572875,559863.03097041,290.03700000,6.00000000,0.00600000,-0.00400000,0.01000000,0.03370000,-0.09080000,0.01150000,-0.01940000,-0.00060000,1.00070000
$GPFPD,2292,543077.500,290.038,-0.074,1.014,31.42698118,120.62962711,14.367,0.005,0.000,0.010,0.802,24,21,04*5F
$GTIMU,2292,543077.500,-0.0195,0.0298,-0.0060,-0.0137,0.0013,0.9991,31.6*4C
14:50::59.520,1702680677482,120.62962711,31.42698118,3478486.57571785,559863.02906884,290.03800000,6.00000000,0.00500000,0.00000000,0.01000000,-0.01950000,0.02980000,-0.00600000,-0.01370000,0.00130000,0.99910000
$GPFPD,2292,543077.600,290.038,-0.073,1.017,31.42698118,120.62962709,14.361,0.007,-0.002,0.011,0.802,24,21,04*7B
$GTIMU,2292,543077.600,0.0089,0.0269,0.0025,-0.0198,-0.0029,1.0010,31.6*65
14:50::59.620,1702680677582,120.62962709,31.42698118,3478486.57570695,559863.02716726,290.03800000,6.00000000,0.00700000,-0.00200000,0.01100000,0.00890000,0.02690000,0.00250000,-0.01980000,-0.00290000,1.00100000
$GPFPD,2292,543077.700,290.037,-0.074,1.015,31.42698118,120.62962707,14.354,0.006,-0.003,0.008,0.804,24,21,04*76
$GTIMU,2292,543077.700,-0.0059,-0.0112,0.0082,-0.0186,0.0004,0.9970,31.6*41
14:50::59.720,1702680677682,120.62962707,31.42698118,3478486.57569606,559863.02526569,290.03700000,6.00000000,0.00600000,-0.00300000,0.00800000,-0.00590000,-0.01120000,0.00820000,-0.01860000,0.00040000,0.99700000
$GPFPD,2292,543077.800,290.038,-0.073,1.016,31.42698117,120.62962706,14.350,0.006,-0.003,0.010,0.804,24,21,04*71
$GTIMU,2292,543077.800,0.0151,0.0042,-0.0044,-0.0174,-0.0013,1.0011,31.6*44
14:50::59.820,1702680677782,120.62962706,31.42698117,3478486.57458181,559863.02432126,290.03800000,6.00000000,0.00600000,-0.00300000,0.01000000,0.01510000,0.00420000,-0.00440000,-0.01740000,-0.00130000,1.00110000
$GPFPD,2292,543077.900,290.038,-0.073,1.011,31.42698117,120.62962706,14.351,0.005,-0.003,0.009,0.802,24,21,04*7B
$GTIMU,2292,543077.900,0.0036,-0.0430,0.0036,-0.0182,0.0008,0.9994,31.6*63
14:50::59.920,1702680677882,120.62962706,31.42698117,3478486.57458181,559863.02432126,290.03800000,6.00000000,0.00500000,-0.00300000,0.00900000,0.00360000,-0.04300000,0.00360000,-0.01820000,0.00080000,0.99940000
$GPFPD,2292,543078.000,290.038,-0.075,1.016,31.42698117,120.62962707,14.352,0.006,-0.001,0.010,0.802,24,21,04*77
$GTIMU,2292,543078.000,-0.0177,0.0536,0.0043,-0.0154,-0.0011,0.9998,31.6*46
14:51::00.020,1702680677982,120.62962707,31.42698117,3478486.57458726,559863.02527204,290.03800000,6.00000000,0.00600000,-0.00100000,0.01000000,-0.01770000,0.05360000,0.00430000,-0.01540000,-0.00110000,0.99980000
$GPGGA,065100.00,3125.6188404,N,12037.7769826,E,1,21,0.9,7.454,M,7.80,M,,*6F
$GPFPD,2292,543078.100,290.037,-0.072,1.015,31.42698117,120.62962708,14.353,0.006,-0.004,0.010,0.802,24,21,04*76
$GTIMU,2292,543078.100,0.0287,-0.0175,0.0076,-0.0212,-0.0022,1.0002,31.6*4D
14:51::00.121,1702680678082,120.62962708,31.42698117,3478486.57459271,559863.02622283,290.03700000,6.00000000,0.00600000,-0.00400000,0.01000000,0.02870000,-0.01750000,0.00760000,-0.02120000,-0.00220000,1.00020000
$GPFPD,2292,543078.200,290.038,-0.074,1.016,31.42698116,120.62962708,14.354,0.006,-0.001,0.009,0.802,24,21,04*74
$GTIMU,2292,543078.200,-0.0122,0.0150,-0.0049,-0.0150,0.0006,0.9982,31.6*43
14:51::00.220,1702680678182,120.62962708,31.42698116,3478486.57348391,559863.02622918,290.03800000,6.00000000,0.00600000,-0.00100000,0.00900000,-0.01220000,0.01500000,-0.00490000,-0.01500000,0.00060000,0.99820000
$GPFPD,2292,543078.300,290.038,-0.072,1.014,31.42698116,120.62962709,14.353,0.006,-0.003,0.006,0.804,24,21,04*7C
$GTIMU,2292,543078.300,0.0213,-0.0163,0.0059,-0.0200,-0.0006,1.0015,31.6*4B
14:51::00.320,1702680678282,120.62962709,31.42698116,3478486.57348936,559863.02717997,290.03800000,6.00000000,0.00600000,-0.00300000,0.00600000,0.02130000,-0.01630000,0.00590000,-0.02000000,-0.00060000,1.00150000
$GPFPD,2292,543078.400,290.038,-0.075,1.016,31.42698116,120.62962711,14.347,0.006,-0.001,0.005,0.804,24,21,04*73
$GTIMU,2292,543078.400,-0.0246,0.0167,-0.0037,-0.0161,0.0003,0.9979,31.6*4A
14:51::00.420,1702680678382,120.62962711,31.42698116,3478486.57350025,559863.02908155,290.03800000,6.00000000,0.00600000,-0.00100000,0.00500000,-0.02460000,0.01670000,-0.00370000,-0.01610000,0.00030000,0.99790000
$GPFPD,2292,543078.500,290.038,-0.073,1.017,31.42698115,120.62962712,14.341,0.007,-0.004,0.006,0.803,24,21,04*73
$GTIMU,2292,543078.500,0.0196,0.0087,0.0042,-0.0192,-0.0029,1.0008,31.6*66
14:51::00.520,1702680678482,120.62962712,31.42698115,3478486.57239690,559863.03003869,290.03800000,6.00000000,0.00700000,-0.00400000,0.00600000,0.01960000,0.00870000,0.00420000,-0.01920000,-0.00290000,1.00080000
$GPFPD,2292,543078.600,290.038,-0.074,1.013,31.42698115,120.62962714,14.335,0.006,-0.003,0.005,0.803,24,21,04*73
$GTIMU,2292,543078.600,-0.0009,-0.0339,0.0036,-0.0174,0.0008,0.9990,31.6*41
14:51::00.620,1702680678582,120.62962714,31.42698115,3478486.57240780,559863.03194026,290.03800000,6.00000000,0.00600000,-0.00300000,0.00500000,-0.00090000,-0.03390000,0.00360000,-0.01740000,0.00080000,0.99900000
$GPFPD,2292,543078.700,290.038,-0.073,1.016,31.42698115,120.62962715,14.330,0.007,-0.002,0.005,0.802,24,21,04*75
$GTIMU,2292,543078.700,0.0106,0.0360,0.0002,-0.0168,-0.0008,1.0000,31.6*6D
14:51::00.720,1702680678682,120.62962715,31.42698115,3478486.57241324,559863.03289105,290.03800000,6.00000000,0.00700000,-0.00200000,0.00500000,0.01060000,0.03600000,0.00020000,-0.01680000,-0.00080000,1.00000000
$GPFPD,2292,543078.800,290.038,-0.074,1.014,31.42698114,120.62962717,14.325,0.005,-0.003,0.006,0.802,24,21,04*78
$GTIMU,2292,543078.800,-0.0043,-0.0237,0.0036,-0.0190,0.0002,1.0000,31.6*46
14:51::00.820,1702680678782,120.62962717,31.42698114,3478486.57131534,559863.03479898,290.03800000,6.00000000,0.00500000,-0.00300000,0.00600000,-0.00430000,-0.02370000,0.00360000,-0.01900000,0.00020000,1.00000000
$GPFPD,2292,543078.900,290.038,-0.075,1.020,31.42698114,120.62962718,14.326,0.007,-0.001,0.005,0.803,24,21,04*71
$GTIMU,2292,543078.900,-0.0086,0.0610,0.0025,-0.0158,-0.0015,0.9991,31.6*46
14:51::00.920,1702680678882,120.62962718,31.42698114,3478486.57132079,559863.03574976,290.03800000,6.00000000,0.00700000,-0.00100000,0.00500000,-0.00860000,0.06100000,0.00250000,-0.01580000,-0.00150000,0.99910000
$GPFPD,2292,543079.000,290.037,-0.073,1.016,31.42698114,120.62962718,14.326,0.007,-0.004,0.004,0.803,24,21,04*71
$GTIMU,2292,543079.000,0.0167,-0.0368,0.0127,-0.0205,-0.0014,0.9989,31.6*4A
14:51::01.020,1702680678982,120.62962718,31.42698114,3478486.57132079,559863.03574976,290.03700000,6.00000000,0.00700000,-0.00400000,0.00400000,0.01670000,-0.03680000,0.01270000,-0.02050000,-0.00140000,0.99890000
$GPFPD,2292,543079$GPGGA,06.100,290.5101.00,3038,-0.07125.618843,1.021,346,N,12031.4269817.77698714,120.620,E,1,21,962719,140.9,7.443.327,0.00,M,7.80,7,-0.002,M,,*6D
0.005,0.803,24,21,04*7C
$GTIMU,2292,543079.100,0.0027,0.0519,-0.0055,-0.0157,-0.0001,1.0001,31.6*4B
14:51::01.120,1702680679082,120.62962719,31.42698114,3478486.57132624,559863.03670055,290.03800000,6.00000000,0.00700000,-0.00200000,0.00500000,0.00270000,0.05190000,-0.00550000,-0.01570000,-0.00010000,1.00010000
$GPFPD,2292,543079.200,290.037,-0.073,1.016,31.42698113,120.62962720,14.327,0.005,-0.004,0.006,0.802,24,21,04*7F
$GTIMU,2292,543079.200,0.0122,-0.0476,0.0059,-0.0210,0.0006,1.0011,31.6*63
14:51::01.220,1702680679182,120.62962720,31.42698113,3478486.57022289,559863.03765769,290.03700000,6.00000000,0.00500000,-0.00400000,0.00600000,0.01220000,-0.04760000,0.00590000,-0.02100000,0.00060000,1.00110000
$GPFPD,2292,543079.300,290.037,-0.077,1.018,31.42698113,120.62962720,14.326,0.007,-0.001,0.001,0.802,24,21,04*75
$GTIMU,2292,543079.300,-0.0382,0.0190,-0.0003,-0.0146,-0.0012,0.9987,31.6*63
14:51::01.320,1702680679282,120.62962720,31.42698113,3478486.57022289,559863.03765769,290.03700000,6.00000000,0.00700000,-0.00100000,0.00100000,-0.03820000,0.01900000,-0.00030000,-0.01460000,-0.00120000,0.99870000
$GPFPD,2292,543079.400,290.037,-0.073,1.015,31.42698113,120.62962723,14.320,0.008,-0.004,-0.000,0.802,24,21,04*58
$GTIMU,2292,543079.400,0.0400,-0.0266,0.0058,-0.0201,-0.0028,0.9983,31.6*4D
14:51::01.420,1702680679382,120.62962723,31.42698113,3478486.57023923,559863.04051005,290.03700000,6.00000000,0.00800000,-0.00400000,0.00000000,0.04000000,-0.02660000,0.00580000,-0.02010000,-0.00280000,0.99830000
$GPFPD,2292,543079.500,290.037,-0.073,1.020,31.42698113,120.62962725,14.313,0.007,-0.001,0.001,0.803,24,21,04*7E
$GTIMU,2292,543079.500,0.0016,0.0502,0.0036,-0.0150,0.0013,1.0010,31.6*46
14:51::01.520,1702680679482,120.62962725,31.42698113,3478486.57025013,559863.04241163,290.03700000,6.00000000,0.00700000,-0.00100000,0.00100000,0.00160000,0.05020000,0.00360000,-0.01500000,0.00130000,1.00100000
$GPFPD,2292,543079.600,290.037,-0.074,1.018,31.42698113,120.62962727,14.307,0.006,-0.004,0.002,0.803,24,21,04*71
$GTIMU,2292,543079.600,-0.0082,-0.0243,0.0002,-0.0216,-0.0001,1.0008,31.6*6B
14:51::01.620,1702680679582,120.62962727,31.42698113,3478486.57026102,559863.04431320,290.03700000,6.00000000,0.00600000,-0.00400000,0.00200000,-0.00820000,-0.02430000,0.00020000,-0.02160000,-0.00010000,1.00080000
$GPFPD,2292,543079.700,290.037,-0.076,1.018,31.42698112,120.62962730,14.301,0.007,-0.002,-0.001,0.801,24,21,04*58
$GTIMU,2292,543079.700,-0.0105,0.0025,-0.0003,-0.0154,-0.0015,0.9970,31.6*69
14:51::01.720,1702680679682,120.62962730,31.42698112,3478486.56916857,559863.04717191,290.03700000,6.00000000,0.00700000,-0.00200000,-0.00100000,-0.01050000,0.00250000,-0.00030000,-0.01540000,-0.00150000,0.99700000
$GPFPD,2292,543079.800,290.037,-0.073,1.012,31.42698112,120.62962731,14.296,0.007,-0.005,0.002,0.801,24,21,04*7F
$GTIMU,2292,543079.800,0.0349,-0.0539,0.0064,-0.0202,-0.0016,1.0019,31.6*45
14:51::01.820,1702680679782,120.62962731,31.42698112,3478486.56917402,559863.04812270,290.03700000,6.00000000,0.00700000,-0.00500000,0.00200000,0.03490000,-0.05390000,0.00640000,-0.02020000,-0.00160000,1.00190000
$GPFPD,2292,543079.900,290.037,-0.076,1.015,31.42698112,120.62962732,14.296,0.007,-0.001,0.001,0.800,24,21,04*79
$GTIMU,2292,543079.900,-0.0292,0.0229,0.0003,-0.0140,0.0008,0.9995,31.6*66
14:51::01.920,1702680679882,120.62962732,31.42698112,3478486.56917946,559863.04907349,290.03700000,6.00000000,0.00700000,-0.00100000,0.00100000,-0.02920000,0.02290000,0.00030000,-0.01400000,0.00080000,0.99950000
$GPFPD,2292,543080.000,290.037,-0.075,1.012,31.42698111,120.62962733,14.296,0.007,-0.005,0.001,0.800,24,21,04*74
$GTIMU,2292,543080.000,0.0133,-0.0243,0.0008,-0.0214,-0.0020,0.9992,31.6*44
14:51::02.020,1702680679982,120.62962733,31.42698111,3478486.56807611,559863.05003063,290.03700000,6.00000000,0.00700000,-0.00500000,0.00100000,0.01330000,-0.02430000,0.00080000,-0.02140000,-0.00200000,0.99920000
$GPGGA,065102.00,3125.6188425,N,12037.7769799,E,1,21,0.9,7.438,M,7.80,M,,*6F
$GPFPD,2292,543080.100,290.037,-0.076,1.012,31.42698111,120.62962734,14.296,0.006,-0.001,-0.000,0.800,24,21,04*58
$GTIMU,2292,543080.100,-0.0093,-0.0010,0.0077,-0.0149,0.0012,0.9985,31.6*4E
14:51::02.120,1702680680082,120.62962734,31.42698111,3478486.56808156,559863.05098142,290.03700000,6.00000000,0.00600000,-0.00100000,0.00000000,-0.00930000,-0.00100000,0.00770000,-0.01490000,0.00120000,0.99850000
$GPFPD,2292,543080.200,290.037,-0.075,1.008,31.42698111,120.62962734,14.296,0.007,-0.005,0.002,0.803,24,21,04*7A
$GTIMU,2292,543080.200,0.0144,-0.0328,0.0008,-0.0209,-0.0020,1.0022,31.6*4C
14:51::02.220,1702680680182,120.62962734,31.42698111,3478486.56808156,559863.05098142,290.03700000,6.00000000,0.00700000,-0.00500000,0.00200000,0.01440000,-0.03280000,0.00080000,-0.02090000,-0.00200000,1.00220000
$GPFPD,2292,543080.300,290.038,-0.078,1.007,31.42698111,120.62962734,14.298,0.004,-0.002,0.005,0.801,24,21,04*79
$GTIMU,2292,543080.300,-0.0293,-0.0140,-0.0077,-0.0146,-0.0001,0.9981,31.6*43
14:51::02.320,1702680680282,120.62962734,31.42698111,3478486.56808156,559863.05098142,290.03800000,6.00000000,0.00400000,-0.00200000,0.00500000,-0.02930000,-0.01400000,-0.00770000,-0.01460000,-0.00010000,0.99810000
$GPFPD,2292,543080.400,290.037,-0.077,1.007,31.42698110,120.62962730,14.305,0.005,-0.004,0.005,0.801,24,21,04*79
$GTIMU,2292,543080.400,0.0196,-0.0004,0.0127,-0.0191,-0.0023,0.9994,31.6*49
14:51::02.420,1702680680382,120.62962730,31.42698110,3478486.56695097,559863.04718462,290.03700000,6.00000000,0.00500000,-0.00400000,0.00500000,0.01960000,-0.00040000,0.01270000,-0.01910000,-0.00230000,0.99940000
$GPFPD,2292,543080.500,290.037,-0.078,1.008,31.42698110,120.62962726,14.312,0.004,-0.002,0.005,0.803,24,21,04*7C
$GTIMU,2292,543080.500,-0.0059,0.0121,-0.0043,-0.0164,0.0011,1.0000,31.6*48
14:51::02.520,1702680680482,120.62962726,31.42698110,3478486.56692918,559863.04338147,290.03700000,6.00000000,0.00400000,-0.00200000,0.00500000,-0.00590000,0.01210000,-0.00430000,-0.01640000,0.00110000,1.00000000
$GPFPD,2292,543080.600,290.037,-0.077,1.008,31.42698109,120.62962721,14.319,0.004,-0.003,0.006,0.803,24,21,04*76
$GTIMU,2292,543080.600,0.0100,0.0007,0.0036,-0.0190,-0.0012,1.0005,31.6*61
14:51::02.620,1702680680582,120.62962721,31.42698109,3478486.56579314,559863.03863389,290.03700000,6.00000000,0.00400000,-0.00300000,0.00600000,0.01000000,0.00070000,0.00360000,-0.01900000,-0.00120000,1.00050000
$GPFPD,2292,543080.700,290.037,-0.080,1.007,31.42698109,120.62962717,14.326,0.004,-0.003,0.005,0.801,24,21,04*78
$GTIMU,2292,543080.700,-0.0241,-0.0089,0.0071,-0.0169,-0.0004,0.9987,31.6*69
14:51::02.720,1702680680682,120.62962717,31.42698109,3478486.56577135,559863.03483074,290.03700000,6.00000000,0.00400000,-0.00300000,0.00500000,-0.02410000,-0.00890000,0.00710000,-0.01690000,-0.00040000,0.99870000
$GPFPD,2292,543080.800,290.037,-0.077,1.006,31.42698109,120.62962714,14.331,0.005,-0.004,0.005,0.801,24,21,04*7D
$GTIMU,2292,543080.800,0.0287,-0.0015,-0.0016,-0.0181,-0.0025,0.9997,31.6*6C
14:51::02.820,1702680680782,120.62962714,31.42698109,3478486.56575500,559863.03197838,290.03700000,6.00000000,0.00500000,-0.00400000,0.00500000,0.02870000,-0.00150000,-0.00160000,-0.01810000,-0.00250000,0.99970000
$GPFPD,2292,543080.900,290.036,-0.077,1.008,31.42698108,120.62962715,14.331,0.003,-0.001,0.005,0.804,24,21,04*75
$GTIMU,2292,543080.900,0.0004,0.0212,0.0116,-0.0157,0.0024,0.9997,31.6*47
14:51::02.920,1702680680882,120.62962715,31.42698108,3478486.56465165,559863.03293552,290.03600000,6.00000000,0.00300000,-0.00100000,0.00500000,0.00040000,0.02120000,0.01160000,-0.01570000,0.00240000,0.99970000
$GPFPD,2292,543081.000,290.037,-0.077,1.010,31.42698108,120.62962715,14.332,0.003,-0.004,0.006,0.804,24,21,04*70
$GTIMU,2292,543081.000,0.0026,0.0155,-0.0021,-0.0208,-0.0021,1.0007,31.6*4E
14:51::03.020,1702680680982,120.62962715,31.42698108,3478486.56465165,559863.03293552,290.03700000,6.00000000,0.00300000,-0.00400000,0.00600000,0.00260000,0.01550000,-0.00210000,-0.02080000,-0.00210000,1.00070000
$GPGGA,065103.00,3125.6188492,N,12037.7769827,E,1,21,0.9,7.425,M,7.80,M,,*64
$GPFPD,2292,543081.100,290.037,-0.078,1.008,31.42698108,120.62962716,14.332,0.004,-0.003,0.005,0.804,24,21,04*77
$GTIMU,2292,543081.100,-0.0054,-0.0214,-0.0009,-0.0163,-0.0009,0.9986,31.6*4A
14:51::03.120,1702680681082,120.62962716,31.42698108,3478486.56465710,559863.03388631,290.03700000,6.00000000,0.00400000,-0.00300000,0.00500000,-0.00540000,-0.02140000,-0.00090000,-0.01630000,-0.00090000,0.99860000
$GPFPD,2292,543081.200,290.037,-0.077,1.007,31.42698108,120.62962716,14.333,0.004,-0.004,0.005,0.803,24,21,04*75
$GTIMU,2292,543081.200,0.0168,-0.0050,0.0025,-0.0187,-0.0016,1.0002,31.6*42
14:51::03.220,1702680681182,120.62962716,31.42698108,3478486.56465710,559863.03388631,290.03700000,6.00000000,0.00400000,-0.00400000,0.00500000,0.01680000,-0.00500000,0.00250000,-0.01870000,-0.00160000,1.00020000
$GPFPD,2292,543081.300,290.039,-0.077,1.002,31.42698108,120.62962716,14.332,0.003,-0.002,-0.001,0.803,24,21,04*56
$GTIMU,2292,543081.300,0.0008,-0.0493,-0.0118,-0.0175,0.0013,0.9979,31.6*45
14:51::03.320,1702680681282,120.62962716,31.42698108,3478486.56465710,559863.03388631,290.03900000,6.00000000,0.00300000,-0.00200000,-0.00100000,0.00080000,-0.04930000,-0.01180000,-0.01750000,0.00130000,0.99790000
$GPFPD,2292,543081.400,290.039,-0.077,1.000,31.42698109,120.62962717,14.325,0.005,-0.003,0.002,0.803,24,21,04*7C
$GTIMU,2292,543081.400,0.0077,-0.0197,0.0048,-0.0174,-0.0028,1.0025,31.6*4E
14:51::03.420,1702680681382,120.62962717,31.42698109,3478486.56577135,559863.03483074,290.03900000,6.00000000,0.00500000,-0.00300000,0.00200000,0.00770000,-0.01970000,0.00480000,-0.01740000,-0.00280000,1.00250000
$GPFPD,2292,543081.500,290.038,-0.079,0.998,31.42698111,120.62962718,14.319,0.005,-0.001,0.000,0.801,24,21,04*70
$GTIMU,2292,543081.500,-0.0196,-0.0135,0.0071,-0.0154,0.0003,0.9980,31.6*46
14:51::03.520,1702680681482,120.62962718,31.42698111,3478486.56799439,559863.03576882,290.03800000,6.00000000,0.00500000,-0.00100000,0.00000000,-0.01960000,-0.01350000,0.00710000,-0.01540000,0.00030000,0.99800000
$GPFPD,2292,543081.600,290.038,-0.078,1.003,31.42698113,120.62962719,14.312,0.005,-0.001,0.001,0.801,24,21,04*71
$GTIMU,2292,543081.600,0.0186,0.0496,0.0076,-0.0174,-0.0011,1.0002,31.6*68
14:51::03.620,1702680681582,120.62962719,31.42698113,3478486.57021744,559863.03670690,290.03800000,6.00000000,0.00500000,-0.00100000,0.00100000,0.01860000,0.04960000,0.00760000,-0.01740000,-0.00110000,1.00020000
$GPFPD,2292,543081.700,290.037,-0.079,1.005,31.42698114,120.62962720,14.306,0.004,-0.002,-0.000,0.804,24,21,04*5B
$GTIMU,2292,543081.700,-0.0093,0.0223,0.0042,-0.0192,0.0002,0.9987,31.6*65
14:51::03.720,1702680681682,120.62962720,31.42698114,3478486.57133168,559863.03765134,290.03700000,6.00000000,0.00400000,-0.00200000,0.00000000,-0.00930000,0.02230000,0.00420000,-0.01920000,0.00020000,0.99870000
$GPFPD,2292,543081.800,290.037,-0.078,1.004,31.42698115,120.62962721,14.301,0.004,-0.003,0.001,0.804,24,21,04*7E
$GTIMU,2292,543081.800,0.0128,-0.0101,0.0013,-0.0182,-0.0016,1.0006,31.6*4D
14:51::03.820,1702680681782,120.62962721,31.42698115,3478486.57244593,559863.03859577,290.03700000,6.00000000,0.00400000,-0.00300000,0.00100000,0.01280000,-0.01010000,0.00130000,-0.01820000,-0.00160000,1.00060000
$GPFPD,2292,543081.900,290.037,-0.079,1.001,31.42698115,120.62962721,14.301,0.003,-0.002,-0.000,0.804,24,21,04*51
$GTIMU,2292,543081.900,-0.0066,-0.0339,0.0019,-0.0170,0.0002,0.9988,31.6*4B
14:51::03.920,1702680681882,120.62962721,31.42698115,3478486.57244593,559863.03859577,290.03700000,6.00000000,0.00300000,-0.00200000,0.00000000,-0.00660000,-0.03390000,0.00190000,-0.01700000,0.00020000,0.99880000
$GPFPD,2292,543082.000,290.038,-0.078,1.002,31.42698115,120.62962722,14.301,0.005,-0.002,0.001,0.804,24,21,04*7F
$GTIMU,2292,543082.000,0.0117,0.0087,-0.0072,-0.0176,-0.0020,1.0007,31.6*4D
14:51::04.020,1702680681982,120.62962722,31.42698115,3478486.57245138,559863.03954656,290.03800000,6.00000000,0.00500000,-0.00200000,0.00100000,0.01170000,0.00870000,-0.00720000,-0.01760000,-0.00200000,1.00070000
$GPGGA,065104.00,3125.6188505,N,12037.7769835,E,1,21,0.9,7.444,M,7.80,M,,*68
$GPFPD,2292,543082.100,290.037,-0.079,1.001,31.42698115,120.62962722,14.301,0.004,-0.001,-0.000,0.804,24,21,04*5D
$GTIMU,2292,543082.100,-0.0082,-0.0015,0.0116,-0.0161,0.0006,0.9987,31.6*42
14:51::04.120,1702680682082,120.62962722,31.42698115,3478486.57245138,559863.03954656,290.03700000,6.00000000,0.00400000,-0.00100000,0.00000000,-0.00820000,-0.00150000,0.01160000,-0.01610000,0.00060000,0.99870000
$GPFPD,2292,543082.200,290.038,-0.078,1.000,31.42698115,120.62962723,14.301,0.004,-0.003,0.001,0.802,24,21,04*78
$GTIMU,2292,543082.200,0.0185,-0.0084,0.0013,-0.0201,-0.0024,1.0006,31.6*46
14:51::04.220,1702680682182,120.62962723,31.42698115,3478486.57245683,559863.04049734,290.03800000,6.00000000,0.00400000,-0.00300000,0.00100000,0.01850000,-0.00840000,0.00130000,-0.02010000,-0.00240000,1.00060000
$GPFPD,2292,543082.300,290.038,-0.079,1.002,31.42698115,120.62962722,14.303,0.002,-0.000,0.005,0.802,24,21,04*78
$GTIMU,2292,543082.300,-0.0138,0.0206,-0.0009,-0.0146,0.0004,0.9996,31.6*48
14:51::04.320,1702680682282,120.62962722,31.42698115,3478486.57245138,559863.03954656,290.03800000,6.00000000,0.00200000,0.00000000,0.00500000,-0.01380000,0.02060000,-0.00090000,-0.01460000,0.00040000,0.99960000
$GPFPD,2292,543082.400,290.038,-0.079,1.000,31.42698115,120.62962720,14.310,0.002,-0.003,0.004,0.802,24,21,04*7F
$GTIMU,2292,543082.400,0.0031,-0.0209,0.0065,-0.0201,-0.0007,0.9991,31.6*46
14:51::04.420,1702680682382,120.62962720,31.42698115,3478486.57244048,559863.03764498,290.03800000,6.00000000,0.00200000,-0.00300000,0.00400000,0.00310000,-0.02090000,0.00650000,-0.02010000,-0.00070000,0.99910000
$GPFPD,2292,543082.500,290.038,-0.078,1.004,31.42698115,120.62962717,14.316,0.003,-0.001,0.004,0.802,24,21,04*7A
$GTIMU,2292,543082.500,0.0129,0.0365,0.0019,-0.0150,-0.0016,0.9991,31.6*65
14:51::04.520,1702680682482,120.62962717,31.42698115,3478486.57242414,559863.03479262,290.03800000,6.00000000,0.00300000,-0.00100000,0.00400000,0.01290000,0.03650000,0.00190000,-0.01500000,-0.00160000,0.99910000
$GPFPD,2292,543082.600,290.038,-0.079,1.002,31.42698115,120.62962714,14.323,0.001,-0.003,0.006,0.802,24,21,04*79
$GTIMU,2292,543082.600,0.0003,-0.0197,0.0014,-0.0205,0.0007,1.0015,31.6*63
14:51::04.620,1702680682582,120.62962714,31.42698115,3478486.57240780,559863.03194026,290.03800000,6.00000000,0.00100000,-0.00300000,0.00600000,0.00030000,-0.01970000,0.00140000,-0.02050000,0.00070000,1.00150000
$GPFPD,2292,543082.700,290.038,-0.080,1.001,31.42698115,120.62962711,14.330,0.002,-0.002,0.004,0.801,24,21,04*79
$GTIMU,2292,543082.700,-0.0065,-0.0038,0.0025,-0.0164,-0.0016,0.9985,31.6*68
14:51::04.720,1702680682682,120.62962711,31.42698115,3478486.57239145,559863.02908790,290.03800000,6.00000000,0.00200000,-0.00200000,0.00400000,-0.00650000,-0.00380000,0.00250000,-0.01640000,-0.00160000,0.99850000
$GPFPD,2292,543082.800,290.038,-0.080,0.999,31.42698115,120.62962709,14.335,0.001,-0.001,0.004,0.801,24,21,04*73
$GTIMU,2292,543082.800,0.0037,-0.0163,0.0019,-0.0171,0.0001,0.9990,31.6*66
14:51::04.820,1702680682782,120.62962709,31.42698115,3478486.57238056,559863.02718632,290.03800000,6.00000000,0.00100000,-0.00100000,0.00400000,0.00370000,-0.01630000,0.00190000,-0.01710000,0.00010000,0.99900000
$GPFPD,2292,543082.900,290.038,-0.078,1.001,31.42698115,120.62962710,14.335,0.002,-0.002,0.005,0.802,24,21,04*76
$GTIMU,2292,543082.900,0.0214,0.0201,0.0007,-0.0175,-0.0016,1.0007,31.6*61
14:51::04.920,1702680682882,120.62962710,31.42698115,3478486.57238600,559863.02813711,290.03800000,6.00000000,0.00200000,-0.00200000,0.00500000,0.02140000,0.02010000,0.00070000,-0.01750000,-0.00160000,1.00070000
$GPFPD,2292,543083.000,290.038,-0.079,1.003,31.42698115,120.62962710,14.336,0.002,-0.001,0.004,0.802,24,21,04*7C
$GTIMU,2292,543083.000,-0.0127,0.0178,0.0065,-0.0169,-0.0001,0.9993,31.6*49
14:51::05.020,1702680682982,120.62962710,31.42698115,3478486.57238600,559863.02813711,290.03800000,6.00000000,0.00200000,-0.00100000,0.00400000,-0.01270000,0.01780000,0.00650000,-0.01690000,-0.00010000,0.99930000
$GPGGA,065105.00,3125.6188491,N,12037.7769876,E,1,21,0.9,7.441,M,7.80,M,,*67
$GPFPD,2292,543083.100,290.037,-0.079,1.001,31.42698115,120.62962710,14.336,0.001,-0.004,0.004,0.802,24,21,04*76
$GTIMU,2292,543083.100,0.0088,-0.0214,0.0025,-0.0209,-0.0014,0.9997,31.6*44
14:51::05.120,1702680683082,120.62962710,31.42698115,3478486.57238600,559863.02813711,290.03700000,6.00000000,0.00100000,-0.00400000,0.00400000,0.00880000,-0.02140000,0.00250000,-0.02090000,-0.00140000,0.99970000
$GPFPD,2292,543083.200,290.038,-0.079,1.000,31.42698114,120.62962710,14.337,0.002,-0.001,0.004,0.799,24,21,04*70
$GTIMU,2292,543083.200,0.0020,-0.0072,-0.0078,-0.0142,-0.0000,0.9993,31.6*6F
14:51::05.220,1702680683182,120.62962710,31.42698114,3478486.57127720,559863.02814346,290.03800000,6.00000000,0.00200000,-0.00100000,0.00400000,0.00200000,-0.00720000,-0.00780000,-0.01420000,0.00000000,0.99930000
$GPFPD,2292,543083.300,290.038,-0.079,0.997,31.42698114,120.62962711,14.339,0.004,-0.004,0.009,0.801,24,21,04*78
$GTIMU,2292,543083.300,0.0054,-0.0260,0.0070,-0.0198,-0.0014,1.0002,31.6*42
14:51::05.320,1702680683282,120.62962711,31.42698114,3478486.57128265,559863.02909425,290.03800000,6.00000000,0.00400000,-0.00400000,0.00900000,0.00540000,-0.02600000,0.00700000,-0.01980000,-0.00140000,1.00020000
$GPFPD,2292,543083.400,290.038,-0.080,1.001,31.42698113,120.62962715,14.346,0.005,-0.000,0.008,0.801,24,21,04*71
$GTIMU,2292,543083.400,-0.0058,0.0417,0.0048,-0.0140,-0.0004,0.9994,31.6*4E
14:51::05.420,1702680683382,120.62962715,31.42698113,3478486.57019565,559863.03290375,290.03800000,6.00000000,0.00500000,0.00000000,0.00800000,-0.00580000,0.04170000,0.00480000,-0.01400000,-0.00040000,0.99940000
$GPFPD,2292,543083.500,290.037,-0.078,0.999,31.42698112,120.62962719,14.352,0.004,-0.004,0.008,0.801,24,21,04*7C
$GTIMU,2292,543083.500,0.0156,-0.0152,0.0070,-0.0211,-0.0008,0.9998,31.6*48
14:51::05.520,1702680683482,120.62962719,31.42698112,3478486.56910864,559863.03671326,290.03700000,6.00000000,0.00400000,-0.00400000,0.00800000,0.01560000,-0.01520000,0.00700000,-0.02110000,-0.00080000,0.99980000
$GPFPD,2292,543083.600,290.038,-0.080,1.002,31.42698111,120.62962723,14.359,0.004,-0.002,0.008,0.801,24,21,04*7A
$GTIMU,2292,543083.600,-0.0082,0.0309,-0.0066,-0.0155,-0.0002,0.9994,31.6*60
14:51::05.620,1702680683582,120.62962723,31.42698111,3478486.56802163,559863.04052276,290.03800000,6.00000000,0.00400000,-0.00200000,0.00800000,-0.00820000,0.03090000,-0.00660000,-0.01550000,-0.00020000,0.99940000
$GPFPD,2292,543083.700,290.038,-0.078,0.998,31.42698109,120.62962727,14.366,0.004,-0.004,0.009,0.804,24,21,04*74
$GTIMU,2292,543083.700,0.0167,-0.0465,0.0070,-0.0197,-0.0014,1.0003,31.6*4A
14:51::05.720,1702680683682,120.62962727,31.42698109,3478486.56582583,559863.04433861,290.03800000,6.00000000,0.00400000,-0.00400000,0.00900000,0.01670000,-0.04650000,0.00700000,-0.01970000,-0.00140000,1.00030000
$GPFPD,2292,543083.800,290.038,-0.079,1.002,31.42698108,120.62962730,14.371,0.005,-0.001,0.008,0.804,24,21,04*75
$GTIMU,2292,543083.800,-0.0064,0.0462,-0.0003,-0.0137,-0.0010,0.9991,31.6*6D
14:51::05.820,1702680683782,120.62962730,31.42698108,3478486.56473337,559863.04719733,290.03800000,6.00000000,0.00500000,-0.00100000,0.00800000,-0.00640000,0.04620000,-0.00030000,-0.01370000,-0.00100000,0.99910000
$GPFPD,2292,543083.900,290.038,-0.078,1.000,31.42698108,120.62962730,14.372,0.003,-0.003,0.009,0.802,24,21,04*77
$GTIMU,2292,543083.900,0.0128,-0.0158,0.0042,-0.0212,0.0005,1.0002,31.6*67
14:51::05.920,1702680683882,120.62962730,31.42698108,3478486.56473337,559863.04719733,290.03800000,6.00000000,0.00300000,-0.00300000,0.00900000,0.01280000,-0.01580000,0.00420000,-0.02120000,0.00050000,1.00020000
$GPFPD,2292,543084.000,290.038,-0.080,1.003,31.42698108,120.62962731,14.373,0.004,-0.002,0.008,0.802,24,21,04*7A
$GTIMU,2292,543084.000,-0.0138,0.0297,0.0031,-0.0152,-0.0016,0.9994,31.6*4A
14:51::06.020,1702680683982,120.62962731,31.42698108,3478486.56473882,559863.04814812,290.03800000,6.00000000,0.00400000,-0.00200000,0.00800000,-0.01380000,0.02970000,0.00310000,-0.01520000,-0.00160000,0.99940000
$GPGGA,065106.00,3125.6188560,N,12037.7769827,E,1,21,0.9,7.442,M,7.80,M,,*6C
$GPFPD,2292,543084.100,290.038,-0.079,0.998,31.42698108,120.62962731,14.374,0.004,-0.004,0.009,0.802,24,21,04*77
$GTIMU,2292,543084.100,0.0161,-0.0504,0.0030,-0.0204,-0.0011,0.9998,31.6*40
14:51::06.120,1702680684082,120.62962731,31.42698108,3478486.56473882,559863.04814812,290.03800000,6.00000000,0.00400000,-0.00400000,0.00900000,0.01610000,-0.05040000,0.00300000,-0.02040000,-0.00110000,0.99980000
$GPFPD,2292,543084.200,290.038,-0.080,1.000,31.42698108,120.62962732,14.375,0.004,-0.001,0.008,0.802,24,21,04*7D
$GTIMU,2292,543084.200,-0.0082,0.0212,-0.0038,-0.0142,-0.0003,0.9994,31.6*64
14:51::06.220,1702680684182,120.62962732,31.42698108,3478486.56474427,559863.04909890,290.03800000,6.00000000,0.00400000,-0.00100000,0.00800000,-0.00820000,0.02120000,-0.00380000,-0.01420000,-0.00030000,0.99940000
$GPFPD,2292,543084.300,290.038,-0.080,0.999,31.42698107,120.62962731,14.376,0.001,-0.003,0.010,0.801,24,21,04*76
$GTIMU,2292,543084.300,-0.0002,-0.0055,0.0082,-0.0191,-0.0004,1.0000,31.6*68
14:51::06.320,1702680684282,120.62962731,31.42698107,3478486.56363002,559863.04815447,290.03800000,6.00000000,0.00100000,-0.00300000,0.01000000,-0.00020000,-0.00550000,0.00820000,-0.01910000,-0.00040000,1.00000000
$GPFPD,2292,543084.400,290.038,-0.079,1.001,31.42698106,120.62962727,14.379,0.001,-0.003,0.009,0.801,24,21,04*7F
$GTIMU,2292,543084.400,0.0168,0.0184,-0.0027,-0.0172,-0.0002,0.9984,31.6*4B
14:51::06.420,1702680684382,120.62962727,31.42698106,3478486.56249943,559863.04435767,290.03800000,6.00000000,0.00100000,-0.00300000,0.00900000,0.01680000,0.01840000,-0.00270000,-0.01720000,-0.00020000,0.99840000
$GPFPD,2292,543084.500,290.038,-0.068,1.001,31.42698105,120.62962723,14.382,-0.012,0.001,0.004,0.804,24,21,04*75
$GTIMU,2292,543084.500,0.1150,-0.0022,0.0062,-0.0177,0.0127,0.9946,31.6*6C
14:51::06.520,1702680684482,120.62962723,31.42698105,3478486.56136884,559863.04056088,290.03800000,6.00000000,-0.01200000,0.00100000,0.00400000,0.11500000,-0.00220000,0.00620000,-0.01770000,0.01270000,0.99460000
$GPFPD,2292,543084.600,290.039,-0.040,0.999,31.42698104,120.62962716,14.384,-0.044,0.012,-0.003,0.804,24,21,04*5E
$GTIMU,2292,543084.600,0.2812,-0.0210,-0.0022,-0.0183,0.0346,0.9929,31.6*4E
14:51::06.620,1702680684582,120.62962716,31.42698104,3478486.56022190,559863.03391172,290.03900000,6.00000000,-0.04400000,0.01200000,-0.00300000,0.28120000,-0.02100000,-0.00220000,-0.01830000,0.03460000,0.99290000
$GPFPD,2292,543084.700,290.041,0.004,0.997,31.42698105,120.62962705,14.386,-0.086,0.028,-0.004,0.803,24,21,04*75
$GTIMU,2292,543084.700,0.4436,-0.0177,-0.0060,-0.0168,0.0457,0.9983,31.6*45
14:51::06.720,1702680684682,120.62962705,31.42698105,3478486.56127077,559863.02344671,290.04100000,6.00000000,-0.08600000,0.02800000,-0.00400000,0.44360000,-0.01770000,-0.00600000,-0.01680000,0.04570000,0.99830000
$GPFPD,2292,543084.800,290.042,0.034,1.000,31.42698108,120.62962691,14.388,-0.132,0.046,0.004,0.803,24,21,04*58
$GTIMU,2292,543084.800,0.3035,0.0319,-0.0022,-0.0168,0.0517,1.0083,31.6*6F
14:51::06.820,1702680684782,120.62962691,31.42698108,3478486.56452090,559863.01011663,290.04200000,6.00000000,-0.13200000,0.04600000,0.00400000,0.30350000,0.03190000,-0.00220000,-0.01680000,0.05170000,1.00830000
$GPFPD,2292,543084.900,290.040,0.041,1.000,31.42698113,120.62962675,14.389,-0.175,0.062,0.014,0.804,24,21,04*5B
$GTIMU,2292,543084.900,0.0707,-0.0010,0.0200,-0.0171,0.0481,1.0090,31.6*67
14:51::06.920,1702680684882,120.62962675,31.42698113,3478486.56997772,559862.99487227,290.04000000,6.00000000,-0.17500000,0.06200000,0.01400000,0.07070000,-0.00100000,0.02000000,-0.01710000,0.04810000,1.00900000
$GPFPD,2292,543085.000,290.041,0.042,1.006,31.42698119,120.62962654,14.390,-0.225,0.080,0.010,0.804,24,21,04*58
$GTIMU,2292,543085.000,0.0146,0.0684,-0.0101,-0.0179,0.0556,0.9955,31.6*6E
14:51::07.020,1702680684982,120.62962654,31.42698119,3478486.57651611,559862.97486762,290.04100000,6.00000000,-0.22500000,0.08000000,0.01000000,0.01460000,0.06840000,-0.01010000,-0.01790000,0.05560000,0.99550000
$GPFPD,2292,543085$GPGGA,06.100,290.5107.00,038,0.0573125.618,1.009,318623,N,12.42698127037.77695,120.629629,E,1,212627,14.3,0.9,7.4791,-0.2753,M,7.80,,0.100,0.M,,*68
008,0.804,24,21,04*51
$GTIMU,2292,543085.100,0.1497,0.0319,0.0318,-0.0163,0.0567,0.9983,31.6*43
14:51::07.120,1702680685082,120.62962627,31.42698127,3478486.58523940,559862.94914554,290.03800000,6.00000000,-0.27500000,0.10000000,0.00800000,0.14970000,0.03190000,0.03180000,-0.01630000,0.05670000,0.99830000
$GPFPD,2292,543085.200,290.036,0.082,1.013,31.42698137,120.62962595,14.392,-0.346,0.124,-0.001,0.804,24,21,04*74
$GTIMU,2292,543085.200,0.2593,0.0409,0.0298,-0.0191,0.0777,0.9901,31.6*4D
14:51::07.220,1702680685182,120.62962595,31.42698137,3478486.59615306,559862.91865681,290.03600000,6.00000000,-0.34600000,0.12400000,-0.00100000,0.25930000,0.04090000,0.02980000,-0.01910000,0.07770000,0.99010000
$GPFPD,2292,543085.300,290.038,0.171,1.016,31.42698150,120.62962552,14.391,-0.464,0.164,-0.026,0.802,24,21,04*7A
$GTIMU,2292,543085.300,0.8892,0.0270,-0.0008,-0.0186,0.1293,0.9721,31.6*60
14:51::07.320,1702680685282,120.62962552,31.42698150,3478486.61033318,559862.87769037,290.03800000,6.00000000,-0.46400000,0.16400000,-0.02600000,0.88920000,0.02700000,-0.00080000,-0.01860000,0.12930000,0.97210000
$GPFPD,2292,543085.400,290.044,0.340,1.016,31.42698166,120.62962494,14.389,-0.633,0.224,-0.047,0.802,24,21,04*71
$GTIMU,2292,543085.400,1.6980,0.0033,-0.0324,-0.0188,0.1878,0.9772,31.6*65
14:51::07.420,1702680685382,120.62962494,31.42698166,3478486.62775798,559862.82244306,290.04400000,6.00000000,-0.63300000,0.22400000,-0.04700000,1.69800000,0.00330000,-0.03240000,-0.01880000,0.18780000,0.97720000
$GPFPD,2292,543085.500,290.044,0.504,1.007,31.42698189,120.62962416,14.388,-0.813,0.291,-0.014,0.802,24,21,04*78
$GTIMU,2292,543085.500,1.6423,-0.0860,0.0362,-0.0171,0.2052,1.0317,31.6*66
14:51::07.520,1702680685482,120.62962416,31.42698189,3478486.65283541,559862.74813553,290.04400000,6.00000000,-0.81300000,0.29100000,-0.01400000,1.64230000,-0.08600000,0.03620000,-0.01710000,0.20520000,1.03170000
$GPFPD,2292,543085.600,290.031,0.549,0.995,31.42698217,120.62962320,14.392,-0.991,0.357,0.025,0.802,24,21,04*51
$GTIMU,2292,543085.600,0.4472,-0.1219,0.1400,-0.0168,0.2033,1.0379,31.6*62
$GPFPD,2292,543085.700,290.015,0.556,0.993,31.42698251,120.62962205,14.396,-1.179,0.427,0.015,0.800,24,21,04*50
$GTIMU,2292,543085.700,0.0762,-0.0205,0.1603,-0.0166,0.2147,0.9871,31.6*6F
$GPFPD,2292,543085.800,289.989,0.577,0.993,31.42698291,120.62962070,14.400,-1.356,0.494,0.011,0.800,24,21,04*5F
$GTIMU,2292,543085.800,0.2031,0.0117,0.2643,-0.0148,0.2038,0.9943,31.6*4C
$GPFPD,2292,543085.900,289.937,0.589,0.994,31.42698339,120.62961918,14.401,-1.527,0.562,0.018,0.806,23,21,04*5B
$GTIMU,2292,543085.900,0.1147,0.0103,0.5274,-0.0120,0.1985,1.0042,31.6*4E
$GPFPD,2292,543086.000,289.870,0.606,1.004,31.42698393,120.62961748,14.403,-1.699,0.619,0.021,0.806,23,21,04*5C
$GTIMU,2292,543086.000,0.1670,0.1141,0.6739,-0.0217,0.1960,1.0012,31.6*46
$GPFPD,2292,543086.100,289.797,0.569,1.024,31.42698451,120.62961560,14.406,-1.861,0.677,0.038,0.806,23,21,04*5E
$GTIMU,2292,543086.100,-0.3878,0.2047,0.7311,-0.0195,0.1867,1.0148,31.6*64
$GPFPD,2292,543086.200,289.708,0.531,1.037,31.42698515,120.62961356,14.409,-2.016,0.733,0.019,0.801,24,21,04*50
$GTIMU,2292,543086.200,-0.3904,0.1403,0.8805,-0.0171,0.1776,0.9794,31.6*61
$GPFPD,2292,543086.300,289.611,0.561,1.024,31.42698583,120.62961137,14.409,-2.162,0.775,0.002,0.804,23,21,04*5D
$GTIMU,2292,543086.300,0.2826,-0.1177,0.9793,-0.0291,0.1692,0.9816,31.6*64
$GPFPD,2292,543086.400,289.516,0.577,0.989,31.42698656,120.62960909,14.408,-2.302,0.816,0.016,0.804,23,21,04*53
$GTIMU,2292,543086.400,0.1481,-0.3421,0.9648,-0.0264,0.1587,1.0118,31.6*60
$GPFPD,2292,543086.500,289.412,0.577,0.970,31.42698733,120.62960666,14.407,-2.437,0.867,0.023,0.800,24,21,04*58
$GTIMU,2292,543086.500,-0.0092,-0.1767,1.0364,-0.0146,0.1586,1.0052,31.6*46
$GPGGA,065108.00,3125.6190334,N,12037.7764200,E,1,21,0.9,7.437,M,7.80,M,,*6C
$GPFPD,2292,543086.600,289.318,0.571,0.944,31.42698814,120.62960409,14.407,-2.579,0.909,0.027,0.800,24,21,04*50
$GTIMU,2292,543086.600,-0.0725,-0.2488,0.9448,-0.0236,0.1611,1.0027,31.6*45
14:51::08.620,1702680686582,120.62960409,31.42698814,3478487.33490081,559860.83593494,289.31800000,6.00000000,-2.57900000,0.90900000,0.02700000,-0.07250000,-0.24880000,0.94480000,-0.02360000,0.16110000,1.00270000
$GPFPD,2292,543086.700,289.227,0.597,0.960,31.42698899,120.62960137,14.406,-2.728,0.965,0.017,0.799,24,21,04*5E
$GTIMU,2292,543086.700,0.2460,0.1649,0.9161,-0.0130,0.1731,0.9880,31.6*4D
14:51::08.720,1702680686682,120.62960137,31.42698899,3478487.42766691,559860.57678083,289.22700000,6.00000000,-2.72800000,0.96500000,0.01700000,0.24600000,0.16490000,0.91610000,-0.01300000,0.17310000,0.98800000
$GPFPD,2292,543086.800,289.144,0.661,0.966,31.42698989,120.62959847,14.406,-2.889,1.012,0.016,0.799,24,21,04*52
$GTIMU,2292,543086.800,0.6282,0.0739,0.8381,-0.0254,0.1830,0.9960,31.6*46
14:51::08.820,1702680686782,120.62959847,31.42698989,3478487.52587896,559860.30048079,289.14400000,6.00000000,-2.88900000,1.01200000,0.01600000,0.62820000,0.07390000,0.83810000,-0.02540000,0.18300000,0.99600000
$GPFPD,2292,543086.900,289.091,0.697,0.944,31.42699083,120.62959534,14.408,-3.056,1.056,0.028,0.800,24,21,04*5F
$GTIMU,2292,543086.900,0.3521,-0.2127,0.5423,-0.0305,0.1878,1.0100,31.6*67
14:51::08.919,1702680686882,120.62959534,31.42699083,3478487.62840091,559860.00228724,289.09100000,6.00000000,-3.05600000,1.05600000,0.02800000,0.35210000,-0.21270000,0.54230000,-0.03050000,0.18780000,1.01000000
$GPFPD,2292,543087.000,289.044,0.678,0.939,31.42699181,120.62959203,14.412,-3.216,1.115,0.049,0.800,24,21,04*58
$GTIMU,2292,543087.000,-0.1892,-0.0486,0.4626,-0.0137,0.1872,1.0187,31.6*49
14:51::09.020,1702680686982,120.62959203,31.42699181,3478487.73526001,559859.68695411,289.04400000,6.00000000,-3.21600000,1.11500000,0.04900000,-0.18920000,-0.04860000,0.46260000,-0.01370000,0.18720000,1.01870000
$GPGGA,065109.00,3125.6194931,N,12037.7748609,E,1,21,0.9,7.456,M,7.80,M,,*62
$GPFPD,2292,543087.100,289.015,0.670,0.933,31.42699284,120.62958856,14.415,-3.372,1.164,0.023,0.800,24,21,04*5C
$GTIMU,2292,543087.100,-0.0824,-0.0507,0.2907,-0.0199,0.1792,0.9715,31.6*46
14:51::09.120,1702680687082,120.62958856,31.42699284,3478487.84757595,559859.35637664,289.01500000,6.00000000,-3.37200000,1.16400000,0.02300000,-0.08240000,-0.05070000,0.29070000,-0.01990000,0.17920000,0.97150000
$GPFPD,2292,543087.200,288.992,0.697,0.950,31.42699391,120.62958493,14.417,-3.529,1.219,0.012,0.803,24,21,04*56
$GTIMU,2292,543087.200,0.2658,0.1714,0.2380,-0.0157,0.1817,0.9865,31.6*4E
14:51::09.220,1702680687182,120.62958493,31.42699391,3478487.96423993,559859.01056117,288.99200000,6.00000000,-3.52900000,1.21900000,0.01200000,0.26580000,0.17140000,0.23800000,-0.01570000,0.18170000,0.98650000
$GPFPD,2292,543087.300,288.960,0.711,0.934,31.42699503,120.62958113,14.418,-3.672,1.262,0.036,0.798,24,21,04*52
$GTIMU,2292,543087.300,0.1428,-0.1521,0.3318,-0.0207,0.1637,1.0258,31.6*66
14:51::09.320,1702680687282,120.62958113,31.42699503,3478488.08635531,559858.64855056,288.96000000,6.00000000,-3.67200000,1.26200000,0.03600000,0.14280000,-0.15210000,0.33180000,-0.02070000,0.16370000,1.02580000
