$GPFPD,2292,463327.700,20.297,0.042,1.194,31.42378661,120.63194418,10.617,0.002,0.000,-0.012,0.800,18,16,04*68
$GTIMU,2292,463327.700,0.0015,0.0127,0.0059,-0.0215,0.0025,0.9989,39.9*47
16:41::49.735,1702600927682,120.63194418,31.42378661,3478133.62677564,560085.37017336,20.29700000,6.00000000,0.00200000,0.00000000,-0.01200000,0.00150000,0.01270000,0.00590000,-0.02150000,0.00250000,0.99890000
$GPFPD,2292,463327.800,20.297,0.042,1.193,31.42378659,120.63194420,10.613,0.001,0.001,-0.012,0.800,18,16,04*66
$GTIMU,2292,463327.800,-0.0048,-0.0118,0.0042,-0.0226,0.0016,0.9997,39.9*49
16:41::49.835,1702600927782,120.63194420,31.42378659,3478133.62456898,560085.37208775,20.29700000,6.00000000,0.00100000,0.00100000,-0.01200000,-0.00480000,-0.01180000,0.00420000,-0.02260000,0.00160000,0.99970000
$GPFPD,2292,463327.900,20.297,0.042,1.192,31.42378659,120.63194420,10.612,0.001,0.000,-0.012,0.800,18,16,04*66
$GTIMU,2292,463327.900,-0.0009,-0.0084,-0.0004,-0.0207,0.0007,0.9996,39.9*64
16:41::49.936,1702600927882,120.63194420,31.42378659,3478133.62456898,560085.37208775,20.29700000,6.00000000,0.00100000,0.00000000,-0.01200000,-0.00090000,-0.00840000,-0.00040000,-0.02070000,0.00070000,0.99960000
$GPFPD,2292,463328.000,20.297,0.042,1.193,31.42378659,120.63194420,10.611,0.002,-0.000,-0.012,0.800,18,16,04*4C
$GTIMU,2292,463328.000,0.0015,0.0178,0.0008,-0.0199,0.0014,0.9995,39.9*49
16:41::50.035,1702600927982,120.63194420,31.42378659,3478133.62456898,560085.37208775,20.29700000,6.00000000,0.00200000,0.00000000,-0.01200000,0.00150000,0.01780000,0.00080000,-0.01990000,0.00140000,0.99950000
$GPGGA,084150.00,3125.4277391,N,12037.9166611,E,1,16,1.1,4.079,M,7.80,M,,*67
$GPFPD,2292,463328.100,20.297,0.041,1.195,31.42378659,120.63194420,10.610,0.002,0.000,-0.012,0.800,18,16,04*64
$GTIMU,2292,463328.100,-0.0133,0.0246,0.0020,-0.0209,0.0017,1.0002,39.9*62
16:41::50.135,1702600928082,120.63194420,31.42378659,3478133.62456898,560085.37208775,20.29700000,6.00000000,0.00200000,0.00000000,-0.01200000,-0.01330000,0.02460000,0.00200000,-0.02090000,0.00170000,1.00020000
$GPFPD,2292,463328.200,20.297,0.041,1.195,31.42378660,120.63194420,10.608,0.001,0.000,-0.012,0.803,18,16,04*64
$GTIMU,2292,463328.200,0.0026,0.0013,0.0042,-0.0219,0.0011,0.9990,39.9*42
16:41::50.236,1702600928182,120.63194420,31.42378660,3478133.62567778,560085.37208137,20.29700000,6.00000000,0.00100000,0.00000000,-0.01200000,0.00260000,0.00130000,0.00420000,-0.02190000,0.00110000,0.99900000
$GPFPD,2292,463328.300,20.298,0.042,1.192,31.42378659,120.63194420,10.608,0.000,-0.001,-0.013,0.801,18,16,04*4A
$GTIMU,2292,463328.300,0.0088,-0.0214,0.0008,-0.0217,0.0010,0.9989,39.9*66
16:41::50.335,1702600928282,120.63194420,31.42378659,3478133.62456898,560085.37208775,20.29800000,6.00000000,0.00000000,-0.00100000,-0.01300000,0.00880000,-0.02140000,0.00080000,-0.02170000,0.00100000,0.99890000
$GPFPD,2292,463328.400,20.298,0.043,1.192,31.42378658,120.63194420,10.609,0.001,-0.000,-0.011,0.801,18,16,04*4E
$GTIMU,2292,463328.400,0.0043,-0.0027,0.0042,-0.0208,0.0017,1.0007,39.9*64
16:41::50.436,1702600928382,120.63194420,31.42378658,3478133.62346018,560085.37209413,20.29800000,6.00000000,0.00100000,0.00000000,-0.01100000,0.00430000,-0.00270000,0.00420000,-0.02080000,0.00170000,1.00070000
$GPFPD,2292,463328.500,20.298,0.041,1.193,31.42378657,120.63194420,10.611,0.001,0.000,-0.012,0.799,18,16,04*6A
$GTIMU,2292,463328.500,-0.0218,0.0127,0.0014,-0.0210,0.0023,0.9992,39.9*68
16:41::50.535,1702600928482,120.63194420,31.42378657,3478133.62235138,560085.37210050,20.29800000,6.00000000,0.00100000,0.00000000,-0.01200000,-0.02180000,0.01270000,0.00140000,-0.02100000,0.00230000,0.99920000
$GPFPD,2292,463328.600,20.298,0.041,1.194,31.42378656,120.63194420,10.612,0.001,-0.001,-0.012,0.799,18,16,04*40
$GTIMU,2292,463328.600,-0.0002,0.0110,0.0036,-0.0209,-0.0001,0.9990,39.9*41
16:41::50.636,1702600928582,120.63194420,31.42378656,3478133.62124258,560085.37210688,20.29800000,6.00000000,0.00100000,-0.00100000,-0.01200000,-0.00020000,0.01100000,0.00360000,-0.02090000,-0.00010000,0.99900000
$GPFPD,2292,463328.700,20.298,0.041,1.193,31.42378655,120.63194420,10.614,0.001,-0.001,-0.012,0.800,18,16,04*4C
$GTIMU,2292,463328.700,0.0048,-0.0015,0.0036,-0.0213,0.0014,0.9997,39.9*6F
16:41::50.735,1702600928682,120.63194420,31.42378655,3478133.62013378,560085.37211326,20.29800000,6.00000000,0.00100000,-0.00100000,-0.01200000,0.00480000,-0.00150000,0.00360000,-0.02130000,0.00140000,0.99970000
$GPFPD,2292,463328.800,20.298,0.042,1.193,31.42378654,120.63194419,10.614,0.001,-0.000,-0.012,0.800,18,16,04*4A
$GTIMU,2292,463328.800,0.0020,-0.0010,0.0002,-0.0211,0.0022,0.9997,39.9*6B
16:41::50.835,1702600928782,120.63194419,31.42378654,3478133.61901952,560085.37116881,20.29800000,6.00000000,0.00100000,0.00000000,-0.01200000,0.00200000,-0.00100000,0.00020000,-0.02110000,0.00220000,0.99970000
$GPFPD,2292,463328.900,20.297,0.041,1.194,31.42378654,120.63194420,10.613,0.001,-0.001,-0.012,0.806,16,16,04*44
$GTIMU,2292,463328.900,-0.0082,0.0184,0.0059,-0.0210,0.0010,0.9999,39.9*6E
16:41::50.935,1702600928882,120.63194420,31.42378654,3478133.61902498,560085.37211963,20.29700000,6.00000000,0.00100000,-0.00100000,-0.01200000,-0.00820000,0.01840000,0.00590000,-0.02100000,0.00100000,0.99990000
$GPFPD,2292,463329.000,20.298,0.041,1.195,31.42378654,120.63194420,10.612,0.000,-0.000,-0.012,0.806,16,16,04*43
$GTIMU,2292,463329.000,-0.0025,0.0110,-0.0032,-0.0220,0.0015,0.9989,39.9*41
16:41::51.036,1702600928982,120.63194420,31.42378654,3478133.61902498,560085.37211963,20.29800000,6.00000000,0.00000000,0.00000000,-0.01200000,-0.00250000,0.01100000,-0.00320000,-0.02200000,0.00150000,0.99890000
$GPGGA,084151.00,3125.4277540,N,12037.9166659,E,1,16,1.1,4.038,M,7.80,M,,*65
$GPFPD,2292,463329.100,20.298,0.041,1.194,31.42378654,120.63194420,10.611,0.001,-0.001,-0.012,0.806,16,16,04*40
$GTIMU,2292,463329.100,0.0014,-0.0010,0.0031,-0.0205,0.0009,1.0000,39.9*67
16:41::51.135,1702600929082,120.63194420,31.42378654,3478133.61902498,560085.37211963,20.29800000,6.00000000,0.00100000,-0.00100000,-0.01200000,0.00140000,-0.00100000,0.00310000,-0.02050000,0.00090000,1.00000000
$GPFPD,2292,463329.200,20.298,0.041,1.194,31.42378654,120.63194420,10.609,0.001,-0.001,-0.011,0.801,16,16,04*4E
$GTIMU,2292,463329.200,-0.0082,-0.0010,0.0042,-0.0207,0.0015,1.0001,39.9*4C
16:41::51.236,1702600929182,120.63194420,31.42378654,3478133.61902498,560085.37211963,20.29800000,6.00000000,0.00100000,-0.00100000,-0.01100000,-0.00820000,-0.00100000,0.00420000,-0.02070000,0.00150000,1.00010000
$GPFPD,2292,463329.300,20.299,0.041,1.194,31.42378655,120.63194421,10.608,0.003,0.000,-0.015,0.804,16,16,04*60
$GTIMU,2292,463329.300,0.0037,0.0030,-0.0004,-0.0212,0.0012,0.9986,39.9*63
16:41::51.335,1702600929282,120.63194421,31.42378655,3478133.62013925,560085.37306408,20.29900000,6.00000000,0.00300000,0.00000000,-0.01500000,0.00370000,0.00300000,-0.00040000,-0.02120000,0.00120000,0.99860000
$GPFPD,2292,463329.400,20.298,0.042,1.194,31.42378656,120.63194424,10.603,0.002,0.001,-0.015,0.804,16,16,04*68
$GTIMU,2292,463329.400,0.0077,-0.0010,0.0059,-0.0219,0.0015,0.9999,39.9*68
16:41::51.435,1702600929382,120.63194424,31.42378656,3478133.62126445,560085.37591016,20.29800000,6.00000000,0.00200000,0.00100000,-0.01500000,0.00770000,-0.00100000,0.00590000,-0.02190000,0.00150000,0.99990000
$GPFPD,2292,463329.500,20.298,0.041,1.193,31.42378658,120.63194427,10.599,0.002,0.002,-0.015,0.801,16,16,04*66
$GTIMU,2292,463329.500,-0.0088,0.0007,0.0008,-0.0217,0.0022,0.9997,39.9*6F
16:41::51.536,1702600929482,120.63194427,31.42378658,3478133.62349845,560085.37874986,20.29800000,6.00000000,0.00200000,0.00200000,-0.01500000,-0.00880000,0.00070000,0.00080000,-0.02170000,0.00220000,0.99970000
$GPFPD,2292,463329.600,20.298,0.041,1.193,31.42378660,120.63194430,10.595,0.002,0.001,-0.016,0.801,16,16,04*64
$GTIMU,2292,463329.600,-0.0042,0.0013,0.0014,-0.0206,0.0001,0.9989,39.9*6C
16:41::51.635,1702600929582,120.63194430,31.42378660,3478133.62573245,560085.38158957,20.29800000,6.00000000,0.00200000,0.00100000,-0.01600000,-0.00420000,0.00130000,0.00140000,-0.02060000,0.00010000,0.99890000
$GPFPD,2292,463329.700,20.298,0.041,1.194,31.42378662,120.63194433,10.591,0.003,0.000,-0.015,0.801,16,16,04*64
$GTIMU,2292,463329.700,-0.0002,0.0064,0.0025,-0.0204,0.0015,0.9999,39.9*6D
16:41::51.736,1702600929682,120.63194433,31.42378662,3478133.62796645,560085.38442928,20.29800000,6.00000000,0.00300000,0.00000000,-0.01500000,-0.00020000,0.00640000,0.00250000,-0.02040000,0.00150000,0.99990000
$GPFPD,2292,463329.800,20.298,0.041,1.194,31.42378664,120.63194435,10.587,0.003,0.001,-0.015,0.801,16,16,04*6D
$GTIMU,2292,463329.800,-0.0008,0.0047,0.0019,-0.0213,0.0019,1.0002,39.9*6F
16:41::51.835,1702600929782,120.63194435,31.42378664,3478133.63019499,560085.38631816,20.29800000,6.00000000,0.00300000,0.00100000,-0.01500000,-0.00080000,0.00470000,0.00190000,-0.02130000,0.00190000,1.00020000
$GPFPD,2292,463329.900,20.299,0.041,1.194,31.42378664,120.63194436,10.586,0.002,0.001,-0.016,0.802,16,16,04*6E
$GTIMU,2292,463329.900,0.0020,0.0098,0.0002,-0.0213,0.0013,0.9987,39.9*47
16:41::51.936,1702600929882,120.63194436,31.42378664,3478133.63020045,560085.38726898,20.29900000,6.00000000,0.00200000,0.00100000,-0.01600000,0.00200000,0.00980000,0.00020000,-0.02130000,0.00130000,0.99870000
$GPFPD,2292,463330.000,20.299,0.041,1.195,31.42378664,120.63194436,10.584,0.002,0.002,-0.015,0.802,16,16,04*6C
$GTIMU,2292,463330.000,-0.0048,0.0076,0.0025,-0.0217,0.0016,1.0001,39.9*6E
16:41::52.035,1702600929982,120.63194436,31.42378664,3478133.63020045,560085.38726898,20.29900000,6.00000000,0.00200000,0.00200000,-0.01500000,-0.00480000,0.00760000,0.00250000,-0.02170000,0.00160000,1.00010000
$GPGGA,084152.00,3125.4277611,N,12037.9166621,E,1,16,1.1,4.015,M,7.80,M,,*61
$GPFPD,2292,463330.100,20.299,0.041,1.194,31.42378664,120.63194436,10.583,0.002,0.001,-0.016,0.802,16,16,04*6B
$GTIMU,2292,463330.100,0.0048,-0.0055,0.0025,-0.0212,0.0005,0.9991,39.9*61
16:41::52.135,1702600930082,120.63194436,31.42378664,3478133.63020045,560085.38726898,20.29900000,6.00000000,0.00200000,0.00100000,-0.01600000,0.00480000,-0.00550000,0.00250000,-0.02120000,0.00050000,0.99910000
$GPFPD,2292,463330.200,20.298,0.041,1.193,31.42378664,120.63194436,10.581,0.002,0.001,-0.015,0.804,16,16,04*69
$GTIMU,2292,463330.200,-0.0048,-0.0010,0.0036,-0.0202,0.0015,1.0003,39.9*46
16:41::52.235,1702600930182,120.63194436,31.42378664,3478133.63020045,560085.38726898,20.29800000,6.00000000,0.00200000,0.00100000,-0.01500000,-0.00480000,-0.00100000,0.00360000,-0.02020000,0.00150000,1.00030000
$GPFPD,2292,463330.300,20.298,0.040,1.194,31.42378664,120.63194436,10.579,0.000,0.001,-0.017,0.802,16,16,04*6F
$GTIMU,2292,463330.300,-0.0088,0.0104,0.0014,-0.0209,0.0017,0.9993,39.9*63
16:41::52.335,1702600930282,120.63194436,31.42378664,3478133.63020045,560085.38726898,20.29800000,6.00000000,0.00000000,0.00100000,-0.01700000,-0.00880000,0.01040000,0.00140000,-0.02090000,0.00170000,0.99930000
$GPFPD,2292,463330.400,20.298,0.041,1.194,31.42378665,120.63194432,10.577,-0.001,0.001,-0.018,0.802,16,16,04*41
$GTIMU,2292,463330.400,0.0083,-0.0004,0.0042,-0.0219,0.0011,0.9988,39.9*60
16:41::52.436,1702600930382,120.63194432,31.42378665,3478133.63128738,560085.38345933,20.29800000,6.00000000,-0.00100000,0.00100000,-0.01800000,0.00830000,-0.00040000,0.00420000,-0.02190000,0.00110000,0.99880000
$GPFPD,2292,463330.500,20.298,0.041,1.193,31.42378666,120.63194428,10.575,-0.001,0.002,-0.017,0.805,16,15,04*45
$GTIMU,2292,463330.500,-0.0042,-0.0010,0.0042,-0.0217,0.0020,1.0004,39.9*4D
16:41::52.536,1702600930482,120.63194428,31.42378666,3478133.63237431,560085.37964967,20.29800000,6.00000000,-0.00100000,0.00200000,-0.01700000,-0.00420000,-0.00100000,0.00420000,-0.02170000,0.00200000,1.00040000
$GPFPD,2292,463330.600,20.298,0.041,1.194,31.42378666,120.63194424,10.572,-0.001,0.001,-0.017,0.805,16,15,04*49
$GTIMU,2292,463330.600,-0.0025,0.0070,-0.0009,-0.0208,-0.0000,0.9998,39.9*63
16:41::52.636,1702600930582,120.63194424,31.42378666,3478133.63235244,560085.37584639,20.29800000,6.00000000,-0.00100000,0.00100000,-0.01700000,-0.00250000,0.00700000,-0.00090000,-0.02080000,0.00000000,0.99980000
$GPFPD,2292,463330.700,20.299,0.040,1.194,31.42378667,120.63194420,10.570,-0.001,0.001,-0.017,0.801,16,15,04*4B
$GTIMU,2292,463330.700,-0.0065,0.0081,0.0002,-0.0207,0.0019,0.9990,39.9*6C
16:41::52.735,1702600930682,120.63194420,31.42378667,3478133.63343937,560085.37203674,20.29900000,6.00000000,-0.00100000,0.00100000,-0.01700000,-0.00650000,0.00810000,0.00020000,-0.02070000,0.00190000,0.99900000
$GPFPD,2292,463330.800,20.299,0.040,1.194,31.42378668,120.63194417,10.568,-0.000,0.002,-0.017,0.801,16,15,04*44
$GTIMU,2292,463330.800,-0.0020,-0.0015,0.0025,-0.0209,0.0021,0.9999,39.9*4B
16:41::52.836,1702600930782,120.63194417,31.42378668,3478133.63453176,560085.36917790,20.29900000,6.00000000,0.00000000,0.00200000,-0.01700000,-0.00200000,-0.00150000,0.00250000,-0.02090000,0.00210000,0.99990000
$GPFPD,2292,463330.900,20.299,0.041,1.194,31.42378668,120.63194417,10.566,-0.001,0.002,-0.018,0.802,16,15,04*47
$GTIMU,2292,463330.900,0.0060,0.0058,0.0002,-0.0219,0.0009,0.9987,39.9*46
16:41::52.936,1702600930882,120.63194417,31.42378668,3478133.63453176,560085.36917790,20.29900000,6.00000000,-0.00100000,0.00200000,-0.01800000,0.00600000,0.00580000,0.00020000,-0.02190000,0.00090000,0.99870000
$GPFPD,2292,463331.000,20.299,0.040,1.194,31.42378668,120.63194417,10.564,-0.000,0.001,-0.017,0.802,16,15,04*41
$GTIMU,2292,463331.000,-0.0071,0.0024,0.0014,-0.0204,0.0011,1.0006,39.9*62
16:41::53.035,1702600930982,120.63194417,31.42378668,3478133.63453176,560085.36917790,20.29900000,6.00000000,0.00000000,0.00100000,-0.01700000,-0.00710000,0.00240000,0.00140000,-0.02040000,0.00110000,1.00060000
$GPGGA,084153.00,3125.4277605,N,12037.9166709,E,1,15,1.1,3.993,M,7.80,M,,*6D
$GPFPD,2292,463331.100,20.298,0.040,1.196,31.42378668,120.63194417,10.563,-0.001,0.001,-0.017,0.802,16,15,04*45
$GTIMU,2292,463331.100,-0.0047,0.0240,0.0088,-0.0215,0.0010,0.9997,39.9*6B
16:41::53.135,1702600931082,120.63194417,31.42378668,3478133.63453176,560085.36917790,20.29800000,6.00000000,-0.00100000,0.00100000,-0.01700000,-0.00470000,0.02400000,0.00880000,-0.02150000,0.00100000,0.99970000
$GPFPD,2292,463331.200,20.299,0.040,1.195,31.42378668,120.63194417,10.561,-0.001,0.002,-0.017,0.805,16,15,04*42
$GTIMU,2292,463331.200,-0.0031,-0.0089,-0.0055,-0.0219,0.0021,0.9987,39.9*61
16:41::53.236,1702600931182,120.63194417,31.42378668,3478133.63453176,560085.36917790,20.29900000,6.00000000,-0.00100000,0.00200000,-0.01700000,-0.00310000,-0.00890000,-0.00550000,-0.02190000,0.00210000,0.99870000
$GPFPD,2292,463331.300,20.299,0.039,1.193,31.42378670,120.63194417,10.559,-0.002,0.005,-0.020,0.809,16,15,04*45
$GTIMU,2292,463331.300,-0.0065,-0.0084,0.0071,-0.0204,0.0010,1.0003,39.9*44
16:41::53.336,1702600931282,120.63194417,31.42378670,3478133.63674936,560085.36916515,20.29900000,6.00000000,-0.00200000,0.00500000,-0.02000000,-0.00650000,-0.00840000,0.00710000,-0.02040000,0.00100000,1.00030000
$GPFPD,2292,463331.400,20.299,0.040,1.192,31.42378675,120.63194415,10.553,-0.002,0.005,-0.021,0.809,16,15,04*41
$GTIMU,2292,463331.400,0.0065,-0.0044,0.0008,-0.0209,0.0010,0.9985,39.9*6E
16:41::53.436,1702600931382,120.63194415,31.42378675,3478133.64228242,560085.36723163,20.29900000,6.00000000,-0.00200000,0.00500000,-0.02100000,0.00650000,-0.00440000,0.00080000,-0.02090000,0.00100000,0.99850000
$GPFPD,2292,463331.500,20.299,0.040,1.193,31.42378681,120.63194414,10.548,-0.001,0.005,-0.020,0.805,16,15,04*4F
$GTIMU,2292,463331.500,-0.0025,0.0127,0.0014,-0.0205,0.0018,1.0005,39.9*6F
16:41::53.536,1702600931482,120.63194414,31.42378681,3478133.64892974,560085.36624255,20.29900000,6.00000000,-0.00100000,0.00500000,-0.02000000,-0.00250000,0.01270000,0.00140000,-0.02050000,0.00180000,1.00050000
$GPFPD,2292,463331.600,20.299,0.040,1.195,31.42378686,120.63194412,10.543,-0.002,0.005,-0.020,0.805,16,15,04*43
$GTIMU,2292,463331.600,-0.0002,0.0218,0.0048,-0.0224,0.0010,0.9994,39.9*6D
16:41::53.636,1702600931582,120.63194412,31.42378686,3478133.65446280,560085.36430903,20.29900000,6.00000000,-0.00200000,0.00500000,-0.02000000,-0.00020000,0.02180000,0.00480000,-0.02240000,0.00100000,0.99940000
$GPFPD,2292,463331.700,20.299,0.039,1.195,31.42378691,120.63194411,10.538,-0.003,0.006,-0.021,0.804,16,15,04*47
$GTIMU,2292,463331.700,-0.0071,-0.0021,-0.0020,-0.0218,0.0021,0.9989,39.9*6F
16:41::53.736,1702600931682,120.63194411,31.42378691,3478133.66000133,560085.36332633,20.29900000,6.00000000,-0.00300000,0.00600000,-0.02100000,-0.00710000,-0.00210000,-0.00200000,-0.02180000,0.00210000,0.99890000
$GPFPD,2292,463331.800,20.299,0.040,1.194,31.42378696,120.63194410,10.534,-0.002,0.005,-0.020,0.804,16,15,04*4E
$GTIMU,2292,463331.800,0.0003,-0.0072,0.0031,-0.0199,0.0004,1.0005,39.9*6B
16:41::53.835,1702600931782,120.63194410,31.42378696,3478133.66553985,560085.36234363,20.29900000,6.00000000,-0.00200000,0.00500000,-0.02000000,0.00030000,-0.00720000,0.00310000,-0.01990000,0.00040000,1.00050000
$GPFPD,2292,463331.900,20.299,0.040,1.194,31.42378696,120.63194410,10.532,-0.002,0.004,-0.021,0.804,16,15,04*49
$GTIMU,2292,463331.900,0.0066,0.0087,0.0008,-0.0205,0.0010,0.9986,39.9*4D
16:41::53.935,1702600931882,120.63194410,31.42378696,3478133.66553985,560085.36234363,20.29900000,6.00000000,-0.00200000,0.00400000,-0.02100000,0.00660000,0.00870000,0.00080000,-0.02050000,0.00100000,0.99860000
$GPFPD,2292,463332.000,20.299,0.040,1.194,31.42378697,120.63194409,10.530,-0.002,0.005,-0.020,0.804,16,15,04*48
$GTIMU,2292,463332.000,-0.0002,0.0058,0.0025,-0.0215,0.0024,1.0004,39.9*68
16:41::54.036,1702600931982,120.63194409,31.42378697,3478133.66664319,560085.36138644,20.29900000,6.00000000,-0.00200000,0.00500000,-0.02000000,-0.00020000,0.00580000,0.00250000,-0.02150000,0.00240000,1.00040000
$GPGGA,084154.00,3125.4277575,N,12037.9166692,E,1,15,1.1,3.995,M,7.80,M,,*6B
$GPFPD,2292,463332.100,20.298,0.040,1.193,31.42378697,120.63194409,10.528,-0.003,0.005,-0.020,0.804,16,15,04*47
$GTIMU,2292,463332.100,-0.0020,-0.0089,0.0111,-0.0224,0.0006,0.9997,39.9*47
16:41::54.136,1702600932082,120.63194409,31.42378697,3478133.66664319,560085.36138644,20.29800000,6.00000000,-0.00300000,0.00500000,-0.02000000,-0.00200000,-0.00890000,0.01110000,-0.02240000,0.00060000,0.99970000
$GPFPD,2292,463332.200,20.299,0.041,1.191,31.42378697,120.63194409,10.526,-0.004,0.006,-0.022,0.805,16,15,04*4F
$GTIMU,2292,463332.200,0.0020,-0.0157,-0.0055,-0.0220,0.0023,0.9981,39.9*43
16:41::54.236,1702600932182,120.63194409,31.42378697,3478133.66664319,560085.36138644,20.29900000,6.00000000,-0.00400000,0.00600000,-0.02200000,0.00200000,-0.01570000,-0.00550000,-0.02200000,0.00230000,0.99810000
$GPFPD,2292,463332.300,20.300,0.039,1.193,31.42378697,120.63194409,10.526,0.000,0.000,-0.014,0.804,16,15,04*69
$GTIMU,2292,463332.300,-0.0161,0.0189,-0.0077,-0.0178,-0.0000,1.0019,39.9*67
16:41::54.336,1702600932282,120.63194409,31.42378697,3478133.66664319,560085.36138644,20.30000000,6.00000000,0.00000000,0.00000000,-0.01400000,-0.01610000,0.01890000,-0.00770000,-0.01780000,0.00000000,1.00190000
$GPFPD,2292,463332.400,20.299,0.039,1.195,31.42378691,120.63194412,10.535,-0.001,0.001,-0.016,0.804,16,15,04*48
$GTIMU,2292,463332.400,-0.0042,0.0183,0.0185,-0.0223,0.0015,0.9982,39.9*6C
16:41::54.436,1702600932382,120.63194412,31.42378691,3478133.66000680,560085.36427715,20.29900000,6.00000000,-0.00100000,0.00100000,-0.01600000,-0.00420000,0.01830000,0.01850000,-0.02230000,0.00150000,0.99820000
$GPFPD,2292,463332.500,20.300,0.040,1.195,31.42378686,120.63194414,10.544,-0.002,0.002,-0.016,0.805,16,15,04*41
$GTIMU,2292,463332.500,0.0116,0.0064,-0.0118,-0.0226,0.0024,0.9992,39.9*67
16:41::54.536,1702600932482,120.63194414,31.42378686,3478133.65447374,560085.36621067,20.30000000,6.00000000,-0.00200000,0.00200000,-0.01600000,0.01160000,0.00640000,-0.01180000,-0.02260000,0.00240000,0.99920000
$GPFPD,2292,463332.600,20.300,0.040,1.194,31.42378681,120.63194416,10.552,-0.002,0.002,-0.015,0.805,16,15,04*42
$GTIMU,2292,463332.600,-0.0076,-0.0095,0.0082,-0.0212,0.0008,1.0005,39.9*44
16:41::54.636,1702600932582,120.63194416,31.42378681,3478133.64894068,560085.36814419,20.30000000,6.00000000,-0.00200000,0.00200000,-0.01500000,-0.00760000,-0.00950000,0.00820000,-0.02120000,0.00080000,1.00050000
$GPFPD,2292,463332.700,20.300,0.039,1.193,31.42378675,120.63194418,10.561,-0.001,0.001,-0.016,0.804,16,15,04*4D
$GTIMU,2292,463332.700,-0.0071,-0.0015,-0.0003,-0.0203,0.0010,0.9984,39.9*6F
16:41::54.736,1702600932682,120.63194418,31.42378675,3478133.64229882,560085.37008409,20.30000000,6.00000000,-0.00100000,0.00100000,-0.01600000,-0.00710000,-0.00150000,-0.00030000,-0.02030000,0.00100000,0.99840000
$GPFPD,2292,463332.800,20.300,0.040,1.195,31.42378671,120.63194419,10.567,0.000,0.001,-0.016,0.804,16,15,04*65
$GTIMU,2292,463332.800,0.0037,0.0229,-0.0044,-0.0194,0.0014,1.0004,39.9*6C
16:41::54.836,1702600932782,120.63194419,31.42378671,3478133.63786909,560085.37106042,20.30000000,6.00000000,0.00000000,0.00100000,-0.01600000,0.00370000,0.02290000,-0.00440000,-0.01940000,0.00140000,1.00040000
$GPFPD,2292,463332.900,20.300,0.039,1.196,31.42378671,120.63194419,10.565,-0.001,0.002,-0.016,0.805,16,15,04*45
$GTIMU,2292,463332.900,-0.0059,0.0161,0.0088,-0.0228,0.0019,0.9995,39.9*6A
16:41::54.936,1702600932882,120.63194419,31.42378671,3478133.63786909,560085.37106042,20.30000000,6.00000000,-0.00100000,0.00200000,-0.01600000,-0.00590000,0.01610000,0.00880000,-0.02280000,0.00190000,0.99950000
$GPFPD,2292,463333.000,20.300,0.040,1.194,31.42378671,120.63194419,10.564,-0.002,0.002,-0.016,0.805,16,15,04*43
$GTIMU,2292,463333.000,0.0025,-0.0174,-0.0032,-0.0224,0.0010,0.9994,39.9*45
16:41::55.036,1702600932982,120.63194419,31.42378671,3478133.63786909,560085.37106042,20.30000000,6.00000000,-0.00200000,0.00200000,-0.01600000,0.00250000,-0.01740000,-0.00320000,-0.02240000,0.00100000,0.99940000
$GPGGA,084155.00,3125.4277614,N,12037.9166618,E,1,15,1.1,3.973,M,7.80,M,,*64
$GPFPD,2292,463333.100,20.300,0.040,1.194,31.42378672,120.63194419,10.562,-0.001,0.001,-0.016,0.805,16,15,04*47
$GTIMU,2292,463333.100,-0.0025,-0.0032,0.0008,-0.0198,0.0009,0.9999,39.9*4F
16:41::55.136,1702600933082,120.63194419,31.42378672,3478133.63897789,560085.37105404,20.30000000,6.00000000,-0.00100000,0.00100000,-0.01600000,-0.00250000,-0.00320000,0.00080000,-0.01980000,0.00090000,0.99990000
$GPFPD,2292,463333.200,20.300,0.039,1.194,31.42378672,120.63194419,10.561,-0.001,0.001,-0.015,0.805,16,15,04*4A
$GTIMU,2292,463333.200,-0.0093,0.0121,0.0054,-0.0207,0.0014,1.0001,39.9*6F
16:41::55.236,1702600933182,120.63194419,31.42378672,3478133.63897789,560085.37105404,20.30000000,6.00000000,-0.00100000,0.00100000,-0.01500000,-0.00930000,0.01210000,0.00540000,-0.02070000,0.00140000,1.00010000
$GPFPD,2292,463333.300,20.300,0.039,1.195,31.42378671,120.63194418,10.562,-0.003,-0.001,-0.011,0.806,16,15,04*63
$GTIMU,2292,463333.300,-0.0037,0.0081,-0.0032,-0.0214,0.0012,0.9985,39.9*4F
16:41::55.336,1702600933282,120.63194418,31.42378671,3478133.63786363,560085.37010960,20.30000000,6.00000000,-0.00300000,-0.00100000,-0.01100000,-0.00370000,0.00810000,-0.00320000,-0.02140000,0.00120000,0.99850000
$GPFPD,2292,463333.400,20.300,0.040,1.194,31.42378668,120.63194415,10.570,-0.004,-0.000,-0.011,0.806,16,15,04*6B
$GTIMU,2292,463333.400,0.0082,-0.0089,0.0013,-0.0221,0.0018,0.9992,39.9*6A
16:41::55.436,1702600933382,120.63194415,31.42378668,3478133.63452083,560085.36727627,20.30000000,6.00000000,-0.00400000,0.00000000,-0.01100000,0.00820000,-0.00890000,0.00130000,-0.02210000,0.00180000,0.99920000
$GPFPD,2292,463333.500,20.301,0.040,1.193,31.42378666,120.63194411,10.579,-0.004,0.001,-0.011,0.807,16,15,04*42
$GTIMU,2292,463333.500,0.0009,-0.0067,0.0002,-0.0213,0.0023,1.0004,39.9*6F
16:41::55.536,1702600933482,120.63194411,31.42378666,3478133.63228136,560085.36348574,20.30100000,6.00000000,-0.00400000,0.00100000,-0.01100000,0.00090000,-0.00670000,0.00020000,-0.02130000,0.00230000,1.00040000
$GPFPD,2292,463333.600,20.301,0.041,1.193,31.42378663,120.63194408,10.588,-0.003,0.002,-0.012,0.807,16,15,04*44
$GTIMU,2292,463333.600,0.0145,0.0041,-0.0032,-0.0207,0.0023,0.9980,39.9*6A
16:41::55.636,1702600933582,120.63194408,31.42378663,3478133.62893856,560085.36065241,20.30100000,6.00000000,-0.00300000,0.00200000,-0.01200000,0.01450000,0.00410000,-0.00320000,-0.02070000,0.00230000,0.99800000
$GPFPD,2292,463333.700,20.302,0.044,1.193,31.42378660,120.63194405,10.597,-0.002,0.002,-0.014,0.805,16,15,04*46
$GTIMU,2292,463333.700,0.0270,0.0098,-0.0050,-0.0206,0.0025,0.9974,39.9*62
16:41::55.736,1702600933682,120.63194405,31.42378660,3478133.62559576,560085.35781908,20.30200000,6.00000000,-0.00200000,0.00200000,-0.01400000,0.02700000,0.00980000,-0.00500000,-0.02060000,0.00250000,0.99740000
$GPFPD,2292,463333.800,20.302,0.051,1.192,31.42378658,120.63194402,10.603,-0.003,0.001,-0.013,0.805,16,15,04*4B
$GTIMU,2292,463333.800,0.0667,-0.0090,0.0069,-0.0212,-0.0007,1.0004,39.9*43
16:41::55.836,1702600933782,120.63194402,31.42378658,3478133.62336176,560085.35497937,20.30200000,6.00000000,-0.00300000,0.00100000,-0.01300000,0.06670000,-0.00900000,0.00690000,-0.02120000,-0.00070000,1.00040000
$GPFPD,2292,463333.900,20.302,0.055,1.193,31.42378658,120.63194402,10.601,-0.004,-0.000,-0.013,0.809,16,15,04*6A
$GTIMU,2292,463333.900,0.0417,0.0110,-0.0044,-0.0213,0.0008,1.0000,39.9*66
16:41::55.936,1702600933882,120.63194402,31.42378658,3478133.62336176,560085.35497937,20.30200000,6.00000000,-0.00400000,0.00000000,-0.01300000,0.04170000,0.01100000,-0.00440000,-0.02130000,0.00080000,1.00000000
$GPFPD,2292,463334.000,20.303,0.061,1.192,31.42378658,120.63194401,10.600,-0.004,-0.000,-0.011,0.809,16,15,04*63
$GTIMU,2292,463334.000,0.0559,-0.0050,0.0018,-0.0209,0.0014,1.0011,39.9*69
16:41::56.036,1702600933982,120.63194401,31.42378658,3478133.62335629,560085.35402855,20.30300000,6.00000000,-0.00400000,0.00000000,-0.01100000,0.05590000,-0.00500000,0.00180000,-0.02090000,0.00140000,1.00110000
$GPFPD,2292,463334$GPGGA,08.100,20.34156.00,303,0.063125.42775,1.190,396,N,12031.4237867.916666458,120.63,E,1,15,1194401,1.1,3.962,0.599,-0M,7.80,M,.004,0.000,-0.012,*65
,0.809,16,15,04*4F
$GTIMU,2292,463334.100,0.0156,-0.0135,0.0013,-0.0215,0.0020,0.9995,39.9*6D
16:41::56.136,1702600934082,120.63194401,31.42378658,3478133.62335629,560085.35402855,20.30300000,6.00000000,-0.00400000,0.00000000,-0.01200000,0.01560000,-0.01350000,0.00130000,-0.02150000,0.00200000,0.99950000
$GPFPD,2292,463334.200,20.303,0.066,1.190,31.42378658,120.63194401,10.598,-0.003,0.002,-0.014,0.805,16,15,04*47
$GTIMU,2292,463334.200,0.0326,-0.0038,0.0001,-0.0203,0.0038,0.9974,39.9*65
16:41::56.236,1702600934182,120.63194401,31.42378658,3478133.62335629,560085.35402855,20.30300000,6.00000000,-0.00300000,0.00200000,-0.01400000,0.03260000,-0.00380000,0.00010000,-0.02030000,0.00380000,0.99740000
$GPFPD,2292,463334.300,20.302,0.078,1.191,31.42378657,120.63194402,10.598,0.002,0.003,-0.015,0.807,16,15,04*6B
$GTIMU,2292,463334.300,0.1212,0.0143,0.0130,-0.0211,0.0081,0.9942,39.9*44
16:41::56.336,1702600934282,120.63194402,31.42378657,3478133.62225296,560085.35498575,20.30200000,6.00000000,0.00200000,0.00300000,-0.01500000,0.12120000,0.01430000,0.01300000,-0.02110000,0.00810000,0.99420000
$GPFPD,2292,463334.400,20.304,0.102,1.193,31.42378653,120.63194406,10.605,0.004,0.011,-0.018,0.807,16,15,04*6B
$GTIMU,2292,463334.400,0.2387,0.0256,-0.0146,-0.0221,0.0103,0.9960,39.9*6E
16:41::56.436,1702600934382,120.63194406,31.42378653,3478133.61783963,560085.35881453,20.30400000,6.00000000,0.00400000,0.01100000,-0.01800000,0.23870000,0.02560000,-0.01460000,-0.02210000,0.01030000,0.99600000
$GPFPD,2292,463334.500,20.305,0.116,1.194,31.42378648,120.63194411,10.612,0.006,0.013,-0.010,0.805,16,15,04*69
$GTIMU,2292,463334.500,0.1325,0.0132,-0.0064,-0.0197,0.0047,1.0078,39.9*63
16:41::56.535,1702600934482,120.63194411,31.42378648,3478133.61232298,560085.36360051,20.30500000,6.00000000,0.00600000,0.01300000,-0.01000000,0.13250000,0.01320000,-0.00640000,-0.01970000,0.00470000,1.00780000
$GPFPD,2292,463334.600,20.302,0.111,1.196,31.42378644,120.63194416,10.620,0.005,0.008,-0.002,0.805,16,15,04*68
$GTIMU,2292,463334.600,-0.0523,0.0257,0.0300,-0.0208,-0.0025,1.0078,39.9*4C
16:41::56.635,1702600934582,120.63194416,31.42378644,3478133.60791512,560085.36838012,20.30200000,6.00000000,0.00500000,0.00800000,-0.00200000,-0.05230000,0.02570000,0.03000000,-0.02080000,-0.00250000,1.00780000
$GPFPD,2292,463334.700,20.302,0.109,1.200,31.42378639,120.63194421,10.628,0.003,0.005,-0.006,0.803,16,15,04*63
$GTIMU,2292,463334.700,-0.0206,0.0394,0.0031,-0.0221,-0.0012,0.9954,39.9*42
16:41::56.736,1702600934682,120.63194421,31.42378639,3478133.60239847,560085.37316610,20.30200000,6.00000000,0.00300000,0.00500000,-0.00600000,-0.02060000,0.03940000,0.00310000,-0.02210000,-0.00120000,0.99540000
$GPFPD,2292,463334.800,20.303,0.115,1.202,31.42378636,120.63194424,10.633,0.004,0.010,-0.010,0.803,16,15,04*66
$GTIMU,2292,463334.800,0.0633,0.0246,-0.0068,-0.0216,0.0084,0.9954,39.9*6B
16:41::56.836,1702600934782,120.63194424,31.42378636,3478133.59908848,560085.37603768,20.30300000,6.00000000,0.00400000,0.01000000,-0.01000000,0.06330000,0.02460000,-0.00680000,-0.02160000,0.00840000,0.99540000
$GPFPD,2292,463334.900,20.302,0.120,1.203,31.42378637,120.63194425,10.632,0.008,0.021,-0.007,0.805,16,15,04*6E
$GTIMU,2292,463334.900,0.0440,0.0104,0.0081,-0.0217,0.0145,1.0026,39.9*4A
16:41::56.936,1702600934882,120.63194425,31.42378637,3478133.60020274,560085.37698213,20.30200000,6.00000000,0.00800000,0.02100000,-0.00700000,0.04400000,0.01040000,0.00810000,-0.02170000,0.01450000,1.00260000
$GPFPD,2292,463335.000,20.303,0.123,1.204,31.42378640,120.63194426,10.632,0.013,0.036,-0.007,0.805,16,15,04*6C
$GTIMU,2292,463335.000,0.0281,0.0104,-0.0044,-0.0216,0.0190,0.9995,39.9*6D
16:41::57.035,1702600934982,120.63194426,31.42378640,3478133.60353461,560085.37791382,20.30300000,6.00000000,0.01300000,0.03600000,-0.00700000,0.02810000,0.01040000,-0.00440000,-0.02160000,0.01900000,0.99950000
$GPFPD,2292,463335$GPGGA,08.100,20.34157.00,307,0.130125.42777,1.205,3197,N,1203.423786447.9166675,120.6319,E,1,15,4428,10.61.1,3.9331,0.020,7,M,7.80,0.057,-0.M,,*67
008,0.805,16,15,04*6B
$GTIMU,2292,463335.100,0.0706,0.0138,-0.0319,-0.0222,0.0254,0.9981,39.9*6B
16:41::57.136,1702600935082,120.63194428,31.42378644,3478133.60798074,560085.37978995,20.30700000,6.00000000,0.02000000,0.05700000,-0.00800000,0.07060000,0.01380000,-0.03190000,-0.02220000,0.02540000,0.99810000
$GPFPD,2292,463335.200,20.307,0.143,1.204,31.42378651,120.63194431,10.630,0.034,0.090,-0.012,0.803,16,15,04*63
$GTIMU,2292,463335.200,0.1280,-0.0079,-0.0018,-0.0195,0.0397,0.9961,39.9*46
16:41::57.236,1702600935182,120.63194431,31.42378651,3478133.61575873,560085.38259778,20.30700000,6.00000000,0.03400000,0.09000000,-0.01200000,0.12800000,-0.00790000,-0.00180000,-0.01950000,0.03970000,0.99610000
$GPFPD,2292,463335.300,20.302,0.166,1.203,31.42378661,120.63194435,10.629,0.051,0.137,-0.013,0.803,16,15,04*66
$GTIMU,2292,463335.300,0.2297,0.0028,0.0521,-0.0217,0.0547,0.9989,39.9*4D
16:41::57.336,1702600935282,120.63194435,31.42378661,3478133.62686859,560085.38633729,20.30200000,6.00000000,0.05100000,0.13700000,-0.01300000,0.22970000,0.00280000,0.05210000,-0.02170000,0.05470000,0.99890000
$GPFPD,2292,463335.400,20.301,0.184,1.200,31.42378675,120.63194441,10.628,0.070,0.187,-0.007,0.803,16,15,04*67
$GTIMU,2292,463335.400,0.1808,-0.0306,0.0186,-0.0208,0.0589,1.0057,39.9*60
16:41::57.436,1702600935382,120.63194441,31.42378675,3478133.64242458,560085.39195294,20.30100000,6.00000000,0.07000000,0.18700000,-0.00700000,0.18080000,-0.03060000,0.01860000,-0.02080000,0.05890000,1.00570000
$GPFPD,2292,463335.500,20.296,0.188,1.202,31.42378694,120.63194449,10.628,0.091,0.237,-0.005,0.799,16,15,04*69
$GTIMU,2292,463335.500,0.0306,0.0211,0.0583,-0.0185,0.0585,1.0015,39.9*42
16:41::57.536,1702600935482,120.63194449,31.42378694,3478133.66353550,560085.39943835,20.29600000,6.00000000,0.09100000,0.23700000,-0.00500000,0.03060000,0.02110000,0.05830000,-0.01850000,0.05850000,1.00150000
$GPFPD,2292,463335.600,20.285,0.190,1.203,31.42378717,120.63194460,10.628,0.110,0.288,-0.006,0.799,16,15,04*6E
$GTIMU,2292,463335.600,0.0177,0.0188,0.1079,-0.0216,0.0591,0.9980,39.9*46
16:41::57.636,1702600935582,120.63194460,31.42378717,3478133.68909802,560085.40975071,20.28500000,6.00000000,0.11000000,0.28800000,-0.00600000,0.01770000,0.01880000,0.10790000,-0.02160000,0.05910000,0.99800000
$GPFPD,2292,463335.700,20.277,0.196,1.204,31.42378745,120.63194472,10.627,0.128,0.341,-0.006,0.802,16,15,04*6A
$GTIMU,2292,463335.700,0.0624,0.0086,0.0867,-0.0229,0.0619,0.9992,39.9*43
16:41::57.735,1702600935682,120.63194472,31.42378745,3478133.72021000,560085.42098201,20.27700000,6.00000000,0.12800000,0.34100000,-0.00600000,0.06240000,0.00860000,0.08670000,-0.02290000,0.06190000,0.99920000
$GPFPD,2292,463335.800,20.269,0.199,1.202,31.42378778,120.63194486,10.627,0.147,0.394,-0.003,0.802,16,15,04*62
$GTIMU,2292,463335.800,0.0215,-0.0170,0.0783,-0.0215,0.0615,1.0021,39.9*60
16:41::57.836,1702600935782,120.63194486,31.42378778,3478133.75687691,560085.43408307,20.26900000,6.00000000,0.14700000,0.39400000,-0.00300000,0.02150000,-0.01700000,0.07830000,-0.02150000,0.06150000,1.00210000
$GPFPD,2292,463335.900,20.257,0.200,1.199,31.42378816,120.63194502,10.627,0.166,0.446,-0.005,0.802,16,15,04*6B
$GTIMU,2292,463335.900,0.0108,-0.0261,0.1268,-0.0214,0.0607,0.9974,39.9*6F
16:41::57.936,1702600935882,120.63194502,31.42378816,3478133.79909875,560085.44905388,20.25700000,6.00000000,0.16600000,0.44600000,-0.00500000,0.01080000,-0.02610000,0.12680000,-0.02140000,0.06070000,0.99740000
$GPFPD,2292,463336.000,20.244,0.208,1.196,31.42378858,120.63194521,10.626,0.184,0.500,-0.007,0.802,16,15,04*63
$GTIMU,2292,463336.000,0.0801,-0.0267,0.1346,-0.0233,0.0619,0.9978,39.9*68
16:41::58.036,1702600935982,120.63194521,31.42378858,3478133.84577218,560085.46685165,20.24400000,6.00000000,0.18400000,0.50000000,-0.00700000,0.08010000,-0.02670000,0.13460000,-0.02330000,0.06190000,0.99780000
$GPGGA,084158.00,3125.4279041,N,12037.9167227,E,1,15,1.1,3.929,M,7.80,M,,*67
$GPFPD,2292,463336.100,20.233,0.215,1.198,31.42378906,120.63194541,10.625,0.203,0.551,-0.004,0.802,16,15,04*64
$GTIMU,2292,463336.100,0.0568,0.0227,0.1136,-0.0206,0.0602,1.0019,39.9*4D
16:41::58.136,1702600936082,120.63194541,31.42378906,3478133.89910388,560085.48556198,20.23300000,6.00000000,0.20300000,0.55100000,-0.00400000,0.05680000,0.02270000,0.11360000,-0.02060000,0.06020000,1.00190000
$GPFPD,2292,463336.200,20.207,0.221,1.204,31.42378958,120.63194564,10.625,0.227,0.601,-0.008,0.801,16,15,04*62
$GTIMU,2292,463336.200,0.0619,0.0629,0.2629,-0.0160,0.0600,0.9961,39.9*44
16:41::58.236,1702600936182,120.63194564,31.42378958,3478133.95688718,560085.50709926,20.20700000,6.00000000,0.22700000,0.60100000,-0.00800000,0.06190000,0.06290000,0.26290000,-0.01600000,0.06000000,0.99610000
$GPFPD,2292,463336.300,20.155,0.233,1.218,31.42379013,120.63194589,10.626,0.247,0.645,-0.003,0.798,16,15,04*6C
$GTIMU,2292,463336.300,0.1019,0.1547,0.5120,-0.0175,0.0588,0.9992,39.9*4A
16:41::58.336,1702600936282,120.63194589,31.42379013,3478134.01800781,560085.53051905,20.15500000,6.00000000,0.24700000,0.64500000,-0.00300000,0.10190000,0.15470000,0.51200000,-0.01750000,0.05880000,0.99920000
$GPFPD,2292,463336.400,20.086,0.239,1.227,31.42379068,120.63194613,10.633,0.265,0.696,-0.001,0.798,16,15,04*66
$GTIMU,2292,463336.400,0.0381,0.0914,0.7027,-0.0225,0.0602,1.0017,39.9*4A
16:41::58.435,1702600936382,120.63194613,31.42379068,3478134.07912297,560085.55298802,20.08600000,6.00000000,0.26500000,0.69600000,-0.00100000,0.03810000,0.09140000,0.70270000,-0.02250000,0.06020000,1.00170000
$GPFPD,2292,463336.500,20.008,0.239,1.229,31.42379128,120.63194639,10.641,0.279,0.748,-0.000,0.796,16,15,04*67
$GTIMU,2292,463336.500,-0.0106,0.0271,0.7786,-0.0258,0.0600,0.9997,39.9*6E
16:41::58.536,1702600936482,120.63194639,31.42379128,3478134.14579306,560085.57732675,20.00800000,6.00000000,0.27900000,0.74800000,0.00000000,-0.01060000,0.02710000,0.77860000,-0.02580000,0.06000000,0.99970000
$GPFPD,2292,463336.600,19.925,0.241,1.233,31.42379192,120.63194666,10.649,0.300,0.799,-0.000,0.796,16,15,04*6C
$GTIMU,2292,463336.600,0.0009,0.0469,0.8322,-0.0197,0.0606,0.9996,39.9*43
16:41::58.636,1702600936582,120.63194666,31.42379192,3478134.21690381,560085.60259080,19.92500000,6.00000000,0.30000000,0.79900000,0.00000000,0.00090000,0.04690000,0.83220000,-0.01970000,0.06060000,0.99960000
$GPFPD,2292,463336.700,19.833,0.243,1.245,31.42379261,120.63194696,10.657,0.320,0.850,0.000,0.801,16,16,04*40
$GTIMU,2292,463336.700,-0.0004,0.1247,0.9172,-0.0208,0.0610,0.9996,39.9*6D
16:41::58.736,1702600936682,120.63194696,31.42379261,3478134.29357496,560085.63067542,19.83300000,6.00000000,0.32000000,0.85000000,0.00000000,-0.00040000,0.12470000,0.91720000,-0.02080000,0.06100000,0.99960000
$GPFPD,2292,463336.800,19.739,0.245,1.258,31.42379335,120.63194728,10.664,0.336,0.903,-0.001,0.801,16,16,04*68
$GTIMU,2292,463336.800,-0.0094,0.1383,0.9451,-0.0246,0.0610,0.9981,39.9*6A
16:41::58.835,1702600936782,120.63194728,31.42379335,3478134.37580104,560085.66062980,19.73900000,6.00000000,0.33600000,0.90300000,-0.00100000,-0.00940000,0.13830000,0.94510000,-0.02460000,0.06100000,0.99810000
$GPFPD,2292,463336.900,19.642,0.247,1.264,31.42379419,120.63194765,10.664,0.350,0.951,0.002,0.800,16,16,04*41
$GTIMU,2292,463336.900,0.0008,0.0718,0.9730,-0.0251,0.0557,1.0022,39.9*4E
16:41::58.936,1702600936882,120.63194765,31.42379419,3478134.46914245,560085.69527451,19.64200000,6.00000000,0.35000000,0.95100000,0.00200000,0.00080000,0.07180000,0.97300000,-0.02510000,0.05570000,1.00220000
$GPFPD,2292,463337.000,19.538,0.248,1.264,31.42379507,120.63194802,10.664,0.365,0.999,0.002,0.800,16,16,04*4A
$GTIMU,2292,463337.000,-0.0122,0.0023,1.0449,-0.0249,0.0564,0.9994,39.9*6D
16:41::59.036,1702600936982,120.63194802,31.42379507,3478134.56691905,560085.72989371,19.53800000,6.00000000,0.36500000,0.99900000,0.00200000,-0.01220000,0.00230000,1.04490000,-0.02490000,0.05640000,0.99940000
$GPGGA,084159.00,3125.4283120,N,12037.9168961,E,1,15,1.1,3.938,M,7.80,M,,*63
$GPFPD,2292,463337.100,19.433,0.252,1.253,31.42379599,120.63194841,10.664,0.378,1.047,-0.000,0.800,16,16,04*66
$GTIMU,2292,463337.100,0.0177,-0.1028,1.0500,-0.0258,0.0555,0.9972,39.9*60
16:41::59.135,1702600937082,120.63194841,31.42379599,3478134.66914179,560085.76638905,19.43300000,6.00000000,0.37800000,1.04700000,0.00000000,0.01770000,-0.10280000,1.05000000,-0.02580000,0.05550000,0.99720000
$GPFPD,2292,463337.200,19.318,0.253,1.240,31.42379696,120.63194882,10.664,0.395,1.092,0.002,0.794,16,15,04*4E
$GTIMU,2292,463337.200,-0.0150,-0.1177,1.1521,-0.0208,0.0542,1.0014,39.9*40
16:41::59.235,1702600937182,120.63194882,31.42379696,3478134.77691945,560085.80475415,19.31800000,6.00000000,0.39500000,1.09200000,0.00200000,-0.01500000,-0.11770000,1.15210000,-0.02080000,0.05420000,1.00140000
$GPFPD,2292,463337.300,19.196,0.244,1.238,31.42379797,120.63194924,10.667,0.409,1.137,0.014,0.804,16,15,04*41
$GTIMU,2292,463337.300,-0.1179,-0.0149,1.2248,-0.0238,0.0508,1.0068,39.9*4A
16:41::59.336,1702600937282,120.63194924,31.42379797,3478134.88913778,560085.84404455,19.19600000,6.00000000,0.40900000,1.13700000,0.01400000,-0.11790000,-0.01490000,1.22480000,-0.02380000,0.05080000,1.00680000
$GPFPD,2292,463337.400,19.081,0.229,1.236,31.42379905,120.63194969,10.676,0.420,1.179,0.014,0.804,16,15,04*49
$GTIMU,2292,463337.400,-0.1833,-0.0131,1.1537,-0.0255,0.0492,0.9992,39.9*44
16:41::59.436,1702600937382,120.63194969,31.42379905,3478135.00913410,560085.88614279,19.08100000,6.00000000,0.42000000,1.17900000,0.01400000,-0.18330000,-0.01310000,1.15370000,-0.02550000,0.04920000,0.99920000
$GPFPD,2292,463337.500,18.963,0.218,1.236,31.42380017,120.63195014,10.685,0.432,1.219,0.009,0.800,16,15,04*42
$GTIMU,2292,463337.500,-0.1350,0.0153,1.1792,-0.0233,0.0468,0.9946,39.9*63
16:41::59.535,1702600937482,120.63195014,31.42380017,3478135.13356562,560085.92821551,18.96300000,6.00000000,0.43200000,1.21900000,0.00900000,-0.13500000,0.01530000,1.17920000,-0.02330000,0.04680000,0.99460000
$GPFPD,2292,463337.600,18.841,0.224,1.238,31.42380132,120.63195061,10.694,0.442,1.258,0.006,0.800,16,15,04*48
$GTIMU,2292,463337.600,0.0365,0.0214,1.2176,-0.0250,0.0463,0.9954,39.9*48
16:41::59.636,1702600937582,120.63195061,31.42380132,3478135.26133447,560085.97217075,18.84100000,6.00000000,0.44200000,1.25800000,0.00600000,0.03650000,0.02140000,1.21760000,-0.02500000,0.04630000,0.99540000
$GPFPD,2292,463337.700,18.722,0.231,1.233,31.42380251,120.63195109,10.702,0.452,1.299,0.006,0.794,16,15,04*45
$GTIMU,2292,463337.700,0.0375,-0.0411,1.2005,-0.0258,0.0474,0.9996,39.9*63
16:41::59.736,1702600937682,120.63195109,31.42380251,3478135.39354398,560086.01705129,18.72200000,6.00000000,0.45200000,1.29900000,0.00600000,0.03750000,-0.04110000,1.20050000,-0.02580000,0.04740000,0.99960000
$GPFPD,2292,463337.800,18.598,0.225,1.239,31.42380372,120.63195158,10.709,0.465,1.339,0.006,0.794,16,15,04*46
$GTIMU,2292,463337.800,-0.0870,0.0766,1.2413,-0.0223,0.0471,0.9994,39.9*69
16:41::59.836,1702600937782,120.63195158,31.42380372,3478135.52797656,560086.06286991,18.59800000,6.00000000,0.46500000,1.33900000,0.00600000,-0.08700000,0.07660000,1.24130000,-0.02230000,0.04710000,0.99940000
$GPFPD,2292,463337.900,18.458,0.232,1.240,31.42380495,120.63195207,10.710,0.474,1.378,0.002,0.803,16,15,04*4D
$GTIMU,2292,463337.900,0.0438,0.0167,1.3943,-0.0253,0.0453,0.9956,39.9*42
16:41::59.935,1702600937882,120.63195207,31.42380495,3478135.66462674,560086.10867576,18.45800000,6.00000000,0.47400000,1.37800000,0.00200000,0.04380000,0.01670000,1.39430000,-0.02530000,0.04530000,0.99560000
$GPFPD,2292,463338.000,18.297,0.255,1.247,31.42380621,120.63195258,10.710,0.486,1.417,0.009,0.803,16,15,04*47
$GTIMU,2292,463338.000,0.1966,0.0743,1.6215,-0.0235,0.0468,1.0060,39.9*42
16:42::00.036,1702600937982,120.63195258,31.42380621,3478135.80461425,560086.15636413,18.29700000,6.00000000,0.48600000,1.41700000,0.00900000,0.19660000,0.07430000,1.62150000,-0.02350000,0.04680000,1.00600000
$GPGGA,084200.00,3125.4289805,N,12037.9171638,E,1,16,1.1,3.955,M,7.80,M,,*6B
$GPFPD,2292,463338.100,18.109,0.266,1.243,31.42380751,120.63195309,10.711,0.497,1.460,0.013,0.803,16,15,04*4F
$GTIMU,2292,463338.100,0.0604,-0.0220,1.8887,-0.0251,0.0503,1.0032,39.9*62
16:42::00.136,1702600938082,120.63195309,31.42380751,3478135.94903695,560086.20402699,18.10900000,6.00000000,0.49700000,1.46000000,0.01300000,0.06040000,-0.02200000,1.88870000,-0.02510000,0.05030000,1.00320000
$GPFPD,2292,463338.200,17.891,0.268,1.256,31.42380885,120.63195362,10.712,0.510,1.504,0.007,0.796,16,16,04*41
$GTIMU,2292,463338.200,-0.0259,0.1391,2.1826,-0.0229,0.0515,0.9935,39.9*68
16:42::00.236,1702600938182,120.63195362,31.42380885,3478136.09790579,560086.25356598,17.89100000,6.00000000,0.51000000,1.50400000,0.00700000,-0.02590000,0.13910000,2.18260000,-0.02290000,0.05150000,0.99350000
$GPFPD,2292,463338.300,17.635,0.286,1.266,31.42381022,120.63195416,10.714,0.519,1.552,0.007,0.807,16,16,04*48
$GTIMU,2292,463338.300,0.1210,0.1187,2.5688,-0.0252,0.0581,0.9948,39.9*48
16:42::00.336,1702600938282,120.63195416,31.42381022,3478136.25010649,560086.30403666,17.63500000,6.00000000,0.51900000,1.55200000,0.00700000,0.12100000,0.11870000,2.56880000,-0.02520000,0.05810000,0.99480000
$GPFPD,2292,463338.400,17.343,0.311,1.296,31.42381163,120.63195466,10.723,0.535,1.617,0.008,0.807,16,16,04*4F
$GTIMU,2292,463338.400,0.1802,0.3171,2.9291,-0.0271,0.0736,0.9995,39.9*42
16:42::00.436,1702600938382,120.63195466,31.42381163,3478136.40672051,560086.35067856,17.34300000,6.00000000,0.53500000,1.61700000,0.00800000,0.18020000,0.31710000,2.92910000,-0.02710000,0.07360000,0.99950000
$GPFPD,2292,463338.500,16.985,0.354,1.324,31.42381311,120.63195519,10.731,0.561,1.703,0.003,0.803,16,15,04*42
$GTIMU,2292,463338.500,0.3482,0.3066,3.5822,-0.0240,0.0983,0.9945,39.9*42
16:42::00.536,1702600938482,120.63195519,31.42381311,3478136.57111253,560086.40012828,16.98500000,6.00000000,0.56100000,1.70300000,0.00300000,0.34820000,0.30660000,3.58220000,-0.02400000,0.09830000,0.99450000
$GPFPD,2292,463338.600,16.550,0.412,1.349,31.42381467,120.63195574,10.739,0.583,1.807,-0.001,0.803,16,15,04*66
$GTIMU,2292,463338.600,0.4769,0.2857,4.3705,-0.0327,0.1156,0.9940,39.9*44
16:42::00.636,1702600938582,120.63195574,31.42381467,3478136.74438588,560086.45142862,16.55000000,6.00000000,0.58300000,1.80700000,-0.00100000,0.47690000,0.28570000,4.37050000,-0.03270000,0.11560000,0.99400000
$GPFPD,2292,463338.700,16.054,0.471,1.376,31.42381633,120.63195632,10.747,0.604,1.924,0.000,0.803,15,16,04*44
$GTIMU,2292,463338.700,0.4683,0.3100,4.9681,-0.0366,0.1284,0.9994,39.9*4D
16:42::00.735,1702600938682,120.63195632,31.42381633,3478136.92876361,560086.50551766,16.05400000,6.00000000,0.60400000,1.92400000,0.00000000,0.46830000,0.31000000,4.96810000,-0.03660000,0.12840000,0.99940000
$GPFPD,2292,463338.800,15.520,0.521,1.388,31.42381811,120.63195693,10.753,0.624,2.058,0.003,0.803,15,16,04*4B
$GTIMU,2292,463338.800,0.3738,0.1703,5.3618,-0.0426,0.1468,1.0006,39.9*45
16:42::00.836,1702600938782,120.63195693,31.42381811,3478137.12646334,560086.56238263,15.52000000,6.00000000,0.62400000,2.05800000,0.00300000,0.37380000,0.17030000,5.36180000,-0.04260000,0.14680000,1.00060000
$GPFPD,2292,463338.900,14.946,0.576,1.406,31.42382004,120.63195760,10.754,0.645,2.203,0.003,0.807,15,16,04*4E
$GTIMU,2292,463338.900,0.4067,0.2341,5.7506,-0.0422,0.1585,0.9978,39.9*49
16:42::00.936,1702600938882,120.63195760,31.42382004,3478137.34082786,560086.62485687,14.94600000,6.00000000,0.64500000,2.20300000,0.00300000,0.40670000,0.23410000,5.75060000,-0.04220000,0.15850000,0.99780000
$GPFPD,2292,463339.000,14.333,0.633,1.435,31.42382210,120.63195829,10.754,0.667,2.355,0.008,0.807,15,16,04*40
$GTIMU,2292,463339.000,0.4188,0.3563,6.1469,-0.0429,0.1665,1.0023,39.9*42
16:42::01.036,1702600938982,120.63195829,31.42382210,3478137.56961770,560086.68914986,14.33300000,6.00000000,0.66700000,2.35500000,0.00800000,0.41880000,0.35630000,6.14690000,-0.04290000,0.16650000,1.00230000
$GPGGA,084201.00,3125.4299449,N,12037.9174745,E,1,15,1.1,3.951,M,7.80,M,,*66
$GPFPD,2292,463339.100,13.695,0.661,1.431,31.42382429,120.63195899,10.756,0.668,2.512,0.023,0.807,15,16,04*4A
$GTIMU,2292,463339.100,0.1226,0.0374,6.3826,-0.0628,0.1682,1.0123,39.9*4C
16:42::01.135,1702600939082,120.63195899,31.42382429,3478137.81282739,560086.75431076,13.69500000,6.00000000,0.66800000,2.51200000,0.02300000,0.12260000,0.03740000,6.38260000,-0.06280000,0.16820000,1.01230000
$GPFPD,2292,463339.200,13.025,0.669,1.447,31.42382663,120.63195970,10.759,0.682,2.665,0.033,0.815,15,15,04*4E
$GTIMU,2292,463339.200,-0.0913,0.2423,6.6990,-0.0486,0.1675,1.0070,39.9*69
16:42::01.236,1702600939182,120.63195970,31.42382663,3478138.07267453,560086.82032684,13.02500000,6.00000000,0.68200000,2.66500000,0.03300000,-0.09130000,0.24230000,6.69900000,-0.04860000,0.16750000,1.00700000
$GPFPD,2292,463339.300,12.312,0.675,1.459,31.42382912,120.63196042,10.761,0.685,2.819,0.029,0.806,16,15,04*4A
$GTIMU,2292,463339.300,-0.1231,0.2054,7.1382,-0.0537,0.1624,0.9972,39.9*65
16:42::01.336,1702600939282,120.63196042,31.42382912,3478138.34915912,560086.88719808,12.31200000,6.00000000,0.68500000,2.81900000,0.02900000,-0.12310000,0.20540000,7.13820000,-0.05370000,0.16240000,0.99720000
$GPFPD,2292,463339.400,11.571,0.675,1.490,31.42383180,120.63196111,10.758,0.682,2.966,0.028,0.806,16,15,04*48
$GTIMU,2292,463339.400,-0.1912,0.4069,7.4098,-0.0594,0.1592,0.9948,39.9*63
16:42::01.436,1702600939382,120.63196111,31.42383180,3478138.64669449,560086.95109571,11.57100000,6.00000000,0.68200000,2.96600000,0.02800000,-0.19120000,0.40690000,7.40980000,-0.05940000,0.15920000,0.99480000
$GPFPD,2292,463339.500,10.808,0.681,1.523,31.42383461,120.63196179,10.754,0.670,3.116,0.021,0.800,16,15,04*4D
$GTIMU,2292,463339.500,-0.1344,0.4208,7.6354,-0.0686,0.1596,0.9898,39.9*67
16:42::01.535,1702600939482,120.63196179,31.42383461,3478138.95863877,560087.01395963,10.80800000,6.00000000,0.67000000,3.11600000,0.02100000,-0.13440000,0.42080000,7.63540000,-0.06860000,0.15960000,0.98980000
$GPFPD,2292,463339.600,10.043,0.701,1.529,31.42383756,120.63196246,10.751,0.649,3.273,0.020,0.800,16,15,04*4C
$GTIMU,2292,463339.600,-0.0066,0.1530,7.6517,-0.0762,0.1665,0.9957,39.9*68
16:42::01.636,1702600939582,120.63196246,31.42383756,3478139.28610077,560087.07578345,10.04300000,6.00000000,0.64900000,3.27300000,0.02000000,-0.00660000,0.15300000,7.65170000,-0.07620000,0.16650000,0.99570000
$GPFPD,2292,463339.700,9.307,0.720,1.521,31.42384065,120.63196310,10.746,0.627,3.439,0.016,0.803,16,15,04*7F
$GTIMU,2292,463339.700,-0.0065,0.0192,7.3586,-0.0775,0.1759,0.9911,39.9*60
16:42::01.736,1702600939682,120.63196310,31.42384065,3478139.62906954,560087.13466553,9.30700000,6.00000000,0.62700000,3.43900000,0.01600000,-0.00650000,0.01920000,7.35860000,-0.07750000,0.17590000,0.99110000
$GPFPD,2292,463339.800,8.670,0.752,1.430,31.42384389,120.63196371,10.743,0.582,3.609,0.019,0.803,16,15,04*71
$GTIMU,2292,463339.800,0.1516,-0.8232,6.3859,-0.0987,0.1784,0.9989,39.9*62
16:42::01.836,1702600939782,120.63196371,31.42384389,3478139.98865390,560087.19059951,8.67000000,6.00000000,0.58200000,3.60900000,0.01900000,0.15160000,-0.82320000,6.38590000,-0.09870000,0.17840000,0.99890000
$GPFPD,2292,463339.900,8.164,0.788,1.351,31.42384722,120.63196431,10.746,0.565,3.778,0.029,0.796,15,15,04*7B
$GTIMU,2292,463339.900,0.2407,-0.7227,5.0685,-0.0671,0.1820,1.0059,39.9*6E
16:42::01.936,1702600939882,120.63196431,31.42384722,3478140.35821198,560087.24552528,8.16400000,6.00000000,0.56500000,3.77800000,0.02900000,0.24070000,-0.72270000,5.06850000,-0.06710000,0.18200000,1.00590000
$GPFPD,2292,463340.000,7.765,0.818,1.239,31.42385071,120.63196490,10.749,0.557,3.946,0.033,0.796,15,15,04*70
$GTIMU,2292,463340.000,0.2071,-1.0613,3.9937,-0.0547,0.1834,1.0009,39.9*66
16:42::02.036,1702600939982,120.63196490,31.42385071,3478140.74550537,560087.29939820,7.76500000,6.00000000,0.55700000,3.94600000,0.03300000,0.20710000,-1.06130000,3.99370000,-0.05470000,0.18340000,1.00090000
$GPGGA,084202.00,3125.4316297,N,12037.9177928,E,1,15,1.1,4.024,M,7.80,M,,*6C
$GPFPD,2292,463340.100,7.484,0.815,1.211,31.42385435,120.63196549,10.753,0.559,4.108,0.043,0.796,15,15,04*7C
$GTIMU,2292,463340.100,-0.0930,-0.2367,2.8089,-0.0423,0.1792,1.0067,39.9*45
16:42::02.136,1702600940082,120.63196549,31.42385435,3478141.14943074,560087.35317547,7.48400000,6.00000000,0.55900000,4.10800000,0.04300000,-0.09300000,-0.23670000,2.80890000,-0.04230000,0.17920000,1.00670000
$GPFPD,2292,463340.200,7.308,0.789,1.242,31.42385813,120.63196608,10.757,0.566,4.268,0.040,0.808,15,15,04*78
$GTIMU,2292,463340.200,-0.2968,0.3455,1.7567,-0.0345,0.1768,0.9939,39.9*62
16:42::02.236,1702600940182,120.63196608,31.42385813,3478141.56887930,560087.40686346,7.30800000,6.00000000,0.56600000,4.26800000,0.04000000,-0.29680000,0.34550000,1.75670000,-0.03450000,0.17680000,0.99390000
$GPFPD,2292,463340.300,7.220,0.736,1.276,31.42386203,120.63196667,10.763,0.562,4.410,0.044,0.800,15,15,04*76
$GTIMU,2292,463340.300,-0.5534,0.3541,0.8717,-0.0431,0.1620,0.9954,39.9*6C
16:42::02.336,1702600940282,120.63196667,31.42386203,3478142.00163344,560087.46047493,7.22000000,6.00000000,0.56200000,4.41000000,0.04400000,-0.55340000,0.35410000,0.87170000,-0.04310000,0.16200000,0.99540000
$GPFPD,2292,463340.400,7.214,0.668,1.269,31.42386602,120.63196722,10.777,0.558,4.529,0.061,0.800,15,15,04*77
$GTIMU,2292,463340.400,-0.6858,-0.0649,0.0458,-0.0418,0.1328,1.0148,39.9*41
16:42::02.436,1702600940382,120.63196722,31.42386602,3478142.44434491,560087.51022573,7.21400000,6.00000000,0.55800000,4.52900000,0.06100000,-0.68580000,-0.06490000,0.04580000,-0.04180000,0.13280000,1.01480000
$GPFPD,2292,463340.500,7.244,0.556,1.242,31.42387008,120.63196777,10.794,0.574,4.609,0.081,0.803,15,15,04*76
$GTIMU,2292,463340.500,-1.1134,-0.2677,-0.3221,-0.0169,0.0952,1.0195,39.9*69
16:42::02.536,1702600940482,120.63196777,31.42387008,3478142.89481796,560087.55993189,7.24400000,6.00000000,0.57400000,4.60900000,0.08100000,-1.11340000,-0.26770000,-0.32210000,-0.01690000,0.09520000,1.01950000
$GPFPD,2292,463340.600,7.262,0.473,1.222,31.42387423,120.63196835,10.810,0.593,4.701,0.052,0.803,15,15,04*78
$GTIMU,2292,463340.600,-0.8275,-0.1987,-0.1911,-0.0138,0.1048,0.9692,39.9*62
16:42::02.636,1702600940582,120.63196835,31.42387423,3478143.35528661,560087.61243311,7.26200000,6.00000000,0.59300000,4.70100000,0.05200000,-0.82750000,-0.19870000,-0.19110000,-0.01380000,0.10480000,0.96920000
$GPFPD,2292,463340.700,7.274,0.494,1.216,31.42387846,120.63196895,10.822,0.612,4.809,0.024,0.800,15,16,04*78
$GTIMU,2292,463340.700,0.2161,-0.0600,-0.1155,-0.0157,0.1198,0.9702,39.9*46
16:42::02.736,1702600940682,120.63196895,31.42387846,3478143.82463658,560087.66678495,7.27400000,6.00000000,0.61200000,4.80900000,0.02400000,0.21610000,-0.06000000,-0.11550000,-0.01570000,0.11980000,0.97020000
$GPFPD,2292,463340.800,7.354,0.567,1.158,31.42388282,120.63196956,10.831,0.607,4.936,0.007,0.800,15,16,04*79
$GTIMU,2292,463340.800,0.7451,-0.5853,-0.7817,-0.0418,0.1377,0.9797,39.9*4F
16:42::02.836,1702600940782,120.63196956,31.42388282,3478144.30840641,560087.72200471,7.35400000,6.00000000,0.60700000,4.93600000,0.00700000,0.74510000,-0.58530000,-0.78170000,-0.04180000,0.13770000,0.97970000
$GPFPD,2292,463340.900,7.604,0.675,1.047,31.42388733,120.63197020,10.832,0.615,5.075,0.013,0.803,15,16,04*78
$GTIMU,2292,463340.900,1.1242,-1.1324,-2.4842,-0.0297,0.1537,1.0047,39.9*43
16:42::02.936,1702600940882,120.63197020,31.42388733,3478144.80882462,560087.77998127,7.60400000,6.00000000,0.61500000,5.07500000,0.01300000,1.12420000,-1.13240000,-2.48420000,-0.02970000,0.15370000,1.00470000
$GPFPD,2292,463341.000,8.001,0.736,0.890,31.42389198,120.63197087,10.834,0.662,5.218,0.035,0.803,15,16,04*79
$GTIMU,2292,463341.000,0.6800,-1.6181,-3.9520,0.0096,0.1645,1.0197,39.9*6A
16:42::03.036,1702600940982,120.63197087,31.42389198,3478145.32478243,560087.84072101,8.00100000,6.00000000,0.66200000,5.21800000,0.03500000,0.68000000,-1.61810000,-3.95200000,0.00960000,0.16450000,1.01970000
$GPGGA,084203.00,3125.4341316,N,12037.9181581,E,1,16,1.1,4.044,M,7.80,M,,*64
$GPFPD,2292,463341.100,8.523,0.732,0.828,31.42389675,120.63197161,10.839,0.735,5.358,0.050,0.803,15,16,04*7F
$GTIMU,2292,463341.100,0.0405,-0.6824,-5.2181,0.0375,0.1657,1.0141,39.9*67
16:42::03.136,1702600941082,120.63197161,31.42389675,3478145.85408409,560087.90803996,8.52300000,6.00000000,0.73500000,5.35800000,0.05000000,0.04050000,-0.68240000,-5.21810000,0.03750000,0.16570000,1.01410000
$GPFPD,2292,463341.200,9.129,0.685,0.815,31.42390165,120.63197242,10.844,0.810,5.494,0.054,0.800,15,16,04*7E
$GTIMU,2292,463341.200,-0.3870,-0.1970,-6.0622,0.0406,0.1614,1.0027,39.9*49
16:42::03.236,1702600941182,120.63197242,31.42390165,3478146.39783842,560087.98193172,9.12900000,6.00000000,0.81000000,5.49400000,0.05400000,-0.38700000,-0.19700000,-6.06220000,0.04060000,0.16140000,1.00270000
$GPFPD,2292,463341.300,9.809,0.627,0.849,31.42390666,120.63197331,10.849,0.888,5.612,0.066,0.798,15,16,04*7B
$GTIMU,2292,463341.300,-0.4795,0.2655,-6.7976,0.0468,0.1451,1.0150,39.9*6E
16:42::03.336,1702600941282,120.63197331,31.42390666,3478146.95383328,560088.06335989,9.80900000,6.00000000,0.88800000,5.61200000,0.06600000,-0.47950000,0.26550000,-6.79760000,0.04680000,0.14510000,1.01500000
$GPFPD,2292,463341.400,10.536,0.552,0.817,31.42391178,120.63197425,10.850,0.969,5.708,0.067,0.798,15,16,04*49
$GTIMU,2292,463341.400,-0.6421,-0.3943,-7.2790,0.0487,0.1216,1.0003,39.9*42
16:42::03.436,1702600941382,120.63197425,31.42391178,3478147.52205227,560088.14947199,10.53600000,6.00000000,0.96900000,5.70800000,0.06700000,-0.64210000,-0.39430000,-7.27900000,0.04870000,0.12160000,1.00030000
$GPFPD,2292,463341.500,11.321,0.471,0.783,31.42391697,120.63197527,10.851,1.056,5.777,0.059,0.803,15,16,04*43
$GTIMU,2292,463341.500,-0.7067,-0.4101,-7.8582,0.0602,0.0955,0.9920,39.9*44
16:42::03.536,1702600941482,120.63197527,31.42391697,3478148.09807659,560088.24314600,11.32100000,6.00000000,1.05600000,5.77700000,0.05900000,-0.70670000,-0.41010000,-7.85820000,0.06020000,0.09550000,0.99200000
$GPFPD,2292,463341.600,12.114,0.382,0.782,31.42392221,120.63197639,10.851,1.153,5.810,0.055,0.803,15,16,04*4D
$GTIMU,2292,463341.600,-0.7857,-0.0649,-7.9407,0.0757,0.0610,0.9965,39.9*40
16:42::03.636,1702600941582,120.63197639,31.42392221,3478148.67969960,560088.34629629,12.11400000,6.00000000,1.15300000,5.81000000,0.05500000,-0.78570000,-0.06490000,-7.94070000,0.07570000,0.06100000,0.99650000
$GPFPD,2292,463341.700,12.892,0.270,0.796,31.42392746,120.63197761,10.852,1.241,5.810,0.060,0.793,15,16,04*49
$GTIMU,2292,463341.700,-1.0058,0.1004,-7.7948,0.0740,0.0264,1.0059,39.9*64
16:42::03.736,1702600941682,120.63197761,31.42392746,3478149.26248608,560088.45894837,12.89200000,6.00000000,1.24100000,5.81000000,0.06000000,-1.00580000,0.10040000,-7.79480000,0.07400000,0.02640000,1.00590000
$GPFPD,2292,463341.800,13.628,0.171,0.823,31.42393270,120.63197893,10.853,1.329,5.799,0.046,0.793,15,16,04*4C
$GTIMU,2292,463341.800,-0.8914,0.2431,-7.3657,0.0762,0.0137,0.9864,39.9*6C
16:42::03.836,1702600941782,120.63197893,31.42393270,3478149.84421845,560088.58111500,13.62800000,6.00000000,1.32900000,5.79900000,0.04600000,-0.89140000,0.24310000,-7.36570000,0.07620000,0.01370000,0.98640000
$GPFPD,2292,463341.900,14.303,0.133,0.903,31.42393792,120.63198037,10.856,1.413,5.784,0.032,0.807,15,16,04*45
$GTIMU,2292,463341.900,-0.2820,0.7916,-6.7576,0.0708,0.0089,0.9860,39.9*65
16:42::03.936,1702600941882,120.63198037,31.42393792,3478150.42379884,560088.71470419,14.30300000,6.00000000,1.41300000,5.78400000,0.03200000,-0.28200000,0.79160000,-6.75760000,0.07080000,0.00890000,0.98600000
$GPFPD,2292,463342.000,14.901,0.126,0.979,31.42394313,120.63198190,10.860,1.480,5.771,0.035,0.807,15,16,04*4A
$GTIMU,2292,463342.000,0.0316,0.7507,-5.9748,0.0526,0.0077,1.0042,39.9*4F
16:42::04.036,1702600941982,120.63198190,31.42394313,3478151.00231965,560088.85685709,14.90100000,6.00000000,1.48000000,5.77100000,0.03500000,0.03160000,0.75070000,-5.97480000,0.05260000,0.00770000,1.00420000
$GPGGA,084204.00,3125.4372446,N,12037.9188770,E,1,16,1.1,4.144,M,7.80,M,,*65
$GPFPD,2292,463342.100,15.412,0.112,1.038,31.42394833,120.63198349,10.863,1.540,5.754,0.039,0.807,15,16,04*45
$GTIMU,2292,463342.100,-0.0555,0.5826,-5.1101,0.0462,0.0014,1.0043,39.9*68
16:42::04.136,1702600942082,120.63198349,31.42394833,3478151.57976447,560089.00472127,15.41200000,6.00000000,1.54000000,5.75400000,0.03900000,-0.05550000,0.58260000,-5.11010000,0.04620000,0.00140000,1.00430000
$GPFPD,2292,463342.200,15.854,0.089,1.043,31.42395351,120.63198513,10.867,1.581,5.737,0.036,0.811,15,16,04*44
$GTIMU,2292,463342.200,-0.1534,0.0425,-4.4193,0.0260,-0.0032,0.9980,39.9*4B
16:42::04.236,1702600942182,120.63198513,31.42395351,3478152.15501903,560089.15735227,15.85400000,6.00000000,1.58100000,5.73700000,0.03600000,-0.15340000,0.04250000,-4.41930000,0.02600000,-0.00320000,0.99800000
$GPFPD,2292,463342.300,16.278,0.056,1.059,31.42395869,120.63198681,10.869,1.614,5.718,0.033,0.793,15,16,04*4F
$GTIMU,2292,463342.300,-0.2492,0.1617,-4.2412,0.0228,-0.0101,1.0018,39.9*41
16:42::04.336,1702600942282,120.63198681,31.42395869,3478152.73029547,560089.31378653,16.27800000,6.00000000,1.61400000,5.71800000,0.03300000,-0.24920000,0.16170000,-4.24120000,0.02280000,-0.01010000,1.00180000
$GPFPD,2292,463342.400,16.666,0.017,1.083,31.42396391,120.63198851,10.867,1.660,5.691,0.028,0.793,15,16,04*4A
$GTIMU,2292,463342.400,-0.3162,0.2403,-3.8829,0.0335,-0.0126,0.9955,39.9*40
