798,18,16,04*76
$GTIMU,2292,460163.700,-0.0093,0.0451,-0.0038,-0.0205,-0.0043,0.9996,36.8*67
15:49::05.719,1702597763682,120.62746237,31.42735185,3478526.49823053,559656.97369307,113.46700000,6.00000000,-0.00200000,-0.00400000,-0.00100000,-0.00930000,0.04510000,-0.00380000,-0.02050000,-0.00430000,0.99960000
$GPFPD,2292,460163.800,113.466,-0.315,1.045,31.42735186,120.62746237,13.262,-0.002,-0.003,-0.002,0.798,18,16,04*77
$GTIMU,2292,460163.800,-0.0009,-0.0277,0.0042,-0.0193,-0.0048,0.9987,36.8*63
15:49::05.819,1702597763782,120.62746237,31.42735186,3478526.49933933,559656.97368674,113.46600000,6.00000000,-0.00200000,-0.00300000,-0.00200000,-0.00090000,-0.02770000,0.00420000,-0.01930000,-0.00480000,0.99870000
$GPFPD,2292,460163.900,113.466,-0.316,1.043,31.42735186,120.62746237,13.261,-0.003,-0.004,-0.002,0.799,18,16,04*77
$GTIMU,2292,460163.900,-0.0184,-0.0163,0.0054,-0.0167,-0.0055,0.9999,36.8*6F
15:49::05.919,1702597763882,120.62746237,31.42735186,3478526.49933933,559656.97368674,113.46600000,6.00000000,-0.00300000,-0.00400000,-0.00200000,-0.01840000,-0.01630000,0.00540000,-0.01670000,-0.00550000,0.99990000
$GPFPD,2292,460164.000,113.466,-0.316,1.046,31.42735186,120.62746237,13.261,-0.004,-0.005,-0.002,0.799,18,16,04*7A
$GTIMU,2292,460164.000,-0.0008,0.0309,-0.0004,-0.0168,-0.0057,1.0002,36.8*61
15:49::06.019,1702597763982,120.62746237,31.42735186,3478526.49933933,559656.97368674,113.46600000,6.00000000,-0.00400000,-0.00500000,-0.00200000,-0.00080000,0.03090000,-0.00040000,-0.01680000,-0.00570000,1.00020000
$GPGGA,074906.00,3125.6412224,N,12037.6483989,E,1,16,1.1,6.291,M,7.80,M,,*62
$GPFPD,2292,460164.100,113.466,-0.316,1.049,31.42735185,120.62746236,13.261,-0.004,-0.004,-0.003,0.799,18,16,04*76
$GTIMU,2292,460164.100,-0.0025,0.0212,0.0071,-0.0198,-0.0051,0.9979,36.8*4F
15:49::06.119,1702597764082,120.62746236,31.42735185,3478526.49822510,559656.97274229,113.46600000,6.00000000,-0.00400000,-0.00400000,-0.00300000,-0.00250000,0.02120000,0.00710000,-0.01980000,-0.00510000,0.99790000
$GPFPD,2292,460164.200,113.466,-0.315,1.045,31.42735185,120.62746236,13.261,-0.002,-0.003,-0.002,0.800,18,16,04*75
$GTIMU,2292,460164.200,0.0105,-0.0373,0.0013,-0.0200,-0.0035,1.0003,36.8*41
15:49::06.219,1702597764182,120.62746236,31.42735185,3478526.49822510,559656.97274229,113.46600000,6.00000000,-0.00200000,-0.00300000,-0.00200000,0.01050000,-0.03730000,0.00130000,-0.02000000,-0.00350000,1.00030000
$GPFPD,2292,460164.300,113.467,-0.316,1.042,31.42735186,120.62746236,13.262,-0.000,-0.002,0.002,0.793,18,16,04*5A
$GTIMU,2292,460164.300,-0.0185,-0.0282,-0.0026,-0.0180,-0.0048,1.0005,36.8*46
15:49::06.319,1702597764282,120.62746236,31.42735186,3478526.49933390,559656.97273596,113.46700000,6.00000000,0.00000000,-0.00200000,0.00200000,-0.01850000,-0.02820000,-0.00260000,-0.01800000,-0.00480000,1.00050000
$GPFPD,2292,460164.400,113.467,-0.318,1.043,31.42735189,120.62746239,13.267,-0.002,-0.003,0.001,0.793,18,16,04*57
$GTIMU,2292,460164.400,-0.0178,0.0093,0.0048,-0.0165,-0.0063,0.9987,36.8*40
15:49::06.418,1702597764382,120.62746239,31.42735189,3478526.50267659,559656.97556931,113.46700000,6.00000000,-0.00200000,-0.00300000,0.00100000,-0.01780000,0.00930000,0.00480000,-0.01650000,-0.00630000,0.99870000
$GPFPD,2292,460164.500,113.466,-0.318,1.047,31.42735192,120.62746242,13.273,-0.001,-0.002,0.002,0.795,18,16,04*57
$GTIMU,2292,460164.500,-0.0087,0.0337,0.0065,-0.0189,-0.0046,1.0002,36.8*4B
15:49::06.519,1702597764482,120.62746242,31.42735192,3478526.50601927,559656.97840267,113.46600000,6.00000000,-0.00100000,-0.00200000,0.00200000,-0.00870000,0.03370000,0.00650000,-0.01890000,-0.00460000,1.00020000
$GPFPD,2292,460164.600,113.467,-0.319,1.046,31.42735195,120.62746244,13.279,-0.001,-0.002,0.002,0.795,18,16,04*5E
$GTIMU,2292,460164.600,-0.0128,-0.0095,-0.0077,-0.0191,-0.0048,0.9991,36.8*48
15:49::06.619,1702597764582,120.62746244,31.42735195,3478526.50935653,559656.98028524,113.46700000,6.00000000,-0.00100000,-0.00200000,0.00200000,-0.01280000,-0.00950000,-0.00770000,-0.01910000,-0.00480000,0.99910000
$GPFPD,2292,460164.700,113.467,-0.320,1.044,31.42735198,120.62746247,13.284,-0.001,-0.003,0.002,0.796,18,16,04*59
$GTIMU,2292,460164.700,-0.0094,-0.0203,0.0077,-0.0172,-0.0048,0.9998,36.8*6B
15:49::06.719,1702597764682,120.62746247,31.42735198,3478526.51269921,559656.98311859,113.46700000,6.00000000,-0.00100000,-0.00300000,0.00200000,-0.00940000,-0.02030000,0.00770000,-0.01720000,-0.00480000,0.99980000
$GPFPD,2292,460164.800,113.467,-0.319,1.044,31.42735201,120.62746249,13.288,-0.001,-0.002,0.001,0.796,18,16,04*5F
$GTIMU,2292,460164.800,0.0020,-0.0004,0.0031,-0.0187,-0.0053,0.9993,36.8*4A
15:49::06.818,1702597764782,120.62746249,31.42735201,3478526.51603647,559656.98500117,113.46700000,6.00000000,-0.00100000,-0.00200000,0.00100000,0.00200000,-0.00040000,0.00310000,-0.01870000,-0.00530000,0.99930000
$GPFPD,2292,460164.900,113.467,-0.319,1.044,31.42735201,120.62746249,13.289,-0.001,-0.002,0.002,0.797,18,16,04*5D
$GTIMU,2292,460164.900,-0.0020,-0.0072,0.0002,-0.0193,-0.0045,1.0004,36.8*6A
15:49::06.919,1702597764882,120.62746249,31.42735201,3478526.51603647,559656.98500117,113.46700000,6.00000000,-0.00100000,-0.00200000,0.00200000,-0.00200000,-0.00720000,0.00020000,-0.01930000,-0.00450000,1.00040000
$GPFPD,2292,460165.000,113.466,-0.321,1.042,31.42735200,120.62746249,13.289,-0.001,-0.002,0.002,0.797,18,16,04*58
$GTIMU,2292,460165.000,-0.0207,-0.0157,0.0088,-0.0178,-0.0054,0.9993,36.8*6B
15:49::07.019,1702597764982,120.62746249,31.42735200,3478526.51492767,559656.98500750,113.46600000,6.00000000,-0.00100000,-0.00200000,0.00200000,-0.02070000,-0.01570000,0.00880000,-0.01780000,-0.00540000,0.99930000
$GPGGA,074907.00,3125.6412140,N,12037.6484008,E,1,16,1.1,6.281,M,7.80,M,,*64
$GPFPD,2292,460165.100,113.467,-0.319,1.044,31.42735200,120.62746248,13.289,-0.002,-0.002,0.001,0.797,18,16,04*54
$GTIMU,2292,460165.100,0.0111,0.0195,-0.0021,-0.0175,-0.0055,0.9985,36.8*45
15:49::07.118,1702597765082,120.62746248,31.42735200,3478526.51492224,559656.98405671,113.46700000,6.00000000,-0.00200000,-0.00200000,0.00100000,0.01110000,0.01950000,-0.00210000,-0.01750000,-0.00550000,0.99850000
$GPFPD,2292,460165.200,113.467,-0.319,1.045,31.42735200,120.62746248,13.289,-0.000,-0.003,0.003,0.795,18,16,04*55
$GTIMU,2292,460165.200,0.0009,0.0024,-0.0032,-0.0188,-0.0033,1.0015,36.8*4D
15:49::07.219,1702597765182,120.62746248,31.42735200,3478526.51492224,559656.98405671,113.46700000,6.00000000,0.00000000,-0.00300000,0.00300000,0.00090000,0.00240000,-0.00320000,-0.01880000,-0.00330000,1.00150000
$GPFPD,2292,460165.300,113.467,-0.320,1.043,31.42735199,120.62746248,13.288,-0.002,-0.004,-0.002,0.797,18,16,04*71
$GTIMU,2292,460165.300,-0.0093,-0.0169,0.0094,-0.0185,-0.0062,0.9986,36.8*64
15:49::07.319,1702597765282,120.62746248,31.42735199,3478526.51381344,559656.98406305,113.46700000,6.00000000,-0.00200000,-0.00400000,-0.00200000,-0.00930000,-0.01690000,0.00940000,-0.01850000,-0.00620000,0.99860000
$GPFPD,2292,460165.400,113.468,-0.317,1.044,31.42735197,120.62746246,13.280,-0.003,-0.004,-0.004,0.797,18,16,04*75
$GTIMU,2292,460165.400,0.0207,0.0070,-0.0067,-0.0180,-0.0059,0.9980,36.8*4F
15:49::07.419,1702597765382,120.62746246,31.42735197,3478526.51158499,559656.98217414,113.46800000,6.00000000,-0.00300000,-0.00400000,-0.00400000,0.02070000,0.00700000,-0.00670000,-0.01800000,-0.00590000,0.99800000
$GPFPD,2292,460165.500,113.467,-0.320,1.047,31.42735195,120.62746244,13.272,-0.002,-0.005,-0.002,0.800,18,16,04*76
$GTIMU,2292,460165.500,-0.0325,0.0280,0.0043,-0.0177,-0.0033,1.0018,36.8*40
15:49::07.519,1702597765482,120.62746244,31.42735195,3478526.50935653,559656.98028524,113.46700000,6.00000000,-0.00200000,-0.00500000,-0.00200000,-0.03250000,0.02800000,0.00430000,-0.01770000,-0.00330000,1.00180000
$GPFPD,2292,460165.600,113.467,-0.321,1.047,31.42735193,120.62746242,13.265,-0.001,-0.004,-0.002,0.800,18,16,04*70
$GTIMU,2292,460165.600,-0.0145,-0.0066,0.0025,-0.0197,-0.0050,0.9992,36.8*68
15:49::07.619,1702597765582,120.62746242,31.42735193,3478526.50712807,559656.97839634,113.46700000,6.00000000,-0.00100000,-0.00400000,-0.00200000,-0.01450000,-0.00660000,0.00250000,-0.01970000,-0.00500000,0.99920000
$GPFPD,2292,460165.700,113.468,-0.315,1.044,31.42735191,120.62746240,13.257,0.002,-0.006,-0.005,0.801,18,16,04*51
$GTIMU,2292,460165.700,0.0553,-0.0294,-0.0033,-0.0181,-0.0010,0.9968,36.8*64
15:49::07.719,1702597765682,120.62746240,31.42735191,3478526.50489962,559656.97650743,113.46800000,6.00000000,0.00200000,-0.00600000,-0.00500000,0.05530000,-0.02940000,-0.00330000,-0.01810000,-0.00100000,0.99680000
$GPFPD,2292,460165.800,113.468,-0.313,1.042,31.42735190,120.62746239,13.251,-0.002,-0.005,-0.004,0.801,18,16,04*78
$GTIMU,2292,460165.800,0.0201,-0.0237,0.0007,-0.0176,-0.0089,1.0010,36.8*4E
15:49::07.819,1702597765782,120.62746239,31.42735190,3478526.50378539,559656.97556298,113.46800000,6.00000000,-0.00200000,-0.00500000,-0.00400000,0.02010000,-0.02370000,0.00070000,-0.01760000,-0.00890000,1.00100000
$GPFPD,2292,460165.900,113.468,-0.309,1.043,31.42735189,120.62746239,13.251,-0.005,-0.005,-0.004,0.798,18,16,04*73
$GTIMU,2292,460165.900,0.0327,0.0104,0.0047,-0.0169,-0.0077,0.9995,36.8*63
15:49::07.918,1702597765882,120.62746239,31.42735189,3478526.50267659,559656.97556931,113.46800000,6.00000000,-0.00500000,-0.00500000,-0.00400000,0.03270000,0.01040000,0.00470000,-0.01690000,-0.00770000,0.99950000
$GPFPD,2292,460166.000,113.468,-0.305,1.047,31.42735189,120.62746238,13.250,-0.001,-0.006,-0.003,0.798,18,16,04*71
$GTIMU,2292,460166.000,0.0452,0.0399,0.0024,-0.0193,-0.0012,1.0007,36.8*63
15:49::08.019,1702597765982,120.62746238,31.42735189,3478526.50267116,559656.97461853,113.46800000,6.00000000,-0.00100000,-0.00600000,-0.00300000,0.04520000,0.03990000,0.00240000,-0.01930000,-0.00120000,1.00070000
$GPGGA,074908.00,3125.6412106,N,12037.6483930,E,1,16,1.1,6.274,M,7.80,M,,*66
$GPFPD,2292,460166.100,113.468,-0.304,1.047,31.42735188,120.62746238,13.250,-0.001,-0.005,-0.003,0.798,18,16,04*73
$GTIMU,2292,460166.100,0.0065,-0.0055,0.0008,-0.0193,-0.0041,0.9994,36.8*4F
15:49::08.118,1702597766082,120.62746238,31.42735188,3478526.50156236,559656.97462486,113.46800000,6.00000000,-0.00100000,-0.00500000,-0.00300000,0.00650000,-0.00550000,0.00080000,-0.01930000,-0.00410000,0.99940000
$GPFPD,2292,460166.200,113.468,-0.302,1.044,31.42735188,120.62746238,13.250,-0.002,-0.004,-0.004,0.796,18,16,04*7E
$GTIMU,2292,460166.200,0.0133,-0.0266,0.0070,-0.0183,-0.0067,0.9990,36.8*42
15:49::08.219,1702597766182,120.62746238,31.42735188,3478526.50156236,559656.97462486,113.46800000,6.00000000,-0.00200000,-0.00400000,-0.00400000,0.01330000,-0.02660000,0.00700000,-0.01830000,-0.00670000,0.99900000
$GPFPD,2292,460166.300,113.469,-0.299,1.042,31.42735187,120.62746239,13.248,0.000,-0.008,-0.007,0.800,18,16,04*5C
$GTIMU,2292,460166.300,0.0315,-0.0197,-0.0027,-0.0177,-0.0037,0.9995,36.8*6C
15:49::08.319,1702597766282,120.62746239,31.42735187,3478526.50045899,559656.97558198,113.46900000,6.00000000,0.00000000,-0.00800000,-0.00700000,0.03150000,-0.01970000,-0.00270000,-0.01770000,-0.00370000,0.99950000
$GPFPD,2292,460166.400,113.470,-0.295,1.042,31.42735183,120.62746242,13.241,0.001,-0.009,-0.008,0.800,18,16,04*51
$GTIMU,2292,460166.400,0.0355,-0.0027,-0.0022,-0.0175,-0.0031,0.9988,36.8*68
15:49::08.419,1702597766382,120.62746242,31.42735183,3478526.49604008,559656.97845965,113.47000000,6.00000000,0.00100000,-0.00900000,-0.00800000,0.03550000,-0.00270000,-0.00220000,-0.01750000,-0.00310000,0.99880000
$GPFPD,2292,460166.500,113.469,-0.290,1.043,31.42735180,120.62746245,13.235,-0.001,-0.008,-0.007,0.798,18,16,04*76
$GTIMU,2292,460166.500,0.0406,0.0115,0.0058,-0.0186,-0.0068,1.0001,36.8*65
15:49::08.519,1702597766482,120.62746245,31.42735180,3478526.49272997,559656.98133100,113.46900000,6.00000000,-0.00100000,-0.00800000,-0.00700000,0.04060000,0.01150000,0.00580000,-0.01860000,-0.00680000,1.00010000
$GPFPD,2292,460166.600,113.470,-0.287,1.043,31.42735177,120.62746248,13.228,-0.001,-0.007,-0.007,0.798,18,16,04*7D
$GTIMU,2292,460166.600,0.0309,-0.0033,-0.0027,-0.0187,-0.0049,0.9996,36.8*6E
15:49::08.619,1702597766582,120.62746248,31.42735177,3478526.48941986,559656.98420234,113.47000000,6.00000000,-0.00100000,-0.00700000,-0.00700000,0.03090000,-0.00330000,-0.00270000,-0.01870000,-0.00490000,0.99960000
$GPFPD,2292,460166.700,113.470,-0.283,1.043,31.42735174,120.62746251,13.222,-0.000,-0.008,-0.006,0.801,18,16,04*79
$GTIMU,2292,460166.700,0.0326,-0.0038,-0.0004,-0.0178,-0.0035,1.0008,36.8*65
15:49::08.719,1702597766682,120.62746251,31.42735174,3478526.48610976,559656.98707369,113.47000000,6.00000000,0.00000000,-0.00800000,-0.00600000,0.03260000,-0.00380000,-0.00040000,-0.01780000,-0.00350000,1.00080000
$GPFPD,2292,460166.800,113.470,-0.283,1.044,31.42735171,120.62746254,13.217,-0.001,-0.008,-0.006,0.801,18,16,04*76
$GTIMU,2292,460166.800,0.0026,0.0053,0.0042,-0.0182,-0.0047,0.9998,36.8*6E
15:49::08.819,1702597766782,120.62746254,31.42735171,3478526.48279965,559656.98994503,113.47000000,6.00000000,-0.00100000,-0.00800000,-0.00600000,0.00260000,0.00530000,0.00420000,-0.01820000,-0.00470000,0.99980000
$GPFPD,2292,460166.900,113.470,-0.282,1.044,31.42735170,120.62746254,13.216,-0.001,-0.008,-0.006,0.798,18,16,04*79
$GTIMU,2292,460166.900,0.0083,0.0019,0.0030,-0.0183,-0.0048,0.9996,36.8*6B
15:49::08.919,1702597766882,120.62746254,31.42735170,3478526.48169085,559656.98995136,113.47000000,6.00000000,-0.00100000,-0.00800000,-0.00600000,0.00830000,0.00190000,0.00300000,-0.01830000,-0.00480000,0.99960000
$GPFPD,2292,460167.000,113.470,-0.280,1.045,31.42735169,120.62746253,13.216,-0.001,-0.008,-0.006,0.798,18,16,04*7D
$GTIMU,2292,460167.000,0.0111,0.0036,0.0053,-0.0186,-0.0039,0.9999,36.8*6D
15:49::09.019,1702597766982,120.62746253,31.42735169,3478526.48057662,559656.98900691,113.47000000,6.00000000,-0.00100000,-0.00800000,-0.00600000,0.01110000,0.00360000,0.00530000,-0.01860000,-0.00390000,0.99990000
$GPGGA,074909.00,3125.6412139,N,12037.6483956,E,1,16,1.1,6.292,M,7.80,M,,*63
$GPFPD,2292,460167.100,113.470,-0.280,1.044,31.42735169,120.62746253,13.215,-0.001,-0.008,-0.005,0.798,18,16,04*7D
$GTIMU,2292,460167.100,-0.0020,-0.0061,-0.0032,-0.0183,-0.0046,1.0000,36.8*4B
15:49::09.119,1702597767082,120.62746253,31.42735169,3478526.48057662,559656.98900691,113.47000000,6.00000000,-0.00100000,-0.00800000,-0.00500000,-0.00200000,-0.00610000,-0.00320000,-0.01830000,-0.00460000,1.00000000
$GPFPD,2292,460167.200,113.470,-0.279,1.044,31.42735168,120.62746253,13.214,-0.001,-0.008,-0.006,0.800,18,16,04*75
$GTIMU,2292,460167.200,0.0088,-0.0015,0.0053,-0.0177,-0.0040,0.9988,36.8*42
15:49::09.218,1702597767182,120.62746253,31.42735168,3478526.47946782,559656.98901325,113.47000000,6.00000000,-0.00100000,-0.00800000,-0.00600000,0.00880000,-0.00150000,0.00530000,-0.01770000,-0.00400000,0.99880000
$GPFPD,2292,460167.300,113.471,-0.278,1.045,31.42735168,120.62746253,13.212,-0.002,-0.007,-0.009,0.798,18,16,04*7E
$GTIMU,2292,460167.300,0.0083,0.0036,0.0013,-0.0188,-0.0043,1.0003,36.8*61
15:49::09.318,1702597767282,120.62746253,31.42735168,3478526.47946782,559656.98901325,113.47100000,6.00000000,-0.00200000,-0.00700000,-0.00900000,0.00830000,0.00360000,0.00130000,-0.01880000,-0.00430000,1.00030000
$GPFPD,2292,460167.400,113.471,-0.277,1.044,31.42735170,120.62746249,13.205,-0.002,-0.007,-0.010,0.798,18,16,04*7B
$GTIMU,2292,460167.400,0.0054,-0.0027,0.0019,-0.0184,-0.0041,0.9990,36.8*4E
15:49::09.419,1702597767382,120.62746249,31.42735170,3478526.48166370,559656.98519745,113.47100000,6.00000000,-0.00200000,-0.00700000,-0.01000000,0.00540000,-0.00270000,0.00190000,-0.01840000,-0.00410000,0.99900000
$GPFPD,2292,460167.500,113.470,-0.276,1.044,31.42735172,120.62746246,13.197,-0.003,-0.007,-0.010,0.798,18,16,04*7E
$GTIMU,2292,460167.500,-0.0002,-0.0050,0.0111,-0.0184,-0.0051,0.9997,36.8*6E
15:49::09.519,1702597767482,120.62746246,31.42735172,3478526.48386501,559656.98233244,113.47000000,6.00000000,-0.00300000,-0.00700000,-0.01000000,-0.00020000,-0.00500000,0.01110000,-0.01840000,-0.00510000,0.99970000
$GPFPD,2292,460167.600,113.470,-0.277,1.043,31.42735174,120.62746243,13.190,-0.003,-0.007,-0.009,0.798,18,16,04*77
$GTIMU,2292,460167.600,-0.0071,-0.0135,-0.0003,-0.0183,-0.0039,1.0001,36.8*43
15:49::09.619,1702597767582,120.62746243,31.42735174,3478526.48606632,559656.97946742,113.47000000,6.00000000,-0.00300000,-0.00700000,-0.00900000,-0.00710000,-0.01350000,-0.00030000,-0.01830000,-0.00390000,1.00010000
$GPFPD,2292,460167.700,113.470,-0.277,1.043,31.42735176,120.62746240,13.182,-0.002,-0.007,-0.010,0.798,18,16,04*7D
$GTIMU,2292,460167.700,-0.0093,0.0002,0.0008,-0.0181,-0.0029,0.9988,36.8*43
15:49::09.718,1702597767682,120.62746240,31.42735176,3478526.48826763,559656.97660241,113.47000000,6.00000000,-0.00200000,-0.00700000,-0.01000000,-0.00930000,0.00020000,0.00080000,-0.01810000,-0.00290000,0.99880000
$GPFPD,2292,460167.800,113.470,-0.276,1.044,31.42735178,120.62746237,13.177,-0.003,-0.007,-0.010,0.798,18,16,04*71
$GTIMU,2292,460167.800,0.0134,0.0047,0.0025,-0.0183,-0.0052,0.9996,36.8*62
15:49::09.819,1702597767782,120.62746237,31.42735178,3478526.49046894,559656.97373740,113.47000000,6.00000000,-0.00300000,-0.00700000,-0.01000000,0.01340000,0.00470000,0.00250000,-0.01830000,-0.00520000,0.99960000
$GPFPD,2292,460167.900,113.470,-0.275,1.044,31.42735177,120.62746237,13.176,-0.003,-0.007,-0.010,0.797,18,16,04*72
$GTIMU,2292,460167.900,-0.0008,0.0041,0.0019,-0.0181,-0.0048,0.9999,36.8*4F
15:49::09.919,1702597767882,120.62746237,31.42735177,3478526.48936014,559656.97374373,113.47000000,6.00000000,-0.00300000,-0.00700000,-0.01000000,-0.00080000,0.00410000,0.00190000,-0.01810000,-0.00480000,0.99990000
$GPFPD,2292,460168.000,113.470,-0.277,1.045,31.42735176,120.62746237,13.175,-0.002,-0.007,-0.009,0.797,18,16,04*7C
$GTIMU,2292,460168.000,-0.0190,0.0053,0.0031,-0.0184,-0.0036,1.0002,36.8*4F
15:49::10.019,1702597767982,120.62746237,31.42735176,3478526.48825134,559656.97375006,113.47000000,6.00000000,-0.00200000,-0.00700000,-0.00900000,-0.01900000,0.00530000,0.00310000,-0.01840000,-0.00360000,1.00020000
$GPFPD,2292,460168$GPGGA,07.100,1134910.00,3.471,-0.2125.6412177,1.045,31,N,120331.427357.6483934176,120.6,E,1,16,12746236,.1,6.320,13.174,-M,7.80,M,0.002,-0.007,-0.0,*6F
10,0.797,18,16,04*74
$GTIMU,2292,460168.100,-0.0037,-0.0004,0.0002,-0.0185,-0.0041,0.9991,36.8*67
15:49::10.119,1702597768082,120.62746236,31.42735176,3478526.48824591,559656.97279928,113.47100000,6.00000000,-0.00200000,-0.00700000,-0.01000000,-0.00370000,-0.00040000,0.00020000,-0.01850000,-0.00410000,0.99910000
$GPFPD,2292,460168.200,113.471,-0.276,1.046,31.42735175,120.62746236,13.173,-0.003,-0.007,-0.010,0.797,18,16,04*70
$GTIMU,2292,460168.200,0.0083,0.0070,0.0002,-0.0178,-0.0047,0.9991,36.8*6C
15:49::10.219,1702597768182,120.62746236,31.42735175,3478526.48713712,559656.97280561,113.47100000,6.00000000,-0.00300000,-0.00700000,-0.01000000,0.00830000,0.00700000,0.00020000,-0.01780000,-0.00470000,0.99910000
$GPFPD,2292,460168.300,113.471,-0.279,1.047,31.42735175,120.62746236,13.174,-0.003,-0.006,-0.005,0.801,18,16,04*7D
$GTIMU,2292,460168.300,-0.0360,0.0087,0.0100,-0.0185,-0.0058,1.0009,36.8*49
15:49::10.319,1702597768282,120.62746236,31.42735175,3478526.48713712,559656.97280561,113.47100000,6.00000000,-0.00300000,-0.00600000,-0.00500000,-0.03600000,0.00870000,0.01000000,-0.01850000,-0.00580000,1.00090000
$GPFPD,2292,460168.400,113.470,-0.279,1.047,31.42735177,120.62746238,13.180,-0.002,-0.006,-0.005,0.801,18,16,04*7D
$GTIMU,2292,460168.400,-0.0042,0.0013,0.0071,-0.0183,-0.0035,0.9997,36.8*4C
15:49::10.419,1702597768382,120.62746238,31.42735177,3478526.48936557,559656.97469451,113.47000000,6.00000000,-0.00200000,-0.00600000,-0.00500000,-0.00420000,0.00130000,0.00710000,-0.01830000,-0.00350000,0.99970000
$GPFPD,2292,460168.500,113.470,-0.284,1.047,31.42735179,120.62746239,13.186,-0.002,-0.006,-0.004,0.796,18,16,04*77
$GTIMU,2292,460168.500,-0.0536,-0.0043,-0.0008,-0.0186,-0.0040,1.0003,36.8*4B
15:49::10.518,1702597768482,120.62746239,31.42735179,3478526.49158860,559656.97563263,113.47000000,6.00000000,-0.00200000,-0.00600000,-0.00400000,-0.05360000,-0.00430000,-0.00080000,-0.01860000,-0.00400000,1.00030000
$GPFPD,2292,460168.600,113.470,-0.287,1.047,31.42735180,120.62746241,13.192,-0.002,-0.006,-0.004,0.796,18,16,04*7B
$GTIMU,2292,460168.600,-0.0292,0.0008,0.0026,-0.0182,-0.0048,0.9993,36.8*46
15:49::10.619,1702597768582,120.62746241,31.42735180,3478526.49270826,559656.97752787,113.47000000,6.00000000,-0.00200000,-0.00600000,-0.00400000,-0.02920000,0.00080000,0.00260000,-0.01820000,-0.00480000,0.99930000
$GPFPD,2292,460168.700,113.470,-0.288,1.048,31.42735182,120.62746242,13.199,-0.003,-0.006,-0.004,0.798,18,16,04*7F
$GTIMU,2292,460168.700,-0.0121,0.0087,0.0094,-0.0180,-0.0051,1.0000,36.8*43
15:49::10.719,1702597768682,120.62746242,31.42735182,3478526.49493128,559656.97846599,113.47000000,6.00000000,-0.00300000,-0.00600000,-0.00400000,-0.01210000,0.00870000,0.00940000,-0.01800000,-0.00510000,1.00000000
$GPFPD,2292,460168.800,113.469,-0.293,1.049,31.42735183,120.62746244,13.203,-0.003,-0.006,-0.004,0.798,18,16,04*74
$GTIMU,2292,460168.800,-0.0593,0.0087,0.0021,-0.0189,-0.0039,0.9997,36.8*47
15:49::10.819,1702597768782,120.62746244,31.42735183,3478526.49605094,559656.98036122,113.46900000,6.00000000,-0.00300000,-0.00600000,-0.00400000,-0.05930000,0.00870000,0.00210000,-0.01890000,-0.00390000,0.99970000
$GPFPD,2292,460168.900,113.470,-0.300,1.049,31.42735183,120.62746243,13.203,-0.002,-0.006,-0.004,0.798,18,16,04*70
$GTIMU,2292,460168.900,-0.0672,0.0008,-0.0019,-0.0191,-0.0042,1.0000,36.8*61
15:49::10.919,1702597768882,120.62746243,31.42735183,3478526.49604551,559656.97941044,113.47000000,6.00000000,-0.00200000,-0.00600000,-0.00400000,-0.06720000,0.00080000,-0.00190000,-0.01910000,-0.00420000,1.00000000
$GPFPD,2292,460169.000,113.469,-0.304,1.047,31.42735182,120.62746243,13.202,-0.001,-0.006,-0.004,0.798,18,16,04*79
$GTIMU,2292,460169.000,-0.0508,-0.0277,0.0043,-0.0183,-0.0041,0.9990,36.8*6A
15:49::11.019,1702597768982,120.62746243,31.42735182,3478526.49493671,559656.97941677,113.46900000,6.00000000,-0.00100000,-0.00600000,-0.00400000,-0.05080000,-0.02770000,0.00430000,-0.01830000,-0.00410000,0.99900000
$GPGGA,074911.00,3125.6412113,N,12037.6483896,E,1,16,1.1,6.400,M,7.80,M,,*62
$GPFPD,2292,460169.100,113.470,-0.307,1.047,31.42735181,120.62746243,13.202,-0.001,-0.007,-0.005,0.798,18,16,04*70
$GTIMU,2292,460169.100,-0.0269,-0.0032,-0.0009,-0.0175,-0.0043,0.9985,36.8*44
15:49::11.119,1702597769082,120.62746243,31.42735181,3478526.49382791,559656.97942310,113.47000000,6.00000000,-0.00100000,-0.00700000,-0.00500000,-0.02690000,-0.00320000,-0.00090000,-0.01750000,-0.00430000,0.99850000
$GPFPD,2292,460169.200,113.470,-0.309,1.049,31.42735181,120.62746243,13.201,-0.002,-0.008,-0.005,0.796,18,16,04*72
$GTIMU,2292,460169.200,-0.0246,0.0229,-0.0014,-0.0177,-0.0048,0.9998,36.8*66
15:49::11.219,1702597769182,120.62746243,31.42735181,3478526.49382791,559656.97942310,113.47000000,6.00000000,-0.00200000,-0.00800000,-0.00500000,-0.02460000,0.02290000,-0.00140000,-0.01770000,-0.00480000,0.99980000
$GPFPD,2292,460169.300,113.471,-0.310,1.050,31.42735181,120.62746243,13.203,-0.002,-0.005,-0.001,0.798,18,16,04*77
$GTIMU,2292,460169.300,-0.0156,0.0053,0.0003,-0.0192,-0.0053,0.9988,36.8*41
15:49::11.319,1702597769282,120.62746243,31.42735181,3478526.49382791,559656.97942310,113.47100000,6.00000000,-0.00200000,-0.00500000,-0.00100000,-0.01560000,0.00530000,0.00030000,-0.01920000,-0.00530000,0.99880000
$GPFPD,2292,460169.400,113.471,-0.310,1.048,31.42735184,120.62746242,13.210,-0.001,-0.005,-0.001,0.798,18,16,04*7C
$GTIMU,2292,460169.400,-0.0003,-0.0209,-0.0026,-0.0187,-0.0043,0.9999,36.8*48
15:49::11.419,1702597769382,120.62746242,31.42735184,3478526.49714888,559656.97845332,113.47100000,6.00000000,-0.00100000,-0.00500000,-0.00100000,-0.00030000,-0.02090000,-0.00260000,-0.01870000,-0.00430000,0.99990000
$GPFPD,2292,460169.500,113.472,-0.311,1.049,31.42735188,120.62746241,13.217,-0.002,-0.004,-0.000,0.798,18,16,04*75
$GTIMU,2292,460169.500,-0.0167,0.0081,-0.0015,-0.0187,-0.0052,1.0003,36.8*67
15:49::11.519,1702597769482,120.62746241,31.42735188,3478526.50157865,559656.97747721,113.47200000,6.00000000,-0.00200000,-0.00400000,0.00000000,-0.01670000,0.00810000,-0.00150000,-0.01870000,-0.00520000,1.00030000
$GPFPD,2292,460169.600,113.474,-0.313,1.053,31.42735191,120.62746240,13.225,-0.002,-0.004,-0.001,0.798,18,16,04*70
$GTIMU,2292,460169.600,-0.0167,0.0462,-0.0191,-0.0186,-0.0051,0.9991,36.8*68
15:49::11.619,1702597769582,120.62746240,31.42735191,3478526.50489962,559656.97650743,113.47400000,6.00000000,-0.00200000,-0.00400000,-0.00100000,-0.01670000,0.04620000,-0.01910000,-0.01860000,-0.00510000,0.99910000
$GPFPD,2292,460169.700,113.476,-0.316,1.057,31.42735194,120.62746239,13.232,-0.000,-0.004,-0.001,0.799,18,16,04*7C
$GTIMU,2292,460169.700,-0.0366,0.0315,-0.0225,-0.0190,-0.0035,0.9997,36.8*62
15:49::11.719,1702597769682,120.62746239,31.42735194,3478526.50822058,559656.97553766,113.47600000,6.00000000,0.00000000,-0.00400000,-0.00100000,-0.03660000,0.03150000,-0.02250000,-0.01900000,-0.00350000,0.99970000
$GPFPD,2292,460169.800,113.476,-0.317,1.053,31.42735196,120.62746239,13.237,-0.001,-0.003,-0.001,0.799,18,16,04*77
$GTIMU,2292,460169.800,-0.0168,-0.0345,0.0048,-0.0192,-0.0056,0.9992,36.8*6F
15:49::11.819,1702597769782,120.62746239,31.42735196,3478526.51043818,559656.97552499,113.47600000,6.00000000,-0.00100000,-0.00300000,-0.00100000,-0.01680000,-0.03450000,0.00480000,-0.01920000,-0.00560000,0.99920000
$GPFPD,2292,460169.900,113.475,-0.318,1.050,31.42735196,120.62746238,13.237,-0.002,-0.005,-0.001,0.797,18,16,04*73
$GTIMU,2292,460169.900,-0.0139,-0.0379,0.0162,-0.0166,-0.0059,0.9994,36.8*6E
15:49::11.919,1702597769882,120.62746238,31.42735196,3478526.51043275,559656.97457421,113.47500000,6.00000000,-0.00200000,-0.00500000,-0.00100000,-0.01390000,-0.03790000,0.01620000,-0.01660000,-0.00590000,0.99940000
$GPFPD,2292,460170.000,113.474,-0.319,1.049,31.42735195,120.62746238,13.237,-0.002,-0.007,-0.001,0.797,18,16,04*7B
$GTIMU,2292,460170.000,-0.0076,-0.0044,0.0082,-0.0157,-0.0039,0.9997,36.8*60
15:49::12.019,1702597769982,120.62746238,31.42735195,3478526.50932395,559656.97458054,113.47400000,6.00000000,-0.00200000,-0.00700000,-0.00100000,-0.00760000,-0.00440000,0.00820000,-0.01570000,-0.00390000,0.99970000
$GPGGA,074912.00,3125.6412092,N,12037.6483921,E,1,16,1.1,6.401,M,7.80,M,,*65
$GPFPD,2292,460170.100,113.472,-0.318,1.052,31.42735195,120.62746238,13.237,-0.001,-0.006,-0.001,0.797,18,16,04*75
$GTIMU,2292,460170.100,0.0021,0.0257,0.0179,-0.0202,-0.0047,1.0000,36.8*63
15:49::12.119,1702597770082,120.62746238,31.42735195,3478526.50932395,559656.97458054,113.47200000,6.00000000,-0.00100000,-0.00600000,-0.00100000,0.00210000,0.02570000,0.01790000,-0.02020000,-0.00470000,1.00000000
$GPFPD,2292,460170.200,113.472,-0.319,1.053,31.42735194,120.62746238,13.237,-0.002,-0.004,-0.001,0.798,18,16,04*79
$GTIMU,2292,460170.200,-0.0139,0.0081,0.0037,-0.0206,-0.0061,0.9999,36.8*46
15:49::12.219,1702597770182,120.62746238,31.42735194,3478526.50821515,559656.97458687,113.47200000,6.00000000,-0.00200000,-0.00400000,-0.00100000,-0.01390000,0.00810000,0.00370000,-0.02060000,-0.00610000,0.99990000
$GPFPD,2292,460170.300,113.473,-0.320,1.050,31.42735195,120.62746238,13.235,-0.000,-0.003,-0.006,0.798,18,16,04*71
$GTIMU,2292,460170.300,-0.0134,-0.0288,-0.0015,-0.0169,-0.0047,0.9984,36.8*43
15:49::12.319,1702597770282,120.62746238,31.42735195,3478526.50932395,559656.97458054,113.47300000,6.00000000,0.00000000,-0.00300000,-0.00600000,-0.01340000,-0.02880000,-0.00150000,-0.01690000,-0.00470000,0.99840000
$GPFPD,2292,460170.400,113.473,-0.319,1.049,31.42735198,120.62746241,13.229,0.001,-0.003,-0.005,0.798,18,16,04*55
$GTIMU,2292,460170.400,0.0077,-0.0146,0.0070,-0.0190,-0.0041,1.0004,36.8*49
15:49::12.418,1702597770382,120.62746241,31.42735198,3478526.51266664,559656.97741390,113.47300000,6.00000000,0.00100000,-0.00300000,-0.00500000,0.00770000,-0.01460000,0.00700000,-0.01900000,-0.00410000,1.00040000
$GPFPD,2292,460170.500,113.473,-0.319,1.049,31.42735202,120.62746243,13.222,-0.000,-0.003,-0.005,0.805,18,16,04*7A
$GTIMU,2292,460170.500,0.0020,-0.0010,-0.0049,-0.0183,-0.0059,0.9994,36.8*6C
15:49::12.519,1702597770482,120.62746243,31.42735202,3478526.51711269,559656.97929013,113.47300000,6.00000000,0.00000000,-0.00300000,-0.00500000,0.00200000,-0.00100000,-0.00490000,-0.01830000,-0.00590000,0.99940000
$GPFPD,2292,460170.600,113.472,-0.320,1.050,31.42735205,120.62746245,13.216,-0.001,-0.005,-0.005,0.805,18,16,04*7B
$GTIMU,2292,460170.600,-0.0172,0.0041,0.0208,-0.0161,-0.0047,0.9998,36.8*48
15:49::12.619,1702597770582,120.62746245,31.42735205,3478526.52044995,559656.98117271,113.47200000,6.00000000,-0.00100000,-0.00500000,-0.00500000,-0.01720000,0.00410000,0.02080000,-0.01610000,-0.00470000,0.99980000
$GPFPD,2292,460170.700,113.475,-0.321,1.054,31.42735209,120.62746248,13.210,0.002,-0.000,-0.005,0.802,18,16,04*53
$GTIMU,2292,460170.700,-0.0116,0.0394,-0.0283,-0.0240,-0.0041,0.9997,36.8*67
15:49::12.719,1702597770682,120.62746248,31.42735209,3478526.52490143,559656.98399973,113.47500000,6.00000000,0.00200000,0.00000000,-0.00500000,-0.01160000,0.03940000,-0.02830000,-0.02400000,-0.00410000,0.99970000
$GPFPD,2292,460170.800,113.480,-0.321,1.053,31.42735212,120.62746250,13.205,0.001,-0.001,-0.006,0.802,18,16,04*57
$GTIMU,2292,460170.800,-0.0044,-0.0066,-0.0528,-0.0176,-0.0056,0.9990,36.8*4C
15:49::12.819,1702597770782,120.62746250,31.42735212,3478526.52823869,559656.98588230,113.48000000,6.00000000,0.00100000,-0.00100000,-0.00600000,-0.00440000,-0.00660000,-0.05280000,-0.01760000,-0.00560000,0.99900000
$GPFPD,2292,460170.900,113.469,-0.323,1.056,31.42735211,120.62746250,13.204,-0.001,-0.006,-0.004,0.799,18,16,04*71
$GTIMU,2292,460170.900,-0.0260,0.0319,0.1115,-0.0134,-0.0048,1.0011,36.8*48
15:49::12.919,1702597770882,120.62746250,31.42735211,3478526.52712989,559656.98588863,113.46900000,6.00000000,-0.00100000,-0.00600000,-0.00400000,-0.02600000,0.03190000,0.11150000,-0.01340000,-0.00480000,1.00110000
$GPFPD,2292,460171.000,113.455,-0.328,1.063,31.42735211,120.62746250,13.204,-0.000,-0.005,-0.004,0.799,18,16,04*79
$GTIMU,2292,460171.000,-0.0491,0.0660,0.1440,-0.0191,-0.0046,0.9995,36.8*4A
15:49::13.019,1702597770982,120.62746250,31.42735211,3478526.52712989,559656.98588863,113.45500000,6.00000000,0.00000000,-0.00500000,-0.00400000,-0.04910000,0.06600000,0.14400000,-0.01910000,-0.00460000,0.99950000
$GPGGA,074913.00,3125.6412129,N,12037.6483914,E,1,16,1.1,6.405,M,7.80,M,,*67
$GPFPD,2292,460171.100,113.443,-0.329,1.076,31.42735210,120.62746250,13.203,-0.001,-0.007,-0.006,0.799,18,16,04*7D
$GTIMU,2292,460171.100,-0.0173,0.1262,0.1200,-0.0164,-0.0055,0.9977,36.8*43
15:49::13.118,1702597771082,120.62746250,31.42735210,3478526.52602109,559656.98589496,113.44300000,6.00000000,-0.00100000,-0.00700000,-0.00600000,-0.01730000,0.12620000,0.12000000,-0.01640000,-0.00550000,0.99770000
$GPFPD,2292,460171.200,113.421,-0.329,1.093,31.42735210,120.62746250,13.202,-0.000,-0.007,-0.006,0.800,18,16,04*7E
$GTIMU,2292,460171.200,-0.0113,0.1687,0.2209,-0.0193,-0.0042,1.0000,36.8*4C
15:49::13.219,1702597771182,120.62746250,31.42735210,3478526.52602109,559656.98589496,113.42100000,6.00000000,0.00000000,-0.00700000,-0.00600000,-0.01130000,0.16870000,0.22090000,-0.01930000,-0.00420000,1.00000000
$GPFPD,2292,460171.300,113.400,-0.327,1.100,31.42735210,120.62746248,13.204,-0.002,-0.003,-0.003,0.802,18,16,04*77
$GTIMU,2292,460171.300,0.0107,0.0641,0.2203,-0.0219,-0.0052,0.9974,36.8*66
15:49::13.319,1702597771282,120.62746248,31.42735210,3478526.52601023,559656.98399340,113.40000000,6.00000000,-0.00200000,-0.00300000,-0.00300000,0.01070000,0.06410000,0.22030000,-0.02190000,-0.00520000,0.99740000
$GPFPD,2292,460171.400,113.390,-0.321,1.097,31.42735213,120.62746243,13.211,-0.000,-0.003,-0.003,0.802,18,16,04*79
$GTIMU,2292,460171.400,0.0544,-0.0347,0.1027,-0.0204,-0.0032,0.9996,36.8*4D
15:49::13.419,1702597771382,120.62746243,31.42735213,3478526.52930948,559656.97922049,113.39000000,6.00000000,0.00000000,-0.00300000,-0.00300000,0.05440000,-0.03470000,0.10270000,-0.02040000,-0.00320000,0.99960000
$GPFPD,2292,460171.500,113.387,-0.305,1.101,31.42735216,120.62746239,13.218,0.010,-0.007,-0.011,0.799,18,16,04*51
$GTIMU,2292,460171.500,0.1549,0.0415,0.0369,-0.0191,0.0062,0.9921,36.8*4E
15:49::13.518,1702597771482,120.62746239,31.42735216,3478526.53261416,559656.97539836,113.38700000,6.00000000,0.01000000,-0.00700000,-0.01100000,0.15490000,0.04150000,0.03690000,-0.01910000,0.00620000,0.99210000
$GPFPD,2292,460171.600,113.344,-0.261,1.116,31.42735218,120.62746237,13.223,0.035,-0.028,-0.022,0.799,18,16,04*5A
$GTIMU,2292,460171.600,0.4320,0.1478,0.4366,-0.0095,0.0273,0.9885,36.8*48
15:49::13.619,1702597771582,120.62746237,31.42735218,3478526.53482090,559656.97348413,113.34400000,6.00000000,0.03500000,-0.02800000,-0.02200000,0.43200000,0.14780000,0.43660000,-0.00950000,0.02730000,0.98850000
$GPFPD,2292,460171.700,113.274,-0.208,1.118,31.42735218,120.62746238,13.228,0.077,-0.039,-0.019,0.797,18,16,04*5C
$GTIMU,2292,460171.700,0.5125,0.0189,0.7175,-0.0263,0.0406,1.0026,36.8*40
15:49::13.719,1702597771682,120.62746238,31.42735218,3478526.53482633,559656.97443491,113.27400000,6.00000000,0.07700000,-0.03900000,-0.01900000,0.51250000,0.01890000,0.71750000,-0.02630000,0.04060000,1.00260000
$GPFPD,2292,460171.800,113.196,-0.171,1.127,31.42735216,120.62746245,13.233,0.121,-0.063,-0.008,0.797,18,16,04*5E
$GTIMU,2292,460171.800,0.3494,0.0803,0.7920,-0.0154,0.0478,1.0114,36.8*4B
15:49::13.818,1702597771782,120.62746245,31.42735216,3478526.53264674,559656.98110306,113.19600000,6.00000000,0.12100000,-0.06300000,-0.00800000,0.34940000,0.08030000,0.79200000,-0.01540000,0.04780000,1.01140000
$GPFPD,2292,460171.900,113.062,-0.146,1.150,31.42735209,120.62746260,13.232,0.170,-0.097,-0.005,0.802,18,16,04*58
$GTIMU,2292,460171.900,0.2183,0.2218,1.3466,-0.0081,0.0581,1.0026,36.8*4E
15:49::13.919,1702597771882,120.62746260,31.42735209,3478526.52496658,559656.99540913,113.06200000,6.00000000,0.17000000,-0.09700000,-0.00500000,0.21830000,0.22180000,1.34660000,-0.00810000,0.05810000,1.00260000
$GPFPD,2292,460172.000,112.859,-0.113,1.181,31.42735198,120.62746281,13.232,0.235,-0.129,-0.010,0.802,18,16,04*59
$GTIMU,2292,460172.000,0.2907,0.3068,2.0353,-0.0163,0.0720,0.9950,36.8*41
15:49::14.019,1702597771982,120.62746281,31.42735198,3478526.51288381,559657.01544522,112.85900000,6.00000000,0.23500000,-0.12900000,-0.01000000,0.29070000,0.30680000,2.03530000,-0.01630000,0.07200000,0.99500000
$GPGGA,074914.00,3125.6411998,N,12037.6484303,E,1,16,1.1,6.380,M,7.80,M,,*60
$GPFPD,2292,460172.100,112.610,-0.081,1.200,31.42735185,120.62746310,13.231,0.301,-0.152,-0.000,0.802,18,16,04*56
$GTIMU,2292,460172.100,0.2594,0.1869,2.4990,-0.0246,0.0696,1.0096,36.8*4F
15:49::14.119,1702597772082,120.62746310,31.42735185,3478526.49862688,559657.04310025,112.61000000,6.00000000,0.30100000,-0.15200000,0.00000000,0.25940000,0.18690000,2.49900000,-0.02460000,0.06960000,1.00960000
$GPFPD,2292,460172.200,112.317,-0.087,1.210,31.42735171,120.62746344,13.232,0.347,-0.174,0.008,0.797,18,16,04*79
$GTIMU,2292,460172.200,-0.1261,0.0899,2.9316,-0.0190,0.0517,1.0079,36.8*6B
15:49::14.218,1702597772182,120.62746344,31.42735171,3478526.48328829,559657.07551552,112.31700000,6.00000000,0.34700000,-0.17400000,0.00800000,-0.12610000,0.08990000,2.93160000,-0.01900000,0.05170000,1.00790000
$GPFPD,2292,460172.300,111.945,-0.087,1.238,31.42735153,120.62746383,13.232,0.390,-0.208,-0.001,0.799,18,16,04*5F
$GTIMU,2292,460172.300,-0.0760,0.2697,3.7161,-0.0094,0.0510,0.9892,36.8*67
15:49::14.319,1702597772282,120.62746383,31.42735153,3478526.46354166,559657.11271004,111.94500000,6.00000000,0.39000000,-0.20800000,-0.00100000,-0.07600000,0.26970000,3.71610000,-0.00940000,0.05100000,0.98920000
$GPFPD,2292,460172.400,111.489,-0.066,1.258,31.42735129,120.62746426,13.234,0.442,-0.227,-0.005,0.799,18,16,04*5E
$GTIMU,2292,460172.400,0.1089,0.1970,4.5693,-0.0226,0.0565,0.9960,36.8*43
15:49::14.419,1702597772382,120.62746426,31.42735129,3478526.43716394,559657.15374568,111.48900000,6.00000000,0.44200000,-0.22700000,-0.00500000,0.10890000,0.19700000,4.56930000,-0.02260000,0.05650000,0.99600000
$GPFPD,2292,460172.500,110.968,-0.040,1.285,31.42735104,120.62746475,13.236,0.499,-0.248,-0.005,0.791,18,16,04*54
$GTIMU,2292,460172.500,0.1409,0.2644,5.2108,-0.0237,0.0621,0.9993,36.8*49
15:49::14.519,1702597772482,120.62746475,31.42735104,3478526.40971001,559657.20049235,110.96800000,6.00000000,0.49900000,-0.24800000,-0.00500000,0.14090000,0.26440000,5.21080000,-0.02370000,0.06210000,0.99930000
$GPFPD,2292,460172.600,110.362,-0.001,1.323,31.42735077,120.62746530,13.237,0.564,-0.283,-0.010,0.791,18,16,04*5B
$GTIMU,2292,460172.600,0.2478,0.3725,6.0705,-0.0131,0.0746,0.9951,36.8*49
15:49::14.619,1702597772582,120.62746530,31.42735077,3478526.38007106,559657.25295639,110.36200000,6.00000000,0.56400000,-0.28300000,-0.01000000,0.24780000,0.37250000,6.07050000,-0.01310000,0.07460000,0.99510000
$GPFPD,2292,460172.700,109.616,0.064,1.399,31.42735045,120.62746594,13.237,0.656,-0.330,-0.025,0.796,18,16,04*7E
$GTIMU,2292,460172.700,0.4720,0.7657,7.4744,-0.0096,0.1052,0.9840,36.8*4E
15:49::14.718,1702597772682,120.62746594,31.42735045,3478526.34493697,559657.31400913,109.61600000,6.00000000,0.65600000,-0.33000000,-0.02500000,0.47200000,0.76570000,7.47440000,-0.00960000,0.10520000,0.98400000
$GPFPD,2292,460172.800,108.717,0.167,1.477,31.42735011,120.62746669,13.236,0.779,-0.369,-0.033,0.796,18,16,04*73
$GTIMU,2292,460172.800,0.7986,0.8023,9.0190,-0.0290,0.1349,0.9912,36.8*44
15:49::14.818,1702597772782,120.62746669,31.42735011,3478526.30764501,559657.38553316,108.71700000,6.00000000,0.77900000,-0.36900000,-0.03300000,0.79860000,0.80230000,9.01900000,-0.02900000,0.13490000,0.99120000
$GPFPD,2292,460172.900,107.688,0.277,1.535,31.42734976,120.62746759,13.233,0.921,-0.403,-0.024,0.799,18,16,04*70
$GTIMU,2292,460172.900,0.8262,0.6166,10.3140,-0.0390,0.1526,1.0076,36.8*7E
15:49::14.918,1702597772882,120.62746759,31.42734976,3478526.26932569,559657.47132526,107.68800000,6.00000000,0.92100000,-0.40300000,-0.02400000,0.82620000,0.61660000,10.31400000,-0.03900000,0.15260000,1.00760000
$GPFPD,2292,460173.000,106.497,0.362,1.547,31.42734938,120.62746864,13.231,1.072,-0.442,-0.010,0.799,18,16,04*70
$GTIMU,2292,460173.000,0.5181,0.1806,11.9348,-0.0346,0.1650,1.0125,36.8*72
15:49::15.019,1702597772982,120.62746864,31.42734938,3478526.22776142,559657.57139811,106.49700000,6.00000000,1.07200000,-0.44200000,-0.01000000,0.51810000,0.18060000,11.93480000,-0.03460000,0.16500000,1.01250000
$GPGGA,074915.00,3125.6411121,N,12037.6487613,E,1,17,1.1,6.462,M,7.80,M,,*66
$GPFPD,2292,460173.100,105.153,0.404,1.504,31.42734897,120.62746985,13.231,1.238,-0.459,-0.003,0.799,18,16,04*71
$GTIMU,2292,460173.100,0.0643,-0.3411,13.4453,-0.0568,0.1751,1.0046,36.8*56
15:49::15.119,1702597773082,120.62746985,31.42734897,3478526.18295763,559657.68670249,105.15300000,6.00000000,1.23800000,-0.45900000,-0.00300000,0.06430000,-0.34110000,13.44530000,-0.05680000,0.17510000,1.00460000
$GPFPD,2292,460173.200,103.757,0.428,1.395,31.42734855,120.62747125,13.230,1.412,-0.463,-0.003,0.801,18,17,04*72
$GTIMU,2292,460173.200,-0.1228,-0.9816,13.9596,-0.0657,0.1809,0.9971,36.8*7C
15:49::15.219,1702597773182,120.62747125,31.42734855,3478526.13714819,559657.82007808,103.75700000,6.00000000,1.41200000,-0.46300000,-0.00300000,-0.12280000,-0.98160000,13.95960000,-0.06570000,0.18090000,0.99710000
$GPFPD,2292,460173.300,102.368,0.457,1.327,31.42734813,120.62747283,13.230,1.582,-0.476,-0.003,0.792,18,16,04*7E
$GTIMU,2292,460173.300,-0.0450,-0.5780,13.9098,-0.0510,0.1790,0.9963,36.8*7E
15:49::15.318,1702597773282,120.62747283,31.42734813,3478526.09143649,559657.97056777,102.36800000,6.00000000,1.58200000,-0.47600000,-0.00300000,-0.04500000,-0.57800000,13.90980000,-0.05100000,0.17900000,0.99630000
$GPFPD,2292,460173.400,101.011,0.483,1.310,31.42734770,120.62747460,13.232,1.746,-0.476,-0.000,0.792,18,16,04*70
$GTIMU,2292,460173.400,-0.0523,-0.0604,13.5705,-0.0566,0.1727,1.0004,36.8*76
15:49::15.419,1702597773382,120.62747460,31.42734770,3478526.04471915,559658.13912868,101.01100000,6.00000000,1.74600000,-0.47600000,0.00000000,-0.05230000,-0.06040000,13.57050000,-0.05660000,0.17270000,1.00040000
$GPFPD,2292,460173.500,99.777,0.497,1.287,31.42734728,120.62747654,13.235,1.913,-0.446,0.005,0.795,18,16,04*61
$GTIMU,2292,460173.500,-0.1386,-0.1248,12.3452,-0.0845,0.1718,1.0016,36.8*77
15:49::15.519,1702597773482,120.62747654,31.42734728,3478525.99920291,559658.32384658,99.77700000,6.00000000,1.91300000,-0.44600000,0.00500000,-0.13860000,-0.12480000,12.34520000,-0.08450000,0.17180000,1.00160000
$GPFPD,2292,460173.600,98.767,0.487,1.246,31.42734689,120.62747864,13.238,2.068,-0.399,0.024,0.795,18,16,04*64
$GTIMU,2292,460173.600,-0.3358,-0.3272,10.0921,-0.0952,0.1570,1.0164,36.8*79
15:49::15.619,1702597773582,120.62747864,31.42734689,3478525.95709995,559658.52375801,98.76700000,6.00000000,2.06800000,-0.39900000,0.02400000,-0.33580000,-0.32720000,10.09210000,-0.09520000,0.15700000,1.01640000
$GPFPD,2292,460173.700,97.946,0.436,1.259,31.42734654,120.62748090,13.244,2.200,-0.386,0.039,0.789,18,16,04*67
$GTIMU,2292,460173.700,-0.6866,0.1999,8.1986,-0.0544,0.1409,1.0132,36.8*68
15:49::15.718,1702597773682,120.62748090,31.42734654,3478525.91951906,559658.73885665,97.94600000,6.00000000,2.20000000,-0.38600000,0.03900000,-0.68660000,0.19990000,8.19860000,-0.05440000,0.14090000,1.01320000
$GPFPD,2292,460173.800,97.143,0.378,1.307,31.42734619,120.62748330,13.249,2.330,-0.390,0.027,0.789,18,16,04*65
$GTIMU,2292,460173.800,-0.7591,0.5349,8.0203,-0.0363,0.1393,0.9855,36.8*60
15:49::15.818,1702597773782,120.62748330,31.42734619,3478525.88201418,559658.96726625,97.14300000,6.00000000,2.33000000,-0.39000000,0.02700000,-0.75910000,0.53490000,8.02030000,-0.03630000,0.13930000,0.98550000
$GPFPD,2292,460173.900,96.386,0.362,1.249,31.42734586,120.62748583,13.249,2.469,-0.345,-0.010,0.804,18,16,04*45
$GTIMU,2292,460173.900,-0.3413,-0.5299,7.5688,-0.0837,0.1425,0.9595,36.8*43
15:49::15.918,1702597773882,120.62748583,31.42734586,3478525.84679750,559659.20802338,96.38600000,6.00000000,2.46900000,-0.34500000,-0.01000000,-0.34130000,-0.52990000,7.56880000,-0.08370000,0.14250000,0.95950000
$GPFPD,2292,460174.000,95.804,0.393,1.106,31.42734557,120.62748850,13.247,2.606,-0.290,-0.016,0.804,18,16,04*4A
$GTIMU,2292,460174.000,0.1898,-1.3921,5.8248,-0.0913,0.1393,0.9914,36.8*6D
15:49::16.018,1702597773982,120.62748850,31.42734557,3478525.81609202,559659.46206615,95.80400000,6.00000000,2.60600000,-0.29000000,-0.01600000,0.18980000,-1.39210000,5.82480000,-0.09130000,0.13930000,0.99140000
$GPGGA,074916.00,3125.6409988,N,12037.6499410,E,1,16,1.1,6.344,M,7.80,M,,*6B
$GPFPD,2292,460174.100,95.436,0.414,0.927,31.42734532,120.62749132,13.247,2.746,-0.265,0.006,0.804,18,16,04*68
$GTIMU,2292,460174.100,0.1345,-1.7692,3.6854,-0.0570,0.1477,1.0202,36.8*6B
15:49::16.118,1702597774082,120.62749132,31.42734532,3478525.78990320,559659.73034534,95.43600000,6.00000000,2.74600000,-0.26500000,0.00600000,0.13450000,-1.76920000,3.68540000,-0.05700000,0.14770000,1.02020000
$GPFPD,2292,460174.200,95.251,0.396,0.812,31.42734508,120.62749428,13.248,2.886,-0.279,0.019,0.802,18,16,04*68
$GTIMU,2292,460174.200,-0.2114,-1.1336,1.8466,-0.0150,0.1519,1.0121,36.8*41
15:49::16.218,1702597774182,120.62749428,31.42734508,3478525.76489919,559660.01192917,95.25100000,6.00000000,2.88600000,-0.27900000,0.01900000,-0.21140000,-1.13360000,1.84660000,-0.01500000,0.15190000,1.01210000
$GPFPD,2292,460174.300,95.196,0.393,0.870,31.42734482,120.62749738,13.248,3.022,-0.305,-0.003,0.797,18,16,04*49
$GTIMU,2292,460174.300,-0.0396,0.5890,0.5472,0.0006,0.1511,0.9783,36.8*4D
15:49::16.318,1702597774282,120.62749738,31.42734482,3478525.73775362,559660.30683663,95.19600000,6.00000000,3.02200000,-0.30500000,-0.00300000,-0.03960000,0.58900000,0.54720000,0.00060000,0.15110000,0.97830000
$GPFPD,2292,460174.400,95.163,0.428,1.016,31.42734457,120.62750059,13.244,3.159,-0.334,-0.017,0.797,18,16,04*4C
$GTIMU,2292,460174.400,0.3440,1.4569,0.3438,0.0006,0.1491,0.9848,36.8*6A
15:49::16.418,1702597774382,120.62750059,31.42734457,3478525.71177657,559660.61219637,95.16300000,6.00000000,3.15900000,-0.33400000,-0.01700000,0.34400000,1.45690000,0.34380000,0.00060000,0.14910000,0.98480000
$GPFPD,2292,460174.500,95.086,0.491,1.187,31.42734429,120.62750394,13.238,3.291,-0.339,-0.015,0.804,18,16,04*41
$GTIMU,2292,460174.500,0.6141,1.7200,0.7783,-0.0258,0.1430,1.0000,36.8*45
15:49::16.519,1702597774482,120.62750394,31.42734429,3478525.68254915,559660.93088608,95.08600000,6.00000000,3.29100000,-0.33900000,-0.01500000,0.61410000,1.72000000,0.77830000,-0.02580000,0.14300000,1.00000000
$GPFPD,2292,460174.600,95.046,0.531,1.163,31.42734403,120.62750743,13.234,3.419,-0.299,0.010,0.804,18,16,04*60
$GTIMU,2292,460174.600,0.3875,-0.2432,0.4116,-0.0741,0.1369,1.0228,36.8*64
15:49::16.618,1702597774582,120.62750743,31.42734403,3478525.65561536,559661.26287409,95.04600000,6.00000000,3.41900000,-0.29900000,0.01000000,0.38750000,-0.24320000,0.41160000,-0.07410000,0.13690000,1.02280000
$GPFPD,2292,460174.700,95.050,0.549,1.072,31.42734380,120.62751105,13.232,3.541,-0.300,0.016,0.804,18,16,04*6C
$GTIMU,2292,460174.700,0.1744,-0.9110,-0.0350,-0.0288,0.1336,1.0046,36.8*4D
15:49::16.718,1702597774682,120.62751105,31.42734380,3478525.63207856,559661.60720330,95.05000000,6.00000000,3.54100000,-0.30000000,0.01600000,0.17440000,-0.91100000,-0.03500000,-0.02880000,0.13360000,1.00460000
$GPFPD,2292,460174.800,95.063,0.539,0.922,31.42734354,120.62751479,13.230,3.648,-0.319,0.008,0.804,18,16,04*61
$GTIMU,2292,460174.800,-0.1056,-1.4985,-0.1233,-0.0083,0.1211,0.9903,36.8*6B
15:49::16.818,1702597774782,120.62751479,31.42734354,3478525.60528054,559661.96296090,95.06300000,6.00000000,3.64800000,-0.31900000,0.00800000,-0.10560000,-1.49850000,-0.12330000,-0.00830000,0.12110000,0.99030000
$GPFPD,2292,460174.900,95.196,0.498,0.792,31.42734325,120.62751868,13.231,3.742,-0.313,0.013,0.801,17,16,04*6E
$GTIMU,2292,460174.900,-0.3957,-1.3093,-1.3400,-0.0297,0.1040,1.0040,36.8*6B
15:49::16.918,1702597774882,120.62751868,31.42734325,3478525.57523757,559662.33299924,95.19600000,6.00000000,3.74200000,-0.31300000,0.01300000,-0.39570000,-1.30930000,-1.34000000,-0.02970000,0.10400000,1.00400000
$GPFPD,2292,460175.000,95.471,0.486,0.713,31.42734296,120.62752266,13.233,3.821,-0.340,0.018,0.801,17,16,04*67
$GTIMU,2292,460175.000,-0.0836,-0.8173,-2.7419,0.0071,0.0926,1.0042,36.8*41
15:49::17.018,1702597774982,120.62752266,31.42734296,3478525.54524349,559662.71159465,95.47100000,6.00000000,3.82100000,-0.34000000,0.01800000,-0.08360000,-0.81730000,-2.74190000,0.00710000,0.09260000,1.00420000
$GPGGA,074917.00,3125.6408428,N,12037.6520157,E,1,16,1.1,6.339,M,7.80,M,,*63
$GPFPD,2292,460175.100,95.874,0.489,0.702,31.42734264,120.62752672,13.235,3.890,-0.372,0.027,0.801,17,16,04*6D
$GTIMU,2292,460175.100,0.0732,-0.1405,-4.0322,0.0125,0.0817,1.0081,36.8*69
15:49::17.118,1702597775082,120.62752672,31.42734264,3478525.51196647,559663.09781532,95.87400000,6.00000000,3.89000000,-0.37200000,0.02700000,0.07320000,-0.14050000,-4.03220000,0.01250000,0.08170000,1.00810000
$GPFPD,2292,460175.200,96.426,0.470,0.685,31.42734229,120.62753085,13.238,3.956,-0.395,0.038,0.806,17,16,04*6E
$GTIMU,2292,460175.200,-0.1206,-0.2211,-5.5143,0.0036,0.0794,1.0103,36.8*49
15:49::17.218,1702597775182,120.62753085,31.42734229,3478525.47540107,559663.49071047,96.42600000,6.00000000,3.95600000,-0.39500000,0.03800000,-0.12060000,-0.22110000,-5.51430000,0.00360000,0.07940000,1.01030000
$GPFPD,2292,460175.300,97.124,0.433,0.646,31.42734191,120.62753504,13.242,4.024,-0.440,0.033,0.803,17,16,04*6A
$GTIMU,2292,460175.300,-0.2924,-0.4466,-6.9903,0.0240,0.0837,0.9932,36.8*44
15:49::17.318,1702597775282,120.62753504,31.42734191,3478525.43554187,559663.88932932,97.12400000,6.00000000,4.02400000,-0.44000000,0.03300000,-0.29240000,-0.44660000,-6.99030000,0.02400000,0.08370000,0.99320000
$GPFPD,2292,460175.400,97.978,0.415,0.604,31.42734148,120.62753930,13.247,4.105,-0.483,0.016,0.803,17,16,04*6E
$GTIMU,2292,460175.400,-0.0923,-0.4852,-8.5407,0.0214,0.0956,0.9824,36.8*47
15:49::17.418,1702597775382,120.62753930,31.42734148,3478525.39017670,559664.29463532,97.97800000,6.00000000,4.10500000,-0.48300000,0.01600000,-0.09230000,-0.48520000,-8.54070000,0.02140000,0.09560000,0.98240000
$GPFPD,2292,460175.500,98.964,0.410,0.566,31.42734099,120.62754364,13.250,4.161,-0.567,0.002,0.794,17,16,04*65
$GTIMU,2292,460175.500,0.0449,-0.4462,-9.8509,0.0664,0.0766,0.9854,36.8*6F
15:49::17.518,1702597775482,120.62754364,31.42734099,3478525.33820220,559664.70758558,98.96400000,6.00000000,4.16100000,-0.56700000,0.00200000,0.04490000,-0.44620000,-9.85090000,0.06640000,0.07660000,0.98540000
$GPFPD,2292,460175.600,99.943,0.406,0.605,31.42734040,120.62754804,13.252,4.236,-0.683,0.011,0.794,17,16,04*62
$GTIMU,2292,460175.600,0.0568,0.3126,-9.7956,0.0936,0.1026,1.0091,36.8*4B
$GPFPD,2292,460175.700,100.894,0.379,0.699,31.42733972,120.62755253,13.257,4.328,-0.771,0.030,0.797,17,16,04*52
$GTIMU,2292,460175.700,-0.1644,0.8773,-9.5088,0.0596,0.1163,1.0185,36.8*6C
$GPFPD,2292,460175.800,101.836,0.345,0.752,31.42733897,120.62755712,13.262,4.422,-0.853,0.033,0.797,17,16,04*50
$GTIMU,2292,460175.800,-0.2313,0.4742,-9.4191,0.0502,0.1177,1.0037,36.8*61
$GPFPD,2292,460175.900,102.748,0.335,0.740,31.42733816,120.62756182,13.264,4.514,-0.948,0.015,0.799,17,16,04*56
$GTIMU,2292,460175.900,0.0174,-0.1788,-9.1158,0.0616,0.1185,0.9812,36.8*6E
$GPFPD,2292,460176.000,103.622,0.356,0.741,31.42733725,120.62756663,13.264,4.628,-1.056,-0.016,0.799,17,16,04*76
$GTIMU,2292,460176.000,0.3189,-0.0384,-8.7327,0.0684,0.1444,0.9684,36.8*63
$GPFPD,2292,460176.100,104.448,0.361,0.805,31.42733625,120.62757156,13.263,4.744,-1.171,-0.002,0.799,17,16,04*79
$GTIMU,2292,460176.100,0.1613,0.5824,-8.2602,0.0709,0.1508,1.0140,36.8*40
$GPFPD,2292,460176.200,105.157,0.366,0.899,31.42733513,120.62757662,13.263,4.865,-1.289,-0.006,0.789,17,16,04*79
$GTIMU,2292,460176.200,0.1498,0.8936,-7.0843,0.0705,0.1568,0.9952,36.8*42
$GPFPD,2292,460176.300,105.712,0.396,0.981,31.42733393,120.62758180,13.264,4.987,-1.388,0.011,0.799,17,16,04*52
$GTIMU,2292,460176.300,0.3870,0.7859,-5.5355,0.0467,0.1563,1.0125,36.8*4B
$GPFPD,2292,460176.400,106.154,0.422,1.002,31.42733265,120.62758709,13.272,5.121,-1.468,0.016,0.799,17,16,04*5A
$GTIMU,2292,460176.400,0.3350,0.1781,-4.4109,0.0234,0.1618,1.0050,36.8*4E
$GPFPD,2292,460176.500,106.555,0.426,0.965,31.42733131,120.62759252,13.281,5.257,-1.538,0.011,0.794,17,16,04*5B
$GTIMU,2292,460176.500,0.1045,-0.4009,-4.0077,0.0125,0.1611,0.9932,36.8*66
$GPGGA,074918.00,3125.6404326,N,12037.6546834,E,1,16,1.1,6.383,M,7.80,M,,*64
$GPFPD,2292,460176.600,106.972,0.453,0.891,31.42732991,120.62759810,13.287,5.388,-1.611,-0.018,0.794,17,16,04*7F
$GTIMU,2292,460176.600,0.3298,-0.7765,-4.1656,0.0161,0.1573,0.9692,36.8*6D
15:49::18.619,1702597776582,120.62759810,31.42732991,3478524.13922639,559669.89256878,106.97200000,6.00000000,5.38800000,-1.61100000,-0.01800000,0.32980000,-0.77650000,-4.16560000,0.01610000,0.15730000,0.96920000
$GPFPD,2292,460176.700,107.421,0.478,0.823,31.42732844,120.62760381,13.293,5.517,-1.691,0.006,0.801,17,16,04*58
$GTIMU,2292,460176.700,0.3200,-0.7188,-4.4781,0.0247,0.1585,1.0237,36.8*6B
15:49::18.718,1702597776682,120.62760381,31.42732844,3478523.97933380,559670.43639711,107.42100000,6.00000000,5.51700000,-1.69100000,0.00600000,0.32000000,-0.71880000,-4.47810000,0.02470000,0.15850000,1.02370000
$GPFPD,2292,460176.800,107.884,0.421,0.782,31.42732688,120.62760966,13.300,5.640,-1.789,0.035,0.801,17,16,04*53
$GTIMU,2292,460176.800,-0.5068,-0.4504,-4.6369,0.0427,0.1588,1.0287,36.9*47
15:49::18.819,1702597776782,120.62760966,31.42732688,3478523.80953807,559670.99359343,107.88400000,6.00000000,5.64000000,-1.78900000,0.03500000,-0.50680000,-0.45040000,-4.63690000,0.04270000,0.15880000,1.02870000
$GPFPD,2292,460176.900,108.355,0.323,0.768,31.42732521,120.62761566,13.304,5.762,-1.888,0.035,0.804,17,16,04*58
$GTIMU,2292,460176.900,-0.9231,-0.1716,-4.7209,0.0429,0.1568,0.9992,36.9*41
15:49::18.919,1702597776882,120.62761566,31.42732521,3478523.62762704,559671.56512118,108.35500000,6.00000000,5.76200000,-1.88800000,0.03500000,-0.92310000,-0.17160000,-4.72090000,0.04290000,0.15680000,0.99920000
$GPFPD,2292,460177.000,108.839,0.254,0.735,31.42732347,120.62762179,13.306,5.891,-1.973,0.011,0.804,17,16,04*55
$GTIMU,2292,460177.000,-0.6349,-0.3546,-4.8425,0.0270,0.1582,0.9751,36.9*45
15:49::19.019,1702597776982,120.62762179,31.42732347,3478523.43802505,559672.14905347,108.83900000,6.00000000,5.89100000,-1.97300000,0.01100000,-0.63490000,-0.35460000,-4.84250000,0.02700000,0.15820000,0.97510000
$GPGGA,074919.00,3125.6395488,N,12037.6580276,E,1,16,1.1,6.394,M,7.80,M,,*69
$GPFPD,2292,460177.100,109.334,0.206,0.680,31.42732165,120.62762806,13.307,6.020,-2.071,0.006,0.804,17,16,04*56
$GTIMU,2292,460177.100,-0.4217,-0.5666,-4.9622,0.0396,0.1617,0.9948,36.9*4F
15:49::19.118,1702597777082,120.62762806,31.42732165,3478523.23962874,559672.74634742,109.33400000,6.00000000,6.02000000,-2.07100000,0.00600000,-0.42170000,-0.56660000,-4.96220000,0.03960000,0.16170000,0.99480000
$GPFPD,2292,460177.200,109.830,0.129,0.663,31.42731973,120.62763446,13.307,6.142,-2.185,-0.006,0.799,17,16,04*75
$GTIMU,2292,460177.200,-0.7132,-0.1873,-4.9615,0.0564,0.1592,0.9877,36.9*49
15:49::19.219,1702597777182,120.62763446,31.42731973,3478523.03021506,559673.35606492,109.83000000,6.00000000,6.14200000,-2.18500000,-0.00600000,-0.71320000,-0.18730000,-4.96150000,0.05640000,0.15920000,0.98770000
$GPFPD,2292,460177.300,110.307,0.060,0.657,31.42731770,120.62764101,13.305,6.271,-2.298,-0.024,0.796,17,17,04*74
$GTIMU,2292,460177.300,-0.6387,-0.0716,-4.7740,0.0514,0.1610,0.9848,36.9*45
15:49::19.319,1702597777282,120.62764101,31.42731770,3478522.80868610,559673.98011386,110.30700000,6.00000000,6.27100000,-2.29800000,-0.02400000,-0.63870000,-0.07160000,-4.77400000,0.05140000,0.16100000,0.98480000
$GPFPD,2292,460177.400,110.790,-0.050,0.673,31.42731558,120.62764775,13.298,6.401,-2.400,-0.009,0.796,17,17,04*50
$GTIMU,2292,460177.400,-1.0403,0.1611,-4.8381,0.0391,0.1613,1.0156,36.9*64
15:49::19.419,1702597777382,120.62764775,31.42731558,3478522.57728117,559674.62228472,110.79000000,6.00000000,6.40100000,-2.40000000,-0.00900000,-1.04030000,0.16110000,-4.83810000,0.03910000,0.16130000,1.01560000
$GPFPD,2292,460177.500,111.250,-0.163,0.718,31.42731336,120.62765462,13.291,6.516,-2.519,-0.032,0.792,17,17,04*55
$GTIMU,2292,460177.500,-1.0845,0.4576,-4.6133,0.0591,0.1519,0.9771,36.9*6D
15:49::19.518,1702597777482,120.62765462,31.42731336,3478522.33485890,559675.27687913,111.25000000,6.00000000,6.51600000,-2.51900000,-0.03200000,-1.08450000,0.45760000,-4.61330000,0.05910000,0.15190000,0.97710000
$GPFPD,2292,460177.600,111.619,-0.216,0.833,31.42731102,120.62766161,13.281,6.620,-2.638,-0.052,0.792,17,17,04*59
$GTIMU,2292,460177.600,-0.4774,1.1587,-3.6915,0.0617,0.1401,0.9809,36.9*62
15:49::19.619,1702597777582,120.62766161,31.42731102,3478522.07919625,559675.94295899,111.61900000,6.00000000,6.62000000,-2.63800000,-0.05200000,-0.47740000,1.15870000,-3.69150000,0.06170000,0.14010000,0.98090000
$GPFPD,2292,460177.700,111.843,-0.206,0.984,31.42730859,120.62766871,13.270,6.736,-2.736,-0.070,0.803,17,17,04*5B
$GTIMU,2292,460177.700,0.1243,1.5153,-2.2406,0.0332,0.1439,0.9824,36.9*4F
15:49::19.719,1702597777682,120.62766871,31.42730859,3478521.81361420,559676.61955450,111.84300000,6.00000000,6.73600000,-2.73600000,-0.07000000,0.12430000,1.51530000,-2.24060000,0.03320000,0.14390000,0.98240000
$GPFPD,2292,460177.800,111.952,-0.173,1.101,31.42730608,120.62767593,13.258,6.862,-2.812,-0.092,0.803,17,17,04*5B
$GTIMU,2292,460177.800,0.3521,1.1727,-1.0750,0.0060,0.1460,0.9785,36.9*4D
15:49::19.819,1702597777782,120.62767593,31.42730608,3478521.53922697,559677.30761012,111.95200000,6.00000000,6.86200000,-2.81200000,-0.09200000,0.35210000,1.17270000,-1.07500000,0.00600000,0.14600000,0.97850000
$GPFPD,2292,460177.900,112.045,-0.165,1.178,31.42730352,120.62768322,13.249,7.000,-2.867,-0.081,0.801,17,17,04*59
$GTIMU,2292,460177.900,0.0918,0.7805,-0.9272,-0.0214,0.1488,1.0106,36.9*63
15:49::19.919,1702597777882,120.62768322,31.42730352,3478521.25933381,559678.00235293,112.04500000,6.00000000,7.00000000,-2.86700000,-0.08100000,0.09180000,0.78050000,-0.92720000,-0.02140000,0.14880000,1.01060000
$GPFPD,2292,460178.000,112.149,-0.155,1.195,31.42730091,120.62769065,13.243,7.131,-2.922,-0.053,0.801,17,17,04*59
$GTIMU,2292,460178.000,0.1216,0.1685,-1.0385,-0.0197,0.1431,1.0285,36.9*62
15:49::20.019,1702597777982,120.62769065,31.42730091,3478520.97397274,559678.71043843,112.14900000,6.00000000,7.13100000,-2.92200000,-0.05300000,0.12160000,0.16850000,-1.03850000,-0.01970000,0.14310000,1.02850000
$GPGGA,074920.00,3125.6382275,N,12037.6621629,E,1,17,1.1,6.586,M,7.80,M,,*63
$GPFPD,2292,460178.100,112.244,-0.135,1.151,31.42729824,120.62769822,13.238,7.251,-2.986,-0.060,0.801,17,17,04*5A
$GTIMU,2292,460178.100,0.2143,-0.4439,-0.9372,-0.0063,0.1356,0.9933,36.9*4C
15:49::20.119,1702597778082,120.62769822,31.42729824,3478520.68203496,559679.43187294,112.24400000,6.00000000,7.25100000,-2.98600000,-0.06000000,0.21430000,-0.44390000,-0.93720000,-0.00630000,0.13560000,0.99330000
$GPFPD,2292,460178.200,112.333,-0.073,1.154,31.42729552,120.62770591,13.231,7.370,-3.048,-0.090,0.802,16,17,04*53
$GTIMU,2292,460178.200,0.6303,0.0339,-0.8795,-0.0070,0.1351,0.9687,36.9*6A
15:49::20.218,1702597778182,120.62770591,31.42729552,3478520.38461842,559680.16474857,112.33300000,6.00000000,7.37000000,-3.04800000,-0.09000000,0.63030000,0.03390000,-0.87950000,-0.00700000,0.13510000,0.96870000
$GPFPD,2292,460178.300,112.409,0.014,1.149,31.42729276,120.62771374,13.222,7.494,-3.111,-0.075,0.799,15,15,04*74
$GTIMU,2292,460178.300,0.8870,-0.0540,-0.7358,-0.0055,0.1424,1.0190,36.9*4E
15:49::20.319,1702597778282,120.62771374,31.42729276,3478520.08284277,559680.91096055,112.40900000,6.00000000,7.49400000,-3.11100000,-0.07500000,0.88700000,-0.05400000,-0.73580000,-0.00550000,0.14240000,1.01900000
$GPFPD,2292,460178.400,112.439,0.079,1.173,31.42728998,120.62772170,13.213,7.615,-3.183,-0.039,0.799,15,15,04*77
$GTIMU,2292,460178.400,0.6544,0.2395,-0.2859,-0.0010,0.1442,1.0360,36.9*6F
15:49::20.419,1702597778382,120.62772170,31.42728998,3478519.77892019,559681.66954544,112.43900000,6.00000000,7.61500000,-3.18300000,-0.03900000,0.65440000,0.23950000,-0.28590000,-0.00100000,0.14420000,1.03600000
$GPFPD,2292,460178.500,112.440,0.089,1.228,31.42728716,120.62772979,13.206,7.739,-3.234,-0.038,0.800,15,16,04*7A
$GTIMU,2292,460178.500,0.0922,0.5526,-0.0017,-0.0205,0.1387,1.0008,36.9*68
15:49::20.519,1702597778482,120.62772979,31.42728716,3478519.47063308,559682.44051590,112.44000000,6.00000000,7.73900000,-3.23400000,-0.03800000,0.09220000,0.55260000,-0.00170000,-0.02050000,0.13870000,1.00080000
$GPFPD,2292,460178.600,112.430,0.149,1.202,31.42728428,120.62773802,13.199,7.864,-3.278,-0.043,0.800,15,16,04*7F
$GTIMU,2292,460178.600,0.5994,-0.2583,0.1128,-0.0288,0.1376,0.9932,36.9*64
15:49::20.618,1702597778582,120.62773802,31.42728428,3478519.15576928,559683.22483539,112.43000000,6.00000000,7.86400000,-3.27800000,-0.04300000,0.59940000,-0.25830000,0.11280000,-0.02880000,0.13760000,0.99320000
$GPFPD,2292,460178.700,112.425,0.170,1.175,31.42728137,120.62774638,13.193,7.989,-3.324,-0.027,0.795,15,15,04*7A
$GTIMU,2292,460178.700,0.2059,-0.2779,0.0528,-0.0265,0.1394,1.0159,36.9*6A
15:49::20.718,1702597778682,120.62774638,31.42728137,3478518.83764975,559684.02153412,112.42500000,6.00000000,7.98900000,-3.32400000,-0.02700000,0.20590000,-0.27790000,0.05280000,-0.02650000,0.13940000,1.01590000
$GPFPD,2292,460178.800,112.421,0.182,1.139,31.42727841,120.62775486,13.188,8.104,-3.370,-0.022,0.795,15,15,04*79
