$GPFPD,2292,524585.600,114.813,-0.470,1.191,31.42736608,120.62740889,16.949,0.002,0.002,-0.002,0.807,20,18,04*70
$GTIMU,2292,524585.600,0.0111,-0.0362,0.0082,-0.0226,-0.0100,1.0002,16.9*43
09:42::47.601,1702662185582,120.62740889,31.42736608,3478528.04701642,559651.87989509,114.81300000,6.00000000,0.00200000,0.00200000,-0.00200000,0.01110000,-0.03620000,0.00820000,-0.02260000,-0.01000000,1.00020000
$GPFPD,2292,524585.700,114.814,-0.471,1.196,31.42736603,120.62740891,16.957,0.002,-0.000,-0.003,0.810,20,18,04*55
$GTIMU,2292,524585.700,-0.0177,0.0480,-0.0003,-0.0179,-0.0063,0.9987,16.9*6C
09:42::47.701,1702662185682,120.62740891,31.42736603,3478528.04148328,559651.88182831,114.81400000,6.00000000,0.00200000,0.00000000,-0.00300000,-0.01770000,0.04800000,-0.00030000,-0.01790000,-0.00630000,0.99870000
$GPFPD,2292,524585.800,114.813,-0.469,1.192,31.42736599,120.62740893,16.963,0.002,0.002,-0.002,0.810,20,18,04*7B
$GTIMU,2292,524585.800,0.0145,-0.0396,0.0065,-0.0227,-0.0086,1.0002,16.9*40
09:42::47.801,1702662185782,120.62740893,31.42736599,3478528.03705894,559651.88375520,114.81300000,6.00000000,0.00200000,0.00200000,-0.00200000,0.01450000,-0.03960000,0.00650000,-0.02270000,-0.00860000,1.00020000
$GPFPD,2292,524585.900,114.813,-0.471,1.195,31.42736599,120.62740893,16.963,0.002,0.000,-0.002,0.809,20,18,04*7E
$GTIMU,2292,524585.900,-0.0223,0.0286,0.0003,-0.0182,-0.0078,0.9993,16.9*46
09:42::47.901,1702662185882,120.62740893,31.42736599,3478528.03705894,559651.88375520,114.81300000,6.00000000,0.00200000,0.00000000,-0.00200000,-0.02230000,0.02860000,0.00030000,-0.01820000,-0.00780000,0.99930000
$GPFPD,2292,524586.000,114.813,-0.470,1.193,31.42736599,120.62740893,16.963,0.003,0.002,-0.003,0.809,20,18,04*71
$GTIMU,2292,524586.000,0.0082,-0.0248,0.0053,-0.0218,-0.0075,0.9991,16.9*4D
09:42::48.001,1702662185982,120.62740893,31.42736599,3478528.03705894,559651.88375520,114.81300000,6.00000000,0.00300000,0.00200000,-0.00300000,0.00820000,-0.02480000,0.00530000,-0.02180000,-0.00750000,0.99910000
$GPGGA,014248.00,3125.6418746,N,12037.6452136,E,1,18,1.1,10.336,M,7.80,M,,*5B
$GPFPD,2292,524586.100,114.814,-0.471,1.193,31.42736599,120.62740894,16.962,0.002,0.001,-0.001,0.809,20,18,04*70
$GTIMU,2292,524586.100,-0.0139,-0.0009,-0.0026,-0.0197,-0.0082,1.0006,16.9*4B
09:42::48.101,1702662186082,120.62740894,31.42736599,3478528.03706437,559651.88470598,114.81400000,6.00000000,0.00200000,0.00100000,-0.00100000,-0.01390000,-0.00090000,-0.00260000,-0.01970000,-0.00820000,1.00060000
$GPFPD,2292,524586.200,114.813,-0.473,1.191,31.42736599,120.62740894,16.962,0.003,0.001,-0.002,0.815,20,18,04*7B
$GTIMU,2292,524586.200,-0.0162,-0.0231,0.0054,-0.0208,-0.0067,0.9989,16.9*6F
09:42::48.201,1702662186182,120.62740894,31.42736599,3478528.03706437,559651.88470598,114.81300000,6.00000000,0.00300000,0.00100000,-0.00200000,-0.01620000,-0.02310000,0.00540000,-0.02080000,-0.00670000,0.99890000
$GPFPD,2292,524586.300,114.813,-0.473,1.187,31.42736600,120.62740894,16.963,0.001,0.005,0.001,0.812,20,18,04*50
$GTIMU,2292,524586.300,-0.0066,-0.0436,-0.0003,-0.0207,-0.0103,1.0003,16.9*4A
09:42::48.301,1702662186282,120.62740894,31.42736600,3478528.03817317,559651.88469965,114.81300000,6.00000000,0.00100000,0.00500000,0.00100000,-0.00660000,-0.04360000,-0.00030000,-0.02070000,-0.01030000,1.00030000
$GPFPD,2292,524586.400,114.814,-0.475,1.189,31.42736603,120.62740894,16.969,0.002,0.002,-0.000,0.812,20,18,04*79
$GTIMU,2292,524586.400,-0.0240,0.0269,-0.0043,-0.0172,-0.0062,0.9981,16.9*62
09:42::48.401,1702662186382,120.62740894,31.42736603,3478528.04149957,559651.88468066,114.81400000,6.00000000,0.00200000,0.00200000,0.00000000,-0.02400000,0.02690000,-0.00430000,-0.01720000,-0.00620000,0.99810000
$GPFPD,2292,524586.500,114.813,-0.474,1.188,31.42736605,120.62740894,16.975,0.001,0.005,0.002,0.806,20,18,04*5A
$GTIMU,2292,524586.500,0.0066,-0.0175,0.0128,-0.0229,-0.0101,1.0011,16.9*4B
09:42::48.501,1702662186482,120.62740894,31.42736605,3478528.04371716,559651.88466800,114.81300000,6.00000000,0.00100000,0.00500000,0.00200000,0.00660000,-0.01750000,0.01280000,-0.02290000,-0.01010000,1.00110000
$GPFPD,2292,524586.600,114.814,-0.479,1.191,31.42736608,120.62740895,16.981,0.002,0.003,0.002,0.806,20,18,04*59
$GTIMU,2292,524586.600,-0.0485,0.0275,-0.0076,-0.0188,-0.0053,0.9994,16.9*67
09:42::48.601,1702662186582,120.62740895,31.42736608,3478528.04704899,559651.88559979,114.81400000,6.00000000,0.00200000,0.00300000,0.00200000,-0.04850000,0.02750000,-0.00760000,-0.01880000,-0.00530000,0.99940000
$GPFPD,2292,524586.700,114.813,-0.479,1.185,31.42736611,120.62740895,16.987,0.000,0.005,0.001,0.807,20,18,04*52
$GTIMU,2292,524586.700,-0.0100,-0.0578,0.0122,-0.0216,-0.0107,0.9989,16.9*6C
09:42::48.701,1702662186682,120.62740895,31.42736611,3478528.05037539,559651.88558079,114.81300000,6.00000000,0.00000000,0.00500000,0.00100000,-0.01000000,-0.05780000,0.01220000,-0.02160000,-0.01070000,0.99890000
$GPFPD,2292,524586.800,114.813,-0.484,1.187,31.42736613,120.62740895,16.991,-0.000,0.004,0.003,0.807,20,18,04*76
$GTIMU,2292,524586.800,-0.0513,0.0161,-0.0071,-0.0186,-0.0081,1.0017,16.9*6D
09:42::48.801,1702662186782,120.62740895,31.42736613,3478528.05259298,559651.88556813,114.81300000,6.00000000,0.00000000,0.00400000,0.00300000,-0.05130000,0.01610000,-0.00710000,-0.01860000,-0.00810000,1.00170000
$GPFPD,2292,524586.900,114.814,-0.488,1.186,31.42736613,120.62740895,16.992,0.001,0.004,0.002,0.811,20,18,04*54
$GTIMU,2292,524586.900,-0.0468,-0.0055,-0.0037,-0.0212,-0.0070,0.9982,16.9*45
09:42::48.901,1702662186882,120.62740895,31.42736613,3478528.05259298,559651.88556813,114.81400000,6.00000000,0.00100000,0.00400000,0.00200000,-0.04680000,-0.00550000,-0.00370000,-0.02120000,-0.00700000,0.99820000
$GPFPD,2292,524587.000,114.814,-0.492,1.185,31.42736614,120.62740895,16.992,0.002,0.003,0.001,0.811,20,18,04*54
$GTIMU,2292,524587.000,-0.0446,-0.0191,0.0009,-0.0197,-0.0075,0.9991,16.9*61
09:42::49.001,1702662186982,120.62740895,31.42736614,3478528.05370178,559651.88556180,114.81400000,6.00000000,0.00200000,0.00300000,0.00100000,-0.04460000,-0.01910000,0.00090000,-0.01970000,-0.00750000,0.99910000
$GPGGA,014249.00,3125.6418669,N,12037.6452123,E,1,18,1.1,10.339,M,7.80,M,,*5D
$GPFPD,2292,524587.100,114.814,-0.495,1.186,31.42736614,120.62740896,16.992,0.002,0.002,0.001,0.811,20,18,04*53
$GTIMU,2292,524587.100,-0.0241,0.0099,0.0020,-0.0194,-0.0074,0.9988,16.9*44
09:42::49.101,1702662187082,120.62740896,31.42736614,3478528.05370721,559651.88651258,114.81400000,6.00000000,0.00200000,0.00200000,0.00100000,-0.02410000,0.00990000,0.00200000,-0.01940000,-0.00740000,0.99880000
$GPFPD,2292,524587.200,114.814,-0.496,1.186,31.42736614,120.62740896,16.992,0.002,0.003,0.001,0.805,20,18,04*57
$GTIMU,2292,524587.200,-0.0224,-0.0038,0.0008,-0.0208,-0.0089,0.9999,16.9*6C
09:42::49.201,1702662187182,120.62740896,31.42736614,3478528.05370721,559651.88651258,114.81400000,6.00000000,0.00200000,0.00300000,0.00100000,-0.02240000,-0.00380000,0.00080000,-0.02080000,-0.00890000,0.99990000
$GPFPD,2292,524587.300,114.813,-0.497,1.185,31.42736613,120.62740896,16.991,0.002,-0.001,-0.003,0.809,20,18,04*5B
$GTIMU,2292,524587.300,-0.0059,-0.0095,0.0071,-0.0202,-0.0088,0.9989,16.9*66
09:42::49.301,1702662187282,120.62740896,31.42736613,3478528.05259841,559651.88651891,114.81300000,6.00000000,0.00200000,-0.00100000,-0.00300000,-0.00590000,-0.00950000,0.00710000,-0.02020000,-0.00880000,0.99890000
$GPFPD,2292,524587.400,114.813,-0.498,1.188,31.42736606,120.62740898,16.987,0.002,-0.003,-0.003,0.809,20,18,04*51
$GTIMU,2292,524587.400,-0.0127,0.0286,-0.0015,-0.0185,-0.0074,0.9999,16.9*65
09:42::49.401,1702662187382,120.62740898,31.42736606,3478528.04484768,559651.88846480,114.81300000,6.00000000,0.00200000,-0.00300000,-0.00300000,-0.01270000,0.02860000,-0.00150000,-0.01850000,-0.00740000,0.99990000
$GPFPD,2292,524587.500,114.813,-0.500,1.186,31.42736600,120.62740900,16.983,0.003,-0.000,-0.003,0.805,20,18,04*52
$GTIMU,2292,524587.500,-0.0218,-0.0191,0.0071,-0.0225,-0.0085,0.9995,16.9*67
09:42::49.501,1702662187482,120.62740900,31.42736600,3478528.03820574,559651.89040435,114.81300000,6.00000000,0.00300000,0.00000000,-0.00300000,-0.02180000,-0.01910000,0.00710000,-0.02250000,-0.00850000,0.99950000
$GPFPD,2292,524587.600,114.813,-0.499,1.191,31.42736593,120.62740902,16.978,0.002,-0.002,-0.003,0.805,20,18,04*5A
$GTIMU,2292,524587.600,-0.0007,0.0434,-0.0032,-0.0182,-0.0086,0.9994,16.9*69
09:42::49.601,1702662187582,120.62740902,31.42736593,3478528.03045501,559651.89235024,114.81300000,6.00000000,0.00200000,-0.00200000,-0.00300000,-0.00070000,0.04340000,-0.00320000,-0.01820000,-0.00860000,0.99940000
$GPFPD,2292,524587.700,114.812,-0.500,1.186,31.42736587,120.62740905,16.974,0.003,0.000,-0.003,0.808,20,18,04*70
$GTIMU,2292,524587.700,-0.0134,-0.0476,0.0105,-0.0225,-0.0090,0.9996,16.9*61
09:42::49.701,1702662187682,120.62740905,31.42736587,3478528.02381850,559651.89524057,114.81200000,6.00000000,0.00300000,0.00000000,-0.00300000,-0.01340000,-0.04760000,0.01050000,-0.02250000,-0.00900000,0.99960000
$GPFPD,2292,524587.800,114.813,-0.502,1.191,31.42736582,120.62740906,16.971,0.002,-0.002,-0.003,0.808,20,18,04*57
$GTIMU,2292,524587.800,-0.0138,0.0462,-0.0026,-0.0176,-0.0076,0.9991,16.9*6D
09:42::49.801,1702662187782,120.62740906,31.42736582,3478528.01827993,559651.89622301,114.81300000,6.00000000,0.00200000,-0.00200000,-0.00300000,-0.01380000,0.04620000,-0.00260000,-0.01760000,-0.00760000,0.99910000
$GPFPD,2292,524587.900,114.813,-0.502,1.190,31.42736582,120.62740906,16.971,0.003,-0.002,-0.003,0.810,20,18,04*5F
$GTIMU,2292,524587.900,-0.0076,-0.0100,0.0037,-0.0215,-0.0077,1.0002,16.9*6A
09:42::49.901,1702662187882,120.62740906,31.42736582,3478528.01827993,559651.89622301,114.81300000,6.00000000,0.00300000,-0.00200000,-0.00300000,-0.00760000,-0.01000000,0.00370000,-0.02150000,-0.00770000,1.00020000
$GPFPD,2292,524588.000,114.812,-0.502,1.187,31.42736582,120.62740907,16.970,0.003,-0.001,-0.004,0.810,20,18,04*5A
$GTIMU,2292,524588.000,-0.0048,-0.0283,0.0077,-0.0209,-0.0087,0.9986,16.9*62
09:42::50.001,1702662187982,120.62740907,31.42736582,3478528.01828536,559651.89717379,114.81200000,6.00000000,0.00300000,-0.00100000,-0.00400000,-0.00480000,-0.02830000,0.00770000,-0.02090000,-0.00870000,0.99860000
$GPGGA,014250.00,3125.6418788,N,12037.6452238,E,1,18,1.1,10.344,M,7.80,M,,*58
$GPFPD,2292,524588.100,114.813,-0.503,1.192,31.42736582,120.62740907,16.970,0.003,-0.002,-0.003,0.810,20,18,04*5B
$GTIMU,2292,524588.100,-0.0144,0.0457,-0.0071,-0.0188,-0.0085,0.9999,16.9*61
09:42::50.101,1702662188082,120.62740907,31.42736582,3478528.01828536,559651.89717379,114.81300000,6.00000000,0.00300000,-0.00200000,-0.00300000,-0.01440000,0.04570000,-0.00710000,-0.01880000,-0.00850000,0.99990000
$GPFPD,2292,524588.200,114.813,-0.501,1.187,31.42736581,120.62740907,16.970,0.001,0.001,-0.003,0.811,20,18,04*70
$GTIMU,2292,524588.200,0.0144,-0.0487,0.0070,-0.0221,-0.0105,1.0001,16.9*4A
09:42::50.201,1702662188182,120.62740907,31.42736581,3478528.01717656,559651.89718013,114.81300000,6.00000000,0.00100000,0.00100000,-0.00300000,0.01440000,-0.04870000,0.00700000,-0.02210000,-0.01050000,1.00010000
$GPFPD,2292,524588.300,114.813,-0.502,1.188,31.42736582,120.62740908,16.969,0.003,0.001,-0.006,0.806,20,18,04*78
$GTIMU,2292,524588.300,-0.0076,0.0076,-0.0015,-0.0190,-0.0066,0.9978,16.9*6D
09:42::50.301,1702662188282,120.62740908,31.42736582,3478528.01829079,559651.89812458,114.81300000,6.00000000,0.00300000,0.00100000,-0.00600000,-0.00760000,0.00760000,-0.00150000,-0.01900000,-0.00660000,0.99780000
$GPFPD,2292,524588.400,114.813,-0.503,1.190,31.42736584,120.62740910,16.968,0.004,-0.000,-0.004,0.806,20,18,04*50
$GTIMU,2292,524588.400,-0.0127,0.0155,-0.0032,-0.0196,-0.0076,1.0016,16.9*64
09:42::50.401,1702662188382,120.62740910,31.42736584,3478528.02051925,559651.90001348,114.81300000,6.00000000,0.00400000,0.00000000,-0.00400000,-0.01270000,0.01550000,-0.00320000,-0.01960000,-0.00760000,1.00160000
$GPFPD,2292,524588.500,114.813,-0.502,1.185,31.42736586,120.62740911,16.967,0.004,0.002,-0.005,0.809,20,18,04*79
$GTIMU,2292,524588.500,0.0031,-0.0550,0.0093,-0.0221,-0.0088,0.9981,16.9*45
09:42::50.501,1702662188482,120.62740911,31.42736586,3478528.02274227,559651.90095160,114.81300000,6.00000000,0.00400000,0.00200000,-0.00500000,0.00310000,-0.05500000,0.00930000,-0.02210000,-0.00880000,0.99810000
$GPFPD,2292,524588.600,114.813,-0.504,1.190,31.42736588,120.62740913,16.966,0.003,-0.001,-0.006,0.809,20,18,04*5F
$GTIMU,2292,524588.600,-0.0195,0.0514,-0.0026,-0.0173,-0.0079,0.9988,16.9*69
09:42::50.601,1702662188582,120.62740913,31.42736588,3478528.02497073,559651.90284051,114.81300000,6.00000000,0.00300000,-0.00100000,-0.00600000,-0.01950000,0.05140000,-0.00260000,-0.01730000,-0.00790000,0.99880000
$GPFPD,2292,524588.700,114.812,-0.502,1.187,31.42736590,120.62740915,16.965,0.003,0.001,-0.004,0.804,20,18,04*71
$GTIMU,2292,524588.700,0.0145,-0.0300,0.0110,-0.0224,-0.0100,1.0019,16.9*48
09:42::50.701,1702662188682,120.62740915,31.42736590,3478528.02719919,559651.90472941,114.81200000,6.00000000,0.00300000,0.00100000,-0.00400000,0.01450000,-0.03000000,0.01100000,-0.02240000,-0.01000000,1.00190000
$GPFPD,2292,524588.800,114.812,-0.505,1.188,31.42736592,120.62740916,16.964,0.003,0.000,-0.006,0.804,20,18,04*75
$GTIMU,2292,524588.800,-0.0303,0.0093,0.0020,-0.0192,-0.0076,0.9976,16.9*4A
09:42::50.801,1702662188782,120.62740916,31.42736592,3478528.02942221,559651.90566753,114.81200000,6.00000000,0.00300000,0.00000000,-0.00600000,-0.03030000,0.00930000,0.00200000,-0.01920000,-0.00760000,0.99760000
$GPFPD,2292,524588.900,114.813,-0.503,1.187,31.42736592,120.62740916,16.964,0.002,0.001,-0.005,0.806,20,18,04*7D
$GTIMU,2292,524588.900,0.0105,-0.0089,-0.0026,-0.0203,-0.0093,1.0004,16.9*6B
09:42::50.901,1702662188882,120.62740916,31.42736592,3478528.02942221,559651.90566753,114.81300000,6.00000000,0.00200000,0.00100000,-0.00500000,0.01050000,-0.00890000,-0.00260000,-0.02030000,-0.00930000,1.00040000
$GPFPD,2292,524589.000,114.812,-0.504,1.187,31.42736592,120.62740917,16.963,0.004,-0.000,-0.005,0.806,20,18,04*5F
$GTIMU,2292,524589.000,-0.0133,-0.0072,0.0031,-0.0200,-0.0065,0.9988,16.9*6B
09:42::51.001,1702662188982,120.62740917,31.42736592,3478528.02942764,559651.90661831,114.81200000,6.00000000,0.00400000,0.00000000,-0.00500000,-0.01330000,-0.00720000,0.00310000,-0.02000000,-0.00650000,0.99880000
$GPFPD,2292,524589$GPGGA,0.100,114.14251.00812,-0.50,3125.6416,1.190,38720,N,121.4273659037.645222,120.62729,E,1,18,1.1,1040917,16..339,M,7963,0.004.80,M,,*,-0.000,-51
0.005,0.806,20,18,04*5A
$GTIMU,2292,524589.100,-0.0200,0.0315,0.0066,-0.0200,-0.0089,0.9996,16.9*49
09:42::51.101,1702662189082,120.62740917,31.42736592,3478528.02942764,559651.90661831,114.81200000,6.00000000,0.00400000,0.00000000,-0.00500000,-0.02000000,0.03150000,0.00660000,-0.02000000,-0.00890000,0.99960000
$GPFPD,2292,524589.200,114.812,-0.505,1.185,31.42736592,120.62740917,16.962,0.003,0.002,-0.006,0.805,20,18,04*77
$GTIMU,2292,524589.200,0.0116,-0.0555,-0.0021,-0.0216,-0.0098,0.9990,16.9*63
09:42::51.201,1702662189182,120.62740917,31.42736592,3478528.02942764,559651.90661831,114.81200000,6.00000000,0.00300000,0.00200000,-0.00600000,0.01160000,-0.05550000,-0.00210000,-0.02160000,-0.00980000,0.99900000
$GPFPD,2292,524589.300,114.812,-0.505,1.187,31.42736590,120.62740918,16.961,0.002,-0.004,-0.007,0.805,20,18,04*51
$GTIMU,2292,524589.300,-0.0013,0.0195,0.0031,-0.0182,-0.0083,0.9999,16.9*4F
09:42::51.301,1702662189282,120.62740918,31.42736590,3478528.02721547,559651.90758176,114.81200000,6.00000000,0.00200000,-0.00400000,-0.00700000,-0.00130000,0.01950000,0.00310000,-0.01820000,-0.00830000,0.99990000
$GPFPD,2292,524589.400,114.811,-0.504,1.184,31.42736584,120.62740918,16.960,0.003,-0.003,-0.007,0.805,20,18,04*55
$GTIMU,2292,524589.400,0.0031,-0.0294,0.0099,-0.0211,-0.0086,0.9999,16.9*44
09:42::51.401,1702662189382,120.62740918,31.42736584,3478528.02056268,559651.90761975,114.81100000,6.00000000,0.00300000,-0.00300000,-0.00700000,0.00310000,-0.02940000,0.00990000,-0.02110000,-0.00860000,0.99990000
$GPFPD,2292,524589.500,114.812,-0.504,1.192,31.42736577,120.62740919,16.959,0.003,-0.006,-0.007,0.808,20,18,04*5F
$GTIMU,2292,524589.500,-0.0086,0.0735,-0.0083,-0.0178,-0.0073,0.9992,16.9*6C
09:42::51.501,1702662189482,120.62740919,31.42736577,3478528.01280652,559651.90861485,114.81200000,6.00000000,0.00300000,-0.00600000,-0.00700000,-0.00860000,0.07350000,-0.00830000,-0.01780000,-0.00730000,0.99920000
$GPFPD,2292,524589.600,114.810,-0.504,1.189,31.42736571,120.62740919,16.957,0.003,-0.003,-0.007,0.808,20,18,04*59
$GTIMU,2292,524589.600,0.0003,-0.0254,0.0253,-0.0230,-0.0088,0.9998,16.9*43
09:42::51.601,1702662189582,120.62740919,31.42736571,3478528.00615372,559651.90865283,114.81000000,6.00000000,0.00300000,-0.00300000,-0.00700000,0.00030000,-0.02540000,0.02530000,-0.02300000,-0.00880000,0.99980000
$GPFPD,2292,524589.700,114.811,-0.505,1.193,31.42736564,120.62740920,16.956,0.003,-0.004,-0.007,0.807,20,18,04*54
$GTIMU,2292,524589.700,-0.0098,0.0400,-0.0106,-0.0190,-0.0085,0.9991,16.9*64
09:42::51.701,1702662189682,120.62740920,31.42736564,3478527.99839756,559651.90964794,114.81100000,6.00000000,0.00300000,-0.00400000,-0.00700000,-0.00980000,0.04000000,-0.01060000,-0.01900000,-0.00850000,0.99910000
$GPFPD,2292,524589.800,114.811,-0.504,1.188,31.42736559,120.62740921,16.955,0.003,-0.003,-0.007,0.807,20,18,04*5B
$GTIMU,2292,524589.800,0.0071,-0.0516,0.0076,-0.0216,-0.0087,0.9995,16.9*4A
09:42::51.801,1702662189782,120.62740921,31.42736559,3478527.99285899,559651.91063037,114.81100000,6.00000000,0.00300000,-0.00300000,-0.00700000,0.00710000,-0.05160000,0.00760000,-0.02160000,-0.00870000,0.99950000
$GPFPD,2292,524589.900,114.811,-0.505,1.193,31.42736559,120.62740921,16.954,0.003,-0.005,-0.007,0.805,20,18,04*54
$GTIMU,2292,524589.900,-0.0160,0.0445,0.0008,-0.0181,-0.0079,1.0000,16.9*45
09:42::51.901,1702662189882,120.62740921,31.42736559,3478527.99285899,559651.91063037,114.81100000,6.00000000,0.00300000,-0.00500000,-0.00700000,-0.01600000,0.04450000,0.00080000,-0.01810000,-0.00790000,1.00000000
$GPFPD,2292,524590.000,114.810,-0.504,1.190,31.42736559,120.62740921,16.953,0.003,-0.003,-0.007,0.805,20,18,04*57
$GTIMU,2292,524590.000,0.0026,-0.0305,0.0054,-0.0224,-0.0096,0.9990,16.9*48
09:42::52.001,1702662189982,120.62740921,31.42736559,3478527.99285899,559651.91063037,114.81000000,6.00000000,0.00300000,-0.00300000,-0.00700000,0.00260000,-0.03050000,0.00540000,-0.02240000,-0.00960000,0.99900000
$GPGGA,014252.00,3125.6418871,N,12037.6452330,E,1,18,1.1,10.374,M,7.80,M,,*59
$GPFPD,2292,524590.100,114.811,-0.505,1.196,31.42736558,120.62740921,16.953,0.003,-0.005,-0.007,0.805,20,18,04*57
$GTIMU,2292,524590.100,-0.0121,0.0559,-0.0043,-0.0180,-0.0070,0.9997,16.9*69
09:42::52.101,1702662190082,120.62740921,31.42736558,3478527.99175019,559651.91063671,114.81100000,6.00000000,0.00300000,-0.00500000,-0.00700000,-0.01210000,0.05590000,-0.00430000,-0.01800000,-0.00700000,0.99970000
$GPFPD,2292,524590.200,114.810,-0.505,1.190,31.42736558,120.62740922,16.952,0.004,-0.003,-0.006,0.806,20,18,04*52
$GTIMU,2292,524590.200,-0.0043,-0.0578,0.0088,-0.0233,-0.0090,1.0004,16.9*65
09:42::52.201,1702662190182,120.62740922,31.42736558,3478527.99175562,559651.91158749,114.81000000,6.00000000,0.00400000,-0.00300000,-0.00600000,-0.00430000,-0.05780000,0.00880000,-0.02330000,-0.00900000,1.00040000
$GPFPD,2292,524590.300,114.811,-0.507,1.195,31.42736558,120.62740921,16.951,-0.000,-0.003,-0.010,0.807,20,18,04*7A
$GTIMU,2292,524590.300,-0.0183,0.0446,-0.0083,-0.0175,-0.0085,0.9983,16.9*65
09:42::52.301,1702662190282,120.62740921,31.42736558,3478527.99175019,559651.91063671,114.81100000,6.00000000,0.00000000,-0.00300000,-0.01000000,-0.01830000,0.04460000,-0.00830000,-0.01750000,-0.00850000,0.99830000
$GPFPD,2292,524590.400,114.810,-0.505,1.190,31.42736560,120.62740918,16.947,-0.000,-0.001,-0.009,0.807,20,18,04*77
$GTIMU,2292,524590.400,0.0088,-0.0521,0.0076,-0.0227,-0.0097,1.0004,16.9*46
09:42::52.401,1702662190382,120.62740918,31.42736560,3478527.99395150,559651.90777169,114.81000000,6.00000000,0.00000000,-0.00100000,-0.00900000,0.00880000,-0.05210000,0.00760000,-0.02270000,-0.00970000,1.00040000
$GPFPD,2292,524590.500,114.811,-0.507,1.193,31.42736562,120.62740914,16.944,0.001,-0.004,-0.010,0.805,20,18,04*58
$GTIMU,2292,524590.500,-0.0201,0.0343,-0.0071,-0.0174,-0.0061,0.9988,16.9*65
09:42::52.501,1702662190482,120.62740914,31.42736562,3478527.99614739,559651.90395590,114.81100000,6.00000000,0.00100000,-0.00400000,-0.01000000,-0.02010000,0.03430000,-0.00710000,-0.01740000,-0.00610000,0.99880000
$GPFPD,2292,524590.600,114.811,-0.508,1.190,31.42736564,120.62740911,16.941,0.001,-0.001,-0.009,0.805,20,18,04*5C
$GTIMU,2292,524590.600,-0.0071,-0.0305,0.0082,-0.0228,-0.0094,1.0002,16.9*6E
09:42::52.601,1702662190582,120.62740911,31.42736564,3478527.99834870,559651.90109089,114.81100000,6.00000000,0.00100000,-0.00100000,-0.00900000,-0.00710000,-0.03050000,0.00820000,-0.02280000,-0.00940000,1.00020000
$GPFPD,2292,524590.700,114.811,-0.508,1.193,31.42736566,120.62740907,16.938,0.000,-0.003,-0.011,0.801,20,18,04*5B
$GTIMU,2292,524590.700,-0.0042,0.0252,-0.0066,-0.0182,-0.0082,0.9983,16.9*6A
09:42::52.701,1702662190682,120.62740907,31.42736566,3478528.00054458,559651.89727509,114.81100000,6.00000000,0.00000000,-0.00300000,-0.01100000,-0.00420000,0.02520000,-0.00660000,-0.01820000,-0.00820000,0.99830000
$GPFPD,2292,524590.800,114.811,-0.506,1.188,31.42736567,120.62740904,16.935,-0.000,-0.001,-0.009,0.801,20,18,04*79
$GTIMU,2292,524590.800,0.0150,-0.0493,0.0088,-0.0224,-0.0103,1.0006,16.9*4A
09:42::52.801,1702662190782,120.62740904,31.42736567,3478528.00163709,559651.89441641,114.81100000,6.00000000,0.00000000,-0.00100000,-0.00900000,0.01500000,-0.04930000,0.00880000,-0.02240000,-0.01030000,1.00060000
$GPFPD,2292,524590.900,114.811,-0.507,1.188,31.42736567,120.62740904,16.934,0.000,-0.003,-0.010,0.808,20,18,04*56
$GTIMU,2292,524590.900,-0.0127,-0.0021,-0.0026,-0.0183,-0.0067,0.9989,16.9*49
09:42::52.901,1702662190882,120.62740904,31.42736567,3478528.00163709,559651.89441641,114.81100000,6.00000000,0.00000000,-0.00300000,-0.01000000,-0.01270000,-0.00210000,-0.00260000,-0.01830000,-0.00670000,0.99890000
$GPFPD,2292,524591.000,114.811,-0.506,1.187,31.42736567,120.62740904,16.933,0.000,-0.002,-0.010,0.808,20,18,04*56
$GTIMU,2292,524591.000,0.0060,-0.0123,0.0048,-0.0208,-0.0087,0.9994,16.9*4A
09:42::53.001,1702662190982,120.62740904,31.42736567,3478528.00163709,559651.89441641,114.81100000,6.00000000,0.00000000,-0.00200000,-0.01000000,0.00600000,-0.01230000,0.00480000,-0.02080000,-0.00870000,0.99940000
$GPGGA,014253.00,3125.6418837,N,12037.6452341,E,1,18,1.1,10.388,M,7.80,M,,*5F
$GPFPD,2292,524591.100,114.811,-0.506,1.190,31.42736567,120.62740904,16.932,0.001,-0.004,-0.011,0.808,20,18,04*56
$GTIMU,2292,524591.100,-0.0076,0.0246,0.0025,-0.0188,-0.0076,0.9993,16.9*45
09:42::53.101,1702662191082,120.62740904,31.42736567,3478528.00163709,559651.89441641,114.81100000,6.00000000,0.00100000,-0.00400000,-0.01100000,-0.00760000,0.02460000,0.00250000,-0.01880000,-0.00760000,0.99930000
$GPFPD,2292,524591.200,114.811,-0.506,1.190,31.42736566,120.62740904,16.931,0.000,-0.002,-0.010,0.808,20,18,04*51
$GTIMU,2292,524591.200,0.0015,-0.0038,0.0036,-0.0218,-0.0098,1.0000,16.9*4B
09:42::53.201,1702662191182,120.62740904,31.42736566,3478528.00052829,559651.89442274,114.81100000,6.00000000,0.00000000,-0.00200000,-0.01000000,0.00150000,-0.00380000,0.00360000,-0.02180000,-0.00980000,1.00000000
$GPFPD,2292,524591.300,114.810,-0.505,1.188,31.42736567,120.62740904,16.931,-0.001,0.000,-0.009,0.806,20,18,04*5F
$GTIMU,2292,524591.300,-0.0003,-0.0186,0.0037,-0.0194,-0.0091,0.9995,16.9*66
09:42::53.301,1702662191282,120.62740904,31.42736567,3478528.00163709,559651.89441641,114.81000000,6.00000000,-0.00100000,0.00000000,-0.00900000,-0.00030000,-0.01860000,0.00370000,-0.01940000,-0.00910000,0.99950000
$GPFPD,2292,524591.400,114.810,-0.506,1.191,31.42736570,120.62740904,16.933,-0.001,-0.001,-0.009,0.806,20,18,04*7B
$GTIMU,2292,524591.400,-0.0053,0.0275,0.0042,-0.0198,-0.0075,0.9995,16.9*42
09:42::53.401,1702662191382,120.62740904,31.42736570,3478528.00496349,559651.89439742,114.81000000,6.00000000,-0.00100000,-0.00100000,-0.00900000,-0.00530000,0.02750000,0.00420000,-0.01980000,-0.00750000,0.99950000
$GPFPD,2292,524591.500,114.811,-0.507,1.190,31.42736573,120.62740903,16.935,0.000,-0.000,-0.010,0.807,20,18,04*5D
$GTIMU,2292,524591.500,-0.0162,-0.0100,-0.0037,-0.0211,-0.0075,0.9994,16.9*40
09:42::53.501,1702662191482,120.62740903,31.42736573,3478528.00828446,559651.89342764,114.81100000,6.00000000,0.00000000,0.00000000,-0.01000000,-0.01620000,-0.01000000,-0.00370000,-0.02110000,-0.00750000,0.99940000
$GPFPD,2292,524591.600,114.810,-0.507,1.190,31.42736575,120.62740902,16.938,-0.000,-0.000,-0.009,0.807,20,18,04*70
$GTIMU,2292,524591.600,-0.0025,-0.0004,0.0054,-0.0199,-0.0092,0.9999,16.9*6B
09:42::53.601,1702662191582,120.62740902,31.42736575,3478528.01049663,559651.89246420,114.81000000,6.00000000,0.00000000,0.00000000,-0.00900000,-0.00250000,-0.00040000,0.00540000,-0.01990000,-0.00920000,0.99990000
$GPFPD,2292,524591.700,114.810,-0.507,1.189,31.42736578,120.62740902,16.940,-0.002,0.000,-0.009,0.806,20,18,04*55
$GTIMU,2292,524591.700,-0.0076,-0.0152,0.0048,-0.0200,-0.0097,0.9994,16.9*68
09:42::53.701,1702662191682,120.62740902,31.42736578,3478528.01382302,559651.89244520,114.81000000,6.00000000,-0.00200000,0.00000000,-0.00900000,-0.00760000,-0.01520000,0.00480000,-0.02000000,-0.00970000,0.99940000
$GPFPD,2292,524591.800,114.811,-0.507,1.191,31.42736580,120.62740901,16.941,-0.001,-0.001,-0.010,0.806,20,18,04*70
$GTIMU,2292,524591.800,-0.0053,0.0246,-0.0055,-0.0198,-0.0077,0.9991,16.9*63
09:42::53.801,1702662191782,120.62740901,31.42736580,3478528.01603519,559651.89148176,114.81100000,6.00000000,-0.00100000,-0.00100000,-0.01000000,-0.00530000,0.02460000,-0.00550000,-0.01980000,-0.00770000,0.99910000
$GPFPD,2292,524591.900,114.810,-0.508,1.188,31.42736580,120.62740901,16.940,0.000,0.000,-0.010,0.807,20,18,04*77
$GTIMU,2292,524591.900,-0.0037,-0.0351,0.0105,-0.0217,-0.0076,0.9992,16.9*65
09:42::53.901,1702662191882,120.62740901,31.42736580,3478528.01603519,559651.89148176,114.81000000,6.00000000,0.00000000,0.00000000,-0.01000000,-0.00370000,-0.03510000,0.01050000,-0.02170000,-0.00760000,0.99920000
$GPFPD,2292,524592.000,114.810,-0.509,1.191,31.42736580,120.62740901,16.939,0.000,-0.002,-0.009,0.807,20,18,04*5D
$GTIMU,2292,524592.000,-0.0178,0.0309,-0.0031,-0.0184,-0.0080,1.0001,16.9*65
09:42::54.001,1702662191982,120.62740901,31.42736580,3478528.01603519,559651.89148176,114.81000000,6.00000000,0.00000000,-0.00200000,-0.00900000,-0.01780000,0.03090000,-0.00310000,-0.01840000,-0.00800000,1.00010000
$GPGGA,014254.00,3125.6418873,N,12037.6452325,E,1,18,1.1,10.359,M,7.80,M,,*56
$GPFPD,2292,524592.100,114.810,-0.509,1.187,31.42736580,120.62740901,16.939,-0.001,0.000,-0.010,0.807,20,18,04*50
$GTIMU,2292,524592.100,-0.0037,-0.0419,0.0088,-0.0213,-0.0105,0.9993,16.9*61
09:42::54.101,1702662192082,120.62740901,31.42736580,3478528.01603519,559651.89148176,114.81000000,6.00000000,-0.00100000,0.00000000,-0.01000000,-0.00370000,-0.04190000,0.00880000,-0.02130000,-0.01050000,0.99930000
$GPFPD,2292,524592.200,114.810,-0.510,1.194,31.42736580,120.62740901,16.938,-0.002,-0.001,-0.010,0.809,20,18,04*79
$GTIMU,2292,524592.200,-0.0103,0.0644,-0.0009,-0.0184,-0.0084,0.9995,16.9*64
09:42::54.201,1702662192182,120.62740901,31.42736580,3478528.01603519,559651.89148176,114.81000000,6.00000000,-0.00200000,-0.00100000,-0.01000000,-0.01030000,0.06440000,-0.00090000,-0.01840000,-0.00840000,0.99950000
$GPFPD,2292,524592.300,114.809,-0.509,1.189,31.42736581,120.62740901,16.937,0.000,0.004,-0.008,0.808,20,18,04*75
$GTIMU,2292,524592.300,0.0082,-0.0487,0.0076,-0.0232,-0.0081,1.0003,16.9*40
09:42::54.301,1702662192282,120.62740901,31.42736581,3478528.01714399,559651.89147543,114.80900000,6.00000000,0.00000000,0.00400000,-0.00800000,0.00820000,-0.04870000,0.00760000,-0.02320000,-0.00810000,1.00030000
$GPFPD,2292,524592.400,114.810,-0.510,1.194,31.42736584,120.62740903,16.939,0.000,0.000,-0.009,0.808,20,18,04*72
$GTIMU,2292,524592.400,-0.0206,0.0485,-0.0037,-0.0169,-0.0069,0.9985,16.9*67
09:42::54.401,1702662192382,120.62740903,31.42736584,3478528.02048125,559651.89335800,114.81000000,6.00000000,0.00000000,0.00000000,-0.00900000,-0.02060000,0.04850000,-0.00370000,-0.01690000,-0.00690000,0.99850000
$GPFPD,2292,524592.500,114.809,-0.509,1.190,31.42736588,120.62740905,16.941,0.000,0.003,-0.009,0.805,20,18,04*7C
$GTIMU,2292,524592.500,0.0054,-0.0430,0.0116,-0.0232,-0.0101,1.0002,16.9*4E
09:42::54.501,1702662192482,120.62740905,31.42736588,3478528.02492730,559651.89523424,114.80900000,6.00000000,0.00000000,0.00300000,-0.00900000,0.00540000,-0.04300000,0.01160000,-0.02320000,-0.01010000,1.00020000
$GPFPD,2292,524592.600,114.810,-0.509,1.195,31.42736591,120.62740907,16.943,-0.000,0.001,-0.009,0.805,20,18,04*55
$GTIMU,2292,524592.600,-0.0030,0.0508,-0.0072,-0.0177,-0.0080,0.9989,16.9*63
09:42::54.601,1702662192582,120.62740907,31.42736591,3478528.02826455,559651.89711681,114.81000000,6.00000000,0.00000000,0.00100000,-0.00900000,-0.00300000,0.05080000,-0.00720000,-0.01770000,-0.00800000,0.99890000
$GPFPD,2292,524592.700,114.808,-0.509,1.190,31.42736594,120.62740909,16.945,0.000,0.003,-0.009,0.805,20,18,04*7A
$GTIMU,2292,524592.700,-0.0003,-0.0470,0.0151,-0.0226,-0.0089,1.0000,16.9*62
09:42::54.701,1702662192682,120.62740909,31.42736594,3478528.03160181,559651.89899939,114.80800000,6.00000000,0.00000000,0.00300000,-0.00900000,-0.00030000,-0.04700000,0.01510000,-0.02260000,-0.00890000,1.00000000
$GPFPD,2292,524592.800,114.809,-0.510,1.196,31.42736597,120.62740910,16.946,-0.000,0.000,-0.010,0.805,20,18,04*54
$GTIMU,2292,524592.800,-0.0121,0.0542,-0.0072,-0.0176,-0.0077,0.9986,16.9*64
09:42::54.801,1702662192782,120.62740910,31.42736597,3478528.03493363,559651.89993118,114.80900000,6.00000000,0.00000000,0.00000000,-0.01000000,-0.01210000,0.05420000,-0.00720000,-0.01760000,-0.00770000,0.99860000
$GPFPD,2292,524592.900,114.808,-0.508,1.192,31.42736597,120.62740910,16.945,0.000,0.004,-0.009,0.803,20,18,04*7D
$GTIMU,2292,524592.900,0.0133,-0.0385,0.0127,-0.0233,-0.0096,1.0003,16.9*46
09:42::54.901,1702662192882,120.62740910,31.42736597,3478528.03493363,559651.89993118,114.80800000,6.00000000,0.00000000,0.00400000,-0.00900000,0.01330000,-0.03850000,0.01270000,-0.02330000,-0.00960000,1.00030000
$GPFPD,2292,524593.000,114.809,-0.510,1.195,31.42736597,120.62740910,16.945,0.000,0.001,-0.009,0.803,20,18,04*7F
$GTIMU,2292,524593.000,-0.0161,0.0315,-0.0032,-0.0177,-0.0074,0.9994,16.9*68
09:42::55.001,1702662192982,120.62740910,31.42736597,3478528.03493363,559651.89993118,114.80900000,6.00000000,0.00000000,0.00100000,-0.00900000,-0.01610000,0.03150000,-0.00320000,-0.01770000,-0.00740000,0.99940000
$GPFPD,2292,524593$GPGGA,01.100,114.4255.00,3808,-0.50125.641889,1.191,315,N,12031.42736597.64523297,120.627,E,1,18,140910,16..1,10.387944,-0.00,M,7.80,M0,0.004,-,,*58
0.009,0.803,20,18,04*5A
$GTIMU,2292,524593.100,0.0065,-0.0453,0.0065,-0.0228,-0.0099,0.9992,16.9*4A
09:42::55.101,1702662193082,120.62740910,31.42736597,3478528.03493363,559651.89993118,114.80800000,6.00000000,0.00000000,0.00400000,-0.00900000,0.00650000,-0.04530000,0.00650000,-0.02280000,-0.00990000,0.99920000
$GPFPD,2292,524593.200,114.809,-0.508,1.196,31.42736597,120.62740910,16.943,-0.001,0.001,-0.010,0.805,20,18,04*53
$GTIMU,2292,524593.200,0.0044,0.0474,-0.0072,-0.0174,-0.0079,0.9988,16.9*46
09:42::55.201,1702662193182,120.62740910,31.42736597,3478528.03493363,559651.89993118,114.80900000,6.00000000,-0.00100000,0.00100000,-0.01000000,0.00440000,0.04740000,-0.00720000,-0.01740000,-0.00790000,0.99880000
$GPFPD,2292,524593.300,114.808,-0.508,1.191,31.42736598,120.62740911,16.943,0.002,0.005,-0.006,0.804,20,18,04*76
$GTIMU,2292,524593.300,-0.0014,-0.0516,0.0116,-0.0238,-0.0078,1.0014,16.9*67
09:42::55.301,1702662193282,120.62740911,31.42736598,3478528.03604786,559651.90087563,114.80800000,6.00000000,0.00200000,0.00500000,-0.00600000,-0.00140000,-0.05160000,0.01160000,-0.02380000,-0.00780000,1.00140000
$GPFPD,2292,524593.400,114.809,-0.510,1.194,31.42736599,120.62740913,16.948,0.001,0.001,-0.007,0.804,20,18,04*72
$GTIMU,2292,524593.400,-0.0223,0.0320,-0.0043,-0.0166,-0.0084,0.9988,16.9*6B
09:42::55.401,1702662193382,120.62740913,31.42736599,3478528.03716752,559651.90277086,114.80900000,6.00000000,0.00100000,0.00100000,-0.00700000,-0.02230000,0.03200000,-0.00430000,-0.01660000,-0.00840000,0.99880000
$GPFPD,2292,524593.500,114.808,-0.508,1.193,31.42736600,120.62740915,16.953,0.001,0.004,-0.008,0.805,20,18,04*78
$GTIMU,2292,524593.500,0.0094,-0.0152,0.0053,-0.0223,-0.0097,0.9984,16.9*43
09:42::55.501,1702662193482,120.62740915,31.42736600,3478528.03828718,559651.90466610,114.80800000,6.00000000,0.00100000,0.00400000,-0.00800000,0.00940000,-0.01520000,0.00530000,-0.02230000,-0.00970000,0.99840000
$GPFPD,2292,524593.600,114.808,-0.508,1.197,31.42736601,120.62740917,16.958,0.000,0.003,-0.007,0.805,20,18,04*7E
$GTIMU,2292,524593.600,-0.0019,0.0417,0.0042,-0.0194,-0.0083,1.0006,16.9*40
09:42::55.601,1702662193582,120.62740917,31.42736601,3478528.03940683,559651.90656133,114.80800000,6.00000000,0.00000000,0.00300000,-0.00700000,-0.00190000,0.04170000,0.00420000,-0.01940000,-0.00830000,1.00060000
$GPFPD,2292,524593.700,114.808,-0.509,1.191,31.42736602,120.62740919,16.962,0.001,0.004,-0.007,0.809,20,18,04*76
$GTIMU,2292,524593.700,-0.0123,-0.0624,0.0060,-0.0220,-0.0085,0.9995,16.9*67
09:42::55.701,1702662193682,120.62740919,31.42736602,3478528.04052649,559651.90845657,114.80800000,6.00000000,0.00100000,0.00400000,-0.00700000,-0.01230000,-0.06240000,0.00600000,-0.02200000,-0.00850000,0.99950000
$GPFPD,2292,524593.800,114.809,-0.509,1.196,31.42736603,120.62740921,16.966,0.001,0.001,-0.007,0.809,20,18,04*74
$GTIMU,2292,524593.800,-0.0036,0.0474,-0.0072,-0.0173,-0.0075,0.9989,16.9*6E
09:42::55.801,1702662193782,120.62740921,31.42736603,3478528.04164615,559651.91035180,114.80900000,6.00000000,0.00100000,0.00100000,-0.00700000,-0.00360000,0.04740000,-0.00720000,-0.01730000,-0.00750000,0.99890000
$GPFPD,2292,524593.900,114.808,-0.509,1.194,31.42736603,120.62740921,16.965,0.001,0.003,-0.007,0.807,20,18,04*79
$GTIMU,2292,524593.900,0.0032,-0.0220,0.0116,-0.0224,-0.0088,1.0001,16.9*40
09:42::55.901,1702662193882,120.62740921,31.42736603,3478528.04164615,559651.91035180,114.80800000,6.00000000,0.00100000,0.00300000,-0.00700000,0.00320000,-0.02200000,0.01160000,-0.02240000,-0.00880000,1.00010000
$GPFPD,2292,524594.000,114.808,-0.509,1.198,31.42736603,120.62740921,16.964,0.001,0.002,-0.007,0.807,20,18,04*7B
$GTIMU,2292,524594.000,-0.0110,0.0440,-0.0032,-0.0192,-0.0088,0.9990,16.9*62
09:42::56.001,1702662193982,120.62740921,31.42736603,3478528.04164615,559651.91035180,114.80800000,6.00000000,0.00100000,0.00200000,-0.00700000,-0.01100000,0.04400000,-0.00320000,-0.01920000,-0.00880000,0.99900000
$GPFPD,2292,524594.100,114.808,-0.508,1.192,31.42736604,120.62740921,16.964,0.00$GPGGA,014256.00,3125.6418787,N,12037.6452313,E,1,18,1.1,10.367,M,7.80,M1,0.005,-,,*58
0.007,0.807,20,18,04*71
$GTIMU,2292,524594.100,0.0121,-0.0686,0.0076,-0.0226,-0.0094,0.9997,16.9*42
09:42::56.101,1702662194082,120.62740921,31.42736604,3478528.04275494,559651.91034547,114.80800000,6.00000000,0.00100000,0.00500000,-0.00700000,0.01210000,-0.06860000,0.00760000,-0.02260000,-0.00940000,0.99970000
$GPFPD,2292,524594.200,114.809,-0.509,1.197,31.42736604,120.62740921,16.963,0.001,0.001,-0.008,0.803,20,18,04*7F
$GTIMU,2292,524594.200,-0.0138,0.0525,-0.0100,-0.0171,-0.0073,0.9990,16.9*61
09:42::56.201,1702662194182,120.62740921,31.42736604,3478528.04275494,559651.91034547,114.80900000,6.00000000,0.00100000,0.00100000,-0.00800000,-0.01380000,0.05250000,-0.01000000,-0.01710000,-0.00730000,0.99900000
$GPFPD,2292,524594.300,114.808,-0.509,1.193,31.42736603,120.62740921,16.964,0.001,0.002,-0.003,0.808,20,18,04*78
$GTIMU,2292,524594.300,-0.0003,-0.0453,0.0122,-0.0230,-0.0087,1.0002,16.9*6E
09:42::56.301,1702662194282,120.62740921,31.42736603,3478528.04164615,559651.91035180,114.80800000,6.00000000,0.00100000,0.00200000,-0.00300000,-0.00030000,-0.04530000,0.01220000,-0.02300000,-0.00870000,1.00020000
$GPFPD,2292,524594.400,114.809,-0.510,1.198,31.42736600,120.62740921,16.971,0.001,-0.001,-0.004,0.808,20,18,04*53
$GTIMU,2292,524594.400,-0.0149,0.0525,-0.0043,-0.0176,-0.0079,0.9990,16.9*6A
09:42::56.401,1702662194382,120.62740921,31.42736600,3478528.03831975,559651.91037080,114.80900000,6.00000000,0.00100000,-0.00100000,-0.00400000,-0.01490000,0.05250000,-0.00430000,-0.01760000,-0.00790000,0.99900000
$GPFPD,2292,524594.500,114.808,-0.508,1.194,31.42736597,120.62740922,16.979,0.000,0.002,-0.003,0.809,20,18,04*79
$GTIMU,2292,524594.500,0.0122,-0.0465,0.0127,-0.0231,-0.0107,1.0002,16.9*4F
09:42::56.502,1702662194482,120.62740922,31.42736597,3478528.03499878,559651.91134057,114.80800000,6.00000000,0.00000000,0.00200000,-0.00300000,0.01220000,-0.04650000,0.01270000,-0.02310000,-0.01070000,1.00020000
$GPFPD,2292,524594.600,114.809,-0.509,1.198,31.42736593,120.62740922,16.986,-0.000,-0.000,-0.003,0.809,20,18,04*70
$GTIMU,2292,524594.600,-0.0110,0.0445,-0.0077,-0.0176,-0.0076,0.9990,16.9*6B
09:42::56.601,1702662194582,120.62740922,31.42736593,3478528.03056359,559651.91136590,114.80900000,6.00000000,0.00000000,0.00000000,-0.00300000,-0.01100000,0.04450000,-0.00770000,-0.01760000,-0.00760000,0.99900000
$GPFPD,2292,524594.700,114.808,-0.509,1.193,31.42736590,120.62740922,16.993,0.002,0.002,-0.003,0.807,20,18,04*72
$GTIMU,2292,524594.700,-0.0049,-0.0544,0.0054,-0.0234,-0.0076,0.9995,16.9*66
09:42::56.701,1702662194682,120.62740922,31.42736590,3478528.02723719,559651.91138489,114.80800000,6.00000000,0.00200000,0.00200000,-0.00300000,-0.00490000,-0.05440000,0.00540000,-0.02340000,-0.00760000,0.99950000
$GPFPD,2292,524594.800,114.809,-0.510,1.198,31.42736588,120.62740922,16.998,0.001,-0.001,-0.004,0.807,20,18,04*57
$GTIMU,2292,524594.800,-0.0081,0.0445,-0.0003,-0.0172,-0.0079,0.9990,16.9*64
09:42::56.801,1702662194782,120.62740922,31.42736588,3478528.02501959,559651.91139755,114.80900000,6.00000000,0.00100000,-0.00100000,-0.00400000,-0.00810000,0.04450000,-0.00030000,-0.01720000,-0.00790000,0.99900000
$GPFPD,2292,524594.900,114.808,-0.509,1.192,31.42736588,120.62740922,16.998,0.001,0.002,-0.003,0.806,20,18,04*7D
$GTIMU,2292,524594.900,0.0076,-0.0538,0.0031,-0.0231,-0.0103,1.0004,16.9*4E
09:42::56.901,1702662194882,120.62740922,31.42736588,3478528.02501959,559651.91139755,114.80800000,6.00000000,0.00100000,0.00200000,-0.00300000,0.00760000,-0.05380000,0.00310000,-0.02310000,-0.01030000,1.00040000
$GPFPD,2292,524595.000,114.809,-0.509,1.197,31.42736588,120.62740922,16.997,-0.000,-0.001,-0.003,0.806,20,18,04*7C
$GTIMU,2292,524595.000,-0.0075,0.0462,-0.0026,-0.0172,-0.0081,0.9990,16.9*63
09:42::57.001,1702662194982,120.62740922,31.42736588,3478528.02501959,559651.91139755,114.80900000,6.00000000,0.00000000,-0.00100000,-0.00300000,-0.00750000,0.04620000,-0.00260000,-0.01720000,-0.00810000,0.99900000
$GPFPD,2292,524595$GPGGA,01.100,114.4257.00,3808,-0.50125.641879,1.193,314,N,12031.42736587.64522608,120.627,E,1,18,140922,16..1,10.359997,0.001,M,7.80,M,0.002,-0,,*5B
.003,0.806,20,18,04*7A
$GTIMU,2292,524595.100,-0.0020,-0.0442,0.0094,-0.0235,-0.0083,0.9995,16.9*6E
09:42::57.101,1702662195082,120.62740922,31.42736588,3478528.02501959,559651.91139755,114.80800000,6.00000000,0.00100000,0.00200000,-0.00300000,-0.00200000,-0.04420000,0.00940000,-0.02350000,-0.00830000,0.99950000
$GPFPD,2292,524595.200,114.809,-0.509,1.196,31.42736588,120.62740923,16.997,0.001,-0.000,-0.004,0.805,20,18,04*57
$GTIMU,2292,524595.200,-0.0076,0.0315,-0.0072,-0.0177,-0.0079,0.9991,16.9*67
09:42::57.201,1702662195182,120.62740923,31.42736588,3478528.02502502,559651.91234834,114.80900000,6.00000000,0.00100000,0.00000000,-0.00400000,-0.00760000,0.03150000,-0.00720000,-0.01770000,-0.00790000,0.99910000
$GPFPD,2292,524595.300,114.808,-0.508,1.191,31.42736588,120.62740923,16.995,0.003,0.002,-0.007,0.808,20,18,04*70
$GTIMU,2292,524595.300,0.0065,-0.0499,0.0105,-0.0224,-0.0093,1.0000,16.9*43
09:42::57.301,1702662195282,120.62740923,31.42736588,3478528.02502502,559651.91234834,114.80800000,6.00000000,0.00300000,0.00200000,-0.00700000,0.00650000,-0.04990000,0.01050000,-0.02240000,-0.00930000,1.00000000
$GPFPD,2292,524595.400,114.809,-0.509,1.196,31.42736587,120.62740927,16.991,0.002,-0.001,-0.007,0.808,20,18,04*50
$GTIMU,2292,524595.400,-0.0058,0.0491,-0.0072,-0.0178,-0.0087,0.9992,16.9*6B
09:42::57.401,1702662195382,120.62740927,31.42736587,3478528.02393794,559651.91615780,114.80900000,6.00000000,0.00200000,-0.00100000,-0.00700000,-0.00580000,0.04910000,-0.00720000,-0.01780000,-0.00870000,0.99920000
$GPFPD,2292,524595.500,114.809,-0.508,1.193,31.42736586,120.62740930,16.987,0.003,0.001,-0.007,0.809,20,18,04*78
$GTIMU,2292,524595.500,0.0026,-0.0317,0.0099,-0.0225,-0.0083,0.9999,16.9*46
09:42::57.501,1702662195482,120.62740930,31.42736586,3478528.02284542,559651.91901648,114.80900000,6.00000000,0.00300000,0.00100000,-0.00700000,0.00260000,-0.03170000,0.00990000,-0.02250000,-0.00830000,0.99990000
$GPFPD,2292,524595.600,114.809,-0.509,1.195,31.42736586,120.62740934,16.983,0.003,0.000,-0.007,0.809,20,18,04*7D
$GTIMU,2292,524595.600,-0.0076,0.0184,-0.0020,-0.0193,-0.0080,0.9990,16.9*63
09:42::57.601,1702662195582,120.62740934,31.42736586,3478528.02286714,559651.92281961,114.80900000,6.00000000,0.00300000,0.00000000,-0.00700000,-0.00760000,0.01840000,-0.00200000,-0.01930000,-0.00800000,0.99900000
$GPFPD,2292,524595.700,114.809,-0.508,1.192,31.42736585,120.62740937,16.979,0.003,0.001,-0.007,0.808,20,18,04*7F
$GTIMU,2292,524595.700,-0.0014,-0.0322,0.0025,-0.0208,-0.0087,1.0001,16.9*62
09:42::57.701,1702662195682,120.62740937,31.42736585,3478528.02177463,559651.92567829,114.80900000,6.00000000,0.00300000,0.00100000,-0.00700000,-0.00140000,-0.03220000,0.00250000,-0.02080000,-0.00870000,1.00010000
$GPFPD,2292,524595.800,114.809,-0.508,1.194,31.42736584,120.62740940,16.975,0.002,0.000,-0.007,0.808,20,18,04*7B
$GTIMU,2292,524595.800,-0.0042,0.0144,0.0008,-0.0194,-0.0088,0.9992,16.9*4C
09:42::57.801,1702662195782,120.62740940,31.42736584,3478528.02068211,559651.92853697,114.80900000,6.00000000,0.00200000,0.00000000,-0.00700000,-0.00420000,0.01440000,0.00080000,-0.01940000,-0.00880000,0.99920000
$GPFPD,2292,524595.900,114.809,-0.509,1.194,31.42736584,120.62740940,16.975,0.002,0.000,-0.007,0.808,20,18,04*7B
$GTIMU,2292,524595.900,-0.0042,-0.0010,0.0019,-0.0204,-0.0079,0.9995,16.9*63
09:42::57.901,1702662195882,120.62740940,31.42736584,3478528.02068211,559651.92853697,114.80900000,6.00000000,0.00200000,0.00000000,-0.00700000,-0.00420000,-0.00100000,0.00190000,-0.02040000,-0.00790000,0.99950000
$GPFPD,2292,524596.000,114.809,-0.508,1.193,31.42736584,120.62740940,16.974,0.002,0.001,-0.007,0.808,20,18,04*77
$GTIMU,2292,524596.000,-0.0025,-0.0072,0.0037,-0.0212,-0.0091,0.9994,16.9*60
09:42::58.001,1702662195982,120.62740940,31.42736584,3478528.02068211,559651.92853697,114.80900000,6.00000000,0.00200000,0.00100000,-0.00700000,-0.00250000,-0.00720000,0.00370000,-0.02120000,-0.00910000,0.99940000
$GPGGA,014258.00,3125.6418758,N,12037.6452297,E,1,18,1.1,10.392,M,7.80,M,,*53
$GPFPD,2292,524596.100,114.809,-0.509,1.195,31.42736584,120.62740941,16.973,0.002,-0.001,-0.007,0.808,20,18,04*5A
$GTIMU,2292,524596.100,-0.0048,0.0150,-0.0003,-0.0182,-0.0074,0.9996,16.9*6F
09:42::58.101,1702662196082,120.62740941,31.42736584,3478528.02068754,559651.92948776,114.80900000,6.00000000,0.00200000,-0.00100000,-0.00700000,-0.00480000,0.01500000,-0.00030000,-0.01820000,-0.00740000,0.99960000
$GPFPD,2292,524596.200,114.809,-0.508,1.192,31.42736585,120.62740941,16.972,0.003,0.002,-0.007,0.809,20,18,04*71
$GTIMU,2292,524596.200,-0.0003,-0.0305,0.0048,-0.0234,-0.0094,0.9995,16.9*6D
09:42::58.201,1702662196182,120.62740941,31.42736585,3478528.02179634,559651.92948143,114.80900000,6.00000000,0.00300000,0.00200000,-0.00700000,-0.00030000,-0.03050000,0.00480000,-0.02340000,-0.00940000,0.99950000
$GPFPD,2292,524596.300,114.809,-0.508,1.196,31.42736584,120.62740941,16.973,0.001,-0.001,-0.006,0.806,20,18,04*56
$GTIMU,2292,524596.300,-0.0041,0.0377,-0.0003,-0.0166,-0.0086,0.9994,16.9*66
09:42::58.301,1702662196282,120.62740941,31.42736584,3478528.02068754,559651.92948776,114.80900000,6.00000000,0.00100000,-0.00100000,-0.00600000,-0.00410000,0.03770000,-0.00030000,-0.01660000,-0.00860000,0.99940000
$GPFPD,2292,524596.400,114.809,-0.508,1.191,31.42736584,120.62740940,16.976,0.003,0.002,-0.006,0.806,20,18,04*7E
$GTIMU,2292,524596.400,0.0008,-0.0476,0.0048,-0.0245,-0.0084,0.9995,16.9*49
09:42::58.401,1702662196382,120.62740940,31.42736584,3478528.02068211,559651.92853697,114.80900000,6.00000000,0.00300000,0.00200000,-0.00600000,0.00080000,-0.04760000,0.00480000,-0.02450000,-0.00840000,0.99950000
$GPFPD,2292,524596.500,114.809,-0.508,1.195,31.42736583,120.62740940,16.979,0.001,-0.002,-0.006,0.810,20,18,04*5B
$GTIMU,2292,524596.500,-0.0064,0.0298,-0.0020,-0.0160,-0.0081,0.9997,16.9*64
09:42::58.501,1702662196482,120.62740940,31.42736583,3478528.01957332,559651.92854331,114.80900000,6.00000000,0.00100000,-0.00200000,-0.00600000,-0.00640000,0.02980000,-0.00200000,-0.01600000,-0.00810000,0.99970000
$GPFPD,2292,524596.600,114.809,-0.508,1.193,31.42736583,120.62740939,16.983,0.002,0.000,-0.006,0.810,20,18,04*79
$GTIMU,2292,524596.600,-0.0020,-0.0152,0.0059,-0.0226,-0.0088,0.9994,16.9*67
09:42::58.601,1702662196582,120.62740939,31.42736583,3478528.01956789,559651.92759252,114.80900000,6.00000000,0.00200000,0.00000000,-0.00600000,-0.00200000,-0.01520000,0.00590000,-0.02260000,-0.00880000,0.99940000
$GPFPD,2292,524596.700,114.810,-0.508,1.196,31.42736582,120.62740939,16.986,0.002,-0.000,-0.005,0.809,20,18,04*57
$GTIMU,2292,524596.700,-0.0047,0.0258,-0.0032,-0.0196,-0.0085,1.0002,16.9*68
09:42::58.701,1702662196682,120.62740939,31.42736582,3478528.01845909,559651.92759885,114.81000000,6.00000000,0.00200000,0.00000000,-0.00500000,-0.00470000,0.02580000,-0.00320000,-0.01960000,-0.00850000,1.00020000
$GPFPD,2292,524596.800,114.809,-0.510,1.192,31.42736582,120.62740939,16.988,0.001,0.001,-0.006,0.809,20,18,04*7F
$GTIMU,2292,524596.800,-0.0156,-0.0419,0.0111,-0.0214,-0.0094,0.9982,16.9*65
09:42::58.801,1702662196782,120.62740939,31.42736582,3478528.01845909,559651.92759885,114.80900000,6.00000000,0.00100000,0.00100000,-0.00600000,-0.01560000,-0.04190000,0.01110000,-0.02140000,-0.00940000,0.99820000
$GPFPD,2292,524596.900,114.810,-0.508,1.193,31.42736582,120.62740939,16.988,0.002,-0.001,-0.006,0.811,20,18,04*59
$GTIMU,2292,524596.900,0.0111,0.0121,-0.0089,-0.0184,-0.0070,0.9996,16.9*41
09:42::58.901,1702662196882,120.62740939,31.42736582,3478528.01845909,559651.92759885,114.81000000,6.00000000,0.00200000,-0.00100000,-0.00600000,0.01110000,0.01210000,-0.00890000,-0.01840000,-0.00700000,0.99960000
$GPFPD,2292,524597.000,114.809,-0.508,1.193,31.42736581,120.62740939,16.987,0.002,-0.000,-0.006,0.811,20,18,04*54
$GTIMU,2292,524597.000,-0.0059,-0.0004,0.0054,-0.0209,-0.0085,1.0002,16.9*6F
09:42::59.001,1702662196982,120.62740939,31.42736581,3478528.01735029,559651.92760518,114.80900000,6.00000000,0.00200000,0.00000000,-0.00600000,-0.00590000,-0.00040000,0.00540000,-0.02090000,-0.00850000,1.00020000
$GPGGA,014259.00,3125.6418784,N,12037.6452336,E,1,18,1.1,10.409,M,7.80,M,,*5C
$GPFPD,2292,524597.100,114.809,-0.509,1.196,31.42736581,120.62740939,16.986,0.001,0.000,-0.006,0.811,20,18,04*7E
$GTIMU,2292,524597.100,-0.0053,0.0235,0.0042,-0.0206,-0.0095,0.9988,16.9*43
09:42::59.101,1702662197082,120.62740939,31.42736581,3478528.01735029,559651.92760518,114.80900000,6.00000000,0.00100000,0.00000000,-0.00600000,-0.00530000,0.02350000,0.00420000,-0.02060000,-0.00950000,0.99880000
$GPFPD,2292,524597.200,114.809,-0.508,1.191,31.42736582,120.62740939,16.986,0.001,0.001,-0.006,0.809,20,18,04*70
$GTIMU,2292,524597.200,0.0065,-0.0493,0.0048,-0.0209,-0.0090,1.0002,16.9*4C
09:42::59.201,1702662197182,120.62740939,31.42736582,3478528.01845909,559651.92759885,114.80900000,6.00000000,0.00100000,0.00100000,-0.00600000,0.00650000,-0.04930000,0.00480000,-0.02090000,-0.00900000,1.00020000
$GPFPD,2292,524597.300,114.810,-0.509,1.195,31.42736582,120.62740939,16.984,0.001,-0.001,-0.009,0.813,20,18,04*57
$GTIMU,2292,524597.300,-0.0132,0.0377,-0.0060,-0.0187,-0.0069,0.9995,16.9*68
09:42::59.301,1702662197282,120.62740939,31.42736582,3478528.01845909,559651.92759885,114.81000000,6.00000000,0.00100000,-0.00100000,-0.00900000,-0.01320000,0.03770000,-0.00600000,-0.01870000,-0.00690000,0.99950000
$GPFPD,2292,524597.400,114.809,-0.509,1.191,31.42736582,120.62740937,16.981,0.001,0.001,-0.010,0.813,20,18,04*72
$GTIMU,2292,524597.400,-0.0060,-0.0464,0.0065,-0.0220,-0.0084,0.9989,16.9*69
09:42::59.401,1702662197382,120.62740937,31.42736582,3478528.01844823,559651.92569729,114.80900000,6.00000000,0.00100000,0.00100000,-0.01000000,-0.00600000,-0.04640000,0.00650000,-0.02200000,-0.00840000,0.99890000
$GPFPD,2292,524597.500,114.809,-0.509,1.195,31.42736582,120.62740936,16.977,-0.000,-0.001,-0.010,0.808,20,18,04*74
$GTIMU,2292,524597.500,-0.0036,0.0474,0.0008,-0.0177,-0.0094,0.9995,16.9*41
09:42::59.502,1702662197482,120.62740936,31.42736582,3478528.01844280,559651.92474650,114.80900000,6.00000000,0.00000000,-0.00100000,-0.01000000,-0.00360000,0.04740000,0.00080000,-0.01770000,-0.00940000,0.99950000
$GPFPD,2292,524597.600,114.809,-0.508,1.192,31.42736583,120.62740934,16.973,0.000,0.001,-0.009,0.808,20,18,04*7E
$GTIMU,2292,524597.600,0.0054,-0.0334,0.0059,-0.0228,-0.0091,1.0004,16.9*44
09:42::59.601,1702662197582,120.62740934,31.42736583,3478528.01954074,559651.92283861,114.80900000,6.00000000,0.00000000,0.00100000,-0.00900000,0.00540000,-0.03340000,0.00590000,-0.02280000,-0.00910000,1.00040000
$GPFPD,2292,524597.700,114.810,-0.509,1.196,31.42736583,120.62740932,16.969,-0.000,-0.000,-0.010,0.808,20,18,04*76
$GTIMU,2292,524597.700,-0.0121,0.0349,-0.0037,-0.0186,-0.0080,0.9987,16.9*64
09:42::59.701,1702662197682,120.62740932,31.42736583,3478528.01952988,559651.92093704,114.81000000,6.00000000,0.00000000,0.00000000,-0.01000000,-0.01210000,0.03490000,-0.00370000,-0.01860000,-0.00800000,0.99870000
$GPFPD,2292,524597.800,114.809,-0.509,1.191,31.42736583,120.62740931,16.965,0.001,0.001,-0.010,0.808,20,18,04*79
$GTIMU,2292,524597.800,-0.0009,-0.0453,0.0071,-0.0221,-0.0078,0.9993,16.9*62
09:42::59.801,1702662197782,120.62740931,31.42736583,3478528.01952446,559651.91998626,114.80900000,6.00000000,0.00100000,0.00100000,-0.01000000,-0.00090000,-0.04530000,0.00710000,-0.02210000,-0.00780000,0.99930000
$GPFPD,2292,524597.900,114.810,-0.509,1.194,31.42736583,120.62740931,16.964,0.001,-0.001,-0.009,0.810,20,18,04*58
$GTIMU,2292,524597.900,-0.0030,0.0281,-0.0049,-0.0184,-0.0083,1.0002,16.9*6A
09:42::59.901,1702662197882,120.62740931,31.42736583,3478528.01952446,559651.91998626,114.81000000,6.00000000,0.00100000,-0.00100000,-0.00900000,-0.00300000,0.02810000,-0.00490000,-0.01840000,-0.00830000,1.00020000
$GPFPD,2292,524598.000,114.809,-0.509,1.191,31.42736583,120.62740931,16.964,-0.001,0.002,-0.009,0.810,20,18,04*50
$GTIMU,2292,524598.000,-0.0048,-0.0368,0.0105,-0.0219,-0.0107,0.9999,16.9*65
09:43::00.001,1702662197982,120.62740931,31.42736583,3478528.01952446,559651.91998626,114.80900000,6.00000000,-0.00100000,0.00200000,-0.00900000,-0.00480000,-0.03680000,0.01050000,-0.02190000,-0.01070000,0.99990000
$GPGGA,014300.00,3125.6418769,N,12037.6452417,E,1,18,1.1,10.445,M,7.80,M,,*5E
$GPFPD,2292,524598.100,114.810,-0.509,1.195,31.42736583,120.62740931,16.963,-0.001,-0.000,-0.010,0.810,20,18,04*7D
$GTIMU,2292,524598.100,-0.0042,0.0406,-0.0060,-0.0185,-0.0080,0.9986,16.9*65
09:43::00.101,1702662198082,120.62740931,31.42736583,3478528.01952446,559651.91998626,114.81000000,6.00000000,-0.00100000,0.00000000,-0.01000000,-0.00420000,0.04060000,-0.00600000,-0.01850000,-0.00800000,0.99860000
$GPFPD,2292,524598.200,114.809,-0.508,1.190,31.42736583,120.62740931,16.962,0.001,0.001,-0.010,0.806,20,18,04*75
$GTIMU,2292,524598.200,0.0014,-0.0544,0.0111,-0.0222,-0.0070,0.9996,16.9*48
09:43::00.201,1702662198182,120.62740931,31.42736583,3478528.01952446,559651.91998626,114.80900000,6.00000000,0.00100000,0.00100000,-0.01000000,0.00140000,-0.05440000,0.01110000,-0.02220000,-0.00700000,0.99960000
$GPFPD,2292,524598.300,114.810,-0.510,1.195,31.42736583,120.62740932,16.962,0.002,-0.001,-0.009,0.810,20,18,04*52
$GTIMU,2292,524598.300,-0.0189,0.0519,-0.0054,-0.0181,-0.0079,0.9996,16.9*6A
09:43::00.301,1702662198282,120.62740932,31.42736583,3478528.01952988,559651.92093704,114.81000000,6.00000000,0.00200000,-0.00100000,-0.00900000,-0.01890000,0.05190000,-0.00540000,-0.01810000,-0.00790000,0.99960000
$GPFPD,2292,524598.400,114.809,-0.510,1.191,31.42736583,120.62740934,16.965,0.002,0.001,-0.009,0.810,20,18,04*75
$GTIMU,2292,524598.400,0.0025,-0.0464,0.0059,-0.0224,-0.0098,0.9996,16.9*42
09:43::00.401,1702662198382,120.62740934,31.42736583,3478528.01954074,559651.92283861,114.80900000,6.00000000,0.00200000,0.00100000,-0.00900000,0.00250000,-0.04640000,0.00590000,-0.02240000,-0.00980000,0.99960000
$GPFPD,2292,524598.500,114.810,-0.510,1.195,31.42736582,120.62740936,16.968,0.000,-0.001,-0.009,0.811,20,18,04*58
$GTIMU,2292,524598.500,-0.0036,0.0406,-0.0015,-0.0180,-0.0087,0.9993,16.9*66
09:43::00.501,1702662198482,120.62740936,31.42736582,3478528.01844280,559651.92474650,114.81000000,6.00000000,0.00000000,-0.00100000,-0.00900000,-0.00360000,0.04060000,-0.00150000,-0.01800000,-0.00870000,0.99930000
$GPFPD,2292,524598.600,114.809,-0.509,1.191,31.42736582,120.62740939,16.971,0.002,0.001,-0.009,0.811,20,18,04*77
$GTIMU,2292,524598.600,0.0025,-0.0436,0.0088,-0.0227,-0.0084,0.9996,16.9*45
09:43::00.601,1702662198582,120.62740939,31.42736582,3478528.01845909,559651.92759885,114.80900000,6.00000000,0.00200000,0.00100000,-0.00900000,0.00250000,-0.04360000,0.00880000,-0.02270000,-0.00840000,0.99960000
$GPFPD,2292,524598.700,114.810,-0.510,1.195,31.42736581,120.62740941,16.974,0.001,-0.001,-0.009,0.810,20,18,04*54
$GTIMU,2292,524598.700,-0.0110,0.0457,-0.0094,-0.0176,-0.0078,0.9991,16.9*67
09:43::00.701,1702662198682,120.62740941,31.42736581,3478528.01736115,559651.92950675,114.81000000,6.00000000,0.00100000,-0.00100000,-0.00900000,-0.01100000,0.04570000,-0.00940000,-0.01760000,-0.00780000,0.99910000
$GPFPD,2292,524598.800,114.809,-0.509,1.190,31.42736581,120.62740943,16.976,0.001,0.002,-0.008,0.810,20,18,04*71
$GTIMU,2292,524598.800,0.0059,-0.0561,0.0168,-0.0230,-0.0097,1.0006,16.9*40
09:43::00.801,1702662198782,120.62740943,31.42736581,3478528.01737201,559651.93140832,114.80900000,6.00000000,0.00100000,0.00200000,-0.00800000,0.00590000,-0.05610000,0.01680000,-0.02300000,-0.00970000,1.00060000
$GPFPD,2292,524598.900,114.810,-0.510,1.195,31.42736581,120.62740943,16.975,0.001,-0.001,-0.009,0.806,20,18,04*5E
$GTIMU,2292,524598.900,-0.0104,0.0451,-0.0106,-0.0176,-0.0078,0.9988,16.9*68
09:43::00.901,1702662198882,120.62740943,31.42736581,3478528.01737201,559651.93140832,114.81000000,6.00000000,0.00100000,-0.00100000,-0.00900000,-0.01040000,0.04510000,-0.01060000,-0.01760000,-0.00780000,0.99880000
$GPFPD,2292,524599.000,114.809,-0.508,1.190,31.42736581,120.62740943,16.974,0.001,0.001,-0.009,0.806,20,18,04*7E
$GTIMU,2292,524599.000,0.0082,-0.0482,0.0105,-0.0227,-0.0091,0.9996,16.9*40
09:43::01.001,1702662198982,120.62740943,31.42736581,3478528.01737201,559651.93140832,114.80900000,6.00000000,0.00100000,0.00100000,-0.00900000,0.00820000,-0.04820000,0.01050000,-0.02270000,-0.00910000,0.99960000
$GPGGA,014301.00,3125.6418714,N,12037.6452386,E,1,18,1.1,10.458,M,7.80,M,,*56
$GPFPD,2292,524599.100,114.810,-0.510,1.195,31.42736581,120.62740944,16.973,0.001,-0.002,-0.009,0.806,20,18,04*55
$GTIMU,2292,524599.100,-0.0206,0.0491,-0.0049,-0.0174,-0.0073,0.9988,16.9*6F
09:43::01.101,1702662199082,120.62740944,31.42736581,3478528.01737743,559651.93235910,114.81000000,6.00000000,0.00100000,-0.00200000,-0.00900000,-0.02060000,0.04910000,-0.00490000,-0.01740000,-0.00730000,0.99880000
$GPFPD,2292,524599.200,114.809,-0.510,1.191,31.42736581,120.62740944,16.972,0.001,0.001,-0.008,0.805,20,18,04*77
$GTIMU,2292,524599.200,0.0009,-0.0391,0.0111,-0.0231,-0.0094,1.0007,16.9*4A
09:43::01.201,1702662199182,120.62740944,31.42736581,3478528.01737743,559651.93235910,114.80900000,6.00000000,0.00100000,0.00100000,-0.00800000,0.00090000,-0.03910000,0.01110000,-0.02310000,-0.00940000,1.00070000
$GPFPD,2292,524599.300,114.810,-0.510,1.196,31.42736581,120.62740944,16.972,0.002,-0.001,-0.010,0.802,20,18,04*59
$GTIMU,2292,524599.300,-0.0070,0.0440,-0.0077,-0.0178,-0.0073,0.9986,16.9*6D
09:43::01.301,1702662199282,120.62740944,31.42736581,3478528.01737743,559651.93235910,114.81000000,6.00000000,0.00200000,-0.00100000,-0.01000000,-0.00700000,0.04400000,-0.00770000,-0.01780000,-0.00730000,0.99860000
$GPFPD,2292,524599.400,114.809,-0.511,1.192,31.42736581,120.62740945,16.971,0.001,0.001,-0.009,0.802,20,18,04*77
$GTIMU,2292,524599.400,-0.0111,-0.0362,0.0117,-0.0217,-0.0098,1.0004,16.9*68
09:43::01.401,1702662199382,120.62740945,31.42736581,3478528.01738286,559651.93330988,114.80900000,6.00000000,0.00100000,0.00100000,-0.00900000,-0.01110000,-0.03620000,0.01170000,-0.02170000,-0.00980000,1.00040000
$GPFPD,2292,524599.500,114.809,-0.510,1.199,31.42736581,120.62740946,16.971,0.001,-0.001,-0.011,0.807,20,18,04*5E
$GTIMU,2292,524599.500,0.0022,0.0661,-0.0004,-0.0188,-0.0083,0.9979,16.9*44
09:43::01.501,1702662199482,120.62740946,31.42736581,3478528.01738829,559651.93426067,114.80900000,6.00000000,0.00100000,-0.00100000,-0.01100000,0.00220000,0.06610000,-0.00040000,-0.01880000,-0.00830000,0.99790000
$GPFPD,2292,524599.600,114.809,-0.510,1.193,31.42736581,120.62740947,16.970,0.001,0.003,-0.009,0.807,20,18,04*71
$GTIMU,2292,524599.600,0.0008,-0.0658,0.0042,-0.0240,-0.0095,1.0015,16.9*4C
09:43::01.601,1702662199582,120.62740947,31.42736581,3478528.01739372,559651.93521145,114.80900000,6.00000000,0.00100000,0.00300000,-0.00900000,0.00080000,-0.06580000,0.00420000,-0.02400000,-0.00950000,1.00150000
$GPFPD,2292,524599.700,114.809,-0.511,1.193,31.42736581,120.62740947,16.970,0.002,-0.001,-0.011,0.808,20,18,04*5B
$GTIMU,2292,524599.700,-0.0104,0.0076,-0.0020,-0.0169,-0.0066,0.9981,16.9*6B
09:43::01.701,1702662199682,120.62740947,31.42736581,3478528.01739372,559651.93521145,114.80900000,6.00000000,0.00200000,-0.00100000,-0.01100000,-0.01040000,0.00760000,-0.00200000,-0.01690000,-0.00660000,0.99810000
$GPFPD,2292,524599.800,114.809,-0.510,1.188,31.42736582,120.62740948,16.969,0.002,0.002,-0.010,0.808,20,18,04*74
$GTIMU,2292,524599.800,0.0025,-0.0589,0.0008,-0.0226,-0.0094,1.0004,16.9*4D
09:43::01.800,1702662199782,120.62740948,31.42736582,3478528.01850795,559651.93615590,114.80900000,6.00000000,0.00200000,0.00200000,-0.01000000,0.00250000,-0.05890000,0.00080000,-0.02260000,-0.00940000,1.00040000
$GPFPD,2292,524599.900,114.810,-0.511,1.194,31.42736582,120.62740948,16.968,0.000,-0.002,-0.010,0.804,20,18,04*53
$GTIMU,2292,524599.900,-0.0121,0.0599,-0.0015,-0.0161,-0.0082,0.9993,16.9*61
09:43::01.901,1702662199882,120.62740948,31.42736582,3478528.01850795,559651.93615590,114.81000000,6.00000000,0.00000000,-0.00200000,-0.01000000,-0.01210000,0.05990000,-0.00150000,-0.01610000,-0.00820000,0.99930000
$GPFPD,2292,524600.000,114.809,-0.509,1.191,31.42736582,120.62740948,16.967,0.001,0.002,-0.010,0.804,20,18,04*7E
$GTIMU,2292,524600.000,0.0117,-0.0328,0.0122,-0.0245,-0.0097,0.9996,16.9*4E
