$GPFPD,2292,539437.500,295.485,-0.014,1.159,31.42702121,120.62958722,13.390,-0.005,0.000,-0.011,0.797,20,17,04*56
$GTIMU,2292,539437.500,0.0249,0.0798,0.0024,-0.0176,0.0025,1.0001,25.6*4B
13:50::19.513,1702677037482,120.62958722,31.42702121,3478490.99250901,559859.21094747,295.48500000,6.00000000,-0.00500000,0.00000000,-0.01100000,0.02490000,0.07980000,0.00240000,-0.01760000,0.00250000,1.00010000
$GPFPD,2292,539437.600,295.485,-0.015,1.161,31.42702125,120.62958718,13.393,-0.007,-0.001,-0.010,0.797,20,17,04*7E
$GTIMU,2292,539437.600,-0.0047,0.0172,0.0054,-0.0224,0.0020,1.0009,25.6*65
13:50::19.612,1702677037582,120.62958718,31.42702125,3478490.99692242,559859.20711891,295.48500000,6.00000000,-0.00700000,-0.00100000,-0.01000000,-0.00470000,0.01720000,0.00540000,-0.02240000,0.00200000,1.00090000
$GPFPD,2292,539437.700,295.484,-0.015,1.155,31.42702129,120.62958713,13.396,-0.008,-0.002,-0.011,0.797,20,17,04*76
$GTIMU,2292,539437.700,0.0042,-0.0635,0.0076,-0.0216,0.0003,0.9981,25.6*64
13:50::19.713,1702677037682,120.62958713,31.42702129,3478491.00133037,559859.20233956,295.48400000,6.00000000,-0.00800000,-0.00200000,-0.01100000,0.00420000,-0.06350000,0.00760000,-0.02160000,0.00030000,0.99810000
$GPFPD,2292,539437.800,295.485,-0.015,1.160,31.42702132,120.62958709,13.398,-0.006,0.000,-0.012,0.797,20,17,04*53
$GTIMU,2292,539437.800,0.0015,0.0513,-0.0055,-0.0169,-0.0003,0.9989,25.6*41
13:50::19.813,1702677037782,120.62958709,31.42702132,3478491.00463498,559859.19851736,295.48500000,6.00000000,-0.00600000,0.00000000,-0.01200000,0.00150000,0.05130000,-0.00550000,-0.01690000,-0.00030000,0.99890000
$GPFPD,2292,539437.900,295.485,-0.013,1.157,31.42702132,120.62958709,13.397,-0.005,-0.003,-0.010,0.796,20,17,04*71
$GTIMU,2292,539437.900,0.0287,-0.0260,0.0053,-0.0223,-0.0011,1.0017,25.6*44
13:50::19.913,1702677037882,120.62958709,31.42702132,3478491.00463498,559859.19851736,295.48500000,6.00000000,-0.00500000,-0.00300000,-0.01000000,0.02870000,-0.02600000,0.00530000,-0.02230000,-0.00110000,1.00170000
$GPFPD,2292,539438.000,295.485,-0.013,1.156,31.42702132,120.62958708,13.396,-0.006,-0.002,-0.011,0.796,20,17,04*75
$GTIMU,2292,539438.000,0.0026,-0.0089,0.0019,-0.0196,0.0015,0.9982,25.6*69
13:50::20.012,1702677037982,120.62958708,31.42702132,3478491.00462953,559859.19756657,295.48500000,6.00000000,-0.00600000,-0.00200000,-0.01100000,0.00260000,-0.00890000,0.00190000,-0.01960000,0.00150000,0.99820000
$GPFPD,2292,539438.100,295.485,-0.014,1.162,31.42702131,120.62958707,13.395,-0.007,0.001,-0.011,0.796,20,17,04*54
$GTIMU,2292,539438.100,-0.0126,0.0644,-0.0032,-0.0176,0.0020,0.9995,25.6*44
$GPFPD,2292,539438.200,295.484,-0.013,1.158,31.42702131,120.62958707,13.394,-0.007,-0.002,-0.009,0.799,20,18,04*7E
$GTIMU,2292,539438.200,0.0179,-0.0379,0.0122,-0.0232,-0.0003,1.0017,25.6*4F
$GPFPD,2292,539438.300,295.486,-0.014,1.162,31.42702131,120.62958705,13.393,-0.008,-0.002,-0.010,0.798,20,18,04*70
$GTIMU,2292,539438.300,-0.0081,0.0394,-0.0043,-0.0180,0.0009,0.9969,25.6*45
$GPFPD,2292,539438.400,295.486,-0.013,1.164,31.42702128,120.62958700,13.394,-0.007,-0.003,-0.009,0.798,20,18,04*7A
$GTIMU,2292,539438.400,0.0123,0.0246,0.0042,-0.0210,-0.0011,1.0012,25.6*67
$GPFPD,2292,539438.500,295.485,-0.011,1.159,31.42702125,120.62958694,13.395,-0.007,-0.005,-0.008,0.799,20,18,04*72
$GTIMU,2292,539438.500,0.0212,-0.0516,0.0093,-0.0217,-0.0002,1.0001,25.6*43
$GPFPD,2292,539438.600,295.485,-0.013,1.163,31.42702122,120.62958689,13.396,-0.008,-0.003,-0.010,0.799,20,18,04*72
$GTIMU,2292,539438.600,-0.0132,0.0457,-0.0020,-0.0180,0.0016,0.9978,25.6*4A
$GPFPD,2292,539438.700,295.485,-0.012,1.163,31.42702120,120.62958684,13.397,-0.008,-0.003,-0.009,0.799,20,18,04*74
$GTIMU,2292,539438.700,0.0060,0.0030,0.0053,-0.0211,0.0003,1.0008,25.6*45
$GPFPD,2292,539438.800,295.485,-0.012,1.159,31.42702117,120.62958680,13.397,-0.009,-0.005,-0.009,0.799,20,18,04*75
$GTIMU,2292,539438.800,0.0082,-0.0419,-0.0015,-0.0216,0.0009,0.9996,25.6*40
$GPFPD,2292,539438.900,295.486,-0.013,1.165,31.42702117,120.62958679,13.396,-0.008,-0.002,-0.009,0.799,20,18,04*78
$GTIMU,2292,539438.900,-0.0087,0.0593,-0.0015,-0.0170,0.0006,0.9990,25.6*4D
$GPFPD,2292,539439.000,295.484,-0.012,1.160,31.42702117,120.62958678,13.395,-0.008,-0.006,-0.008,0.799,20,18,04*71
$GTIMU,2292,539439.000,0.0150,-0.0419,0.0156,-0.0240,-0.0016,1.0003,25.6*41
$GPGGA,055020.00,3125.6213748,N,12037.7743608,E,1,18,0.8,6.347,M,7.80,M,,*60
$GPGGA,055021.00,3125.6213932,N,12037.7743492,E,1,17,0.9,6.315,M,7.80,M,,*6A
$GPFPD,2292,539439.100,295.485,-0.012,1.162,31.42702116,120.62958678,13.394,-0.007,-0.003,-0.010,0.799,20,18,04*70
$GTIMU,2292,539439.100,0.0026,0.0207,-0.0089,-0.0174,0.0012,0.9984,25.6*69
13:50::21.112,1702677039082,120.62958678,31.42702116,3478490.98672532,559859.16914462,295.48500000,6.00000000,-0.00700000,-0.00300000,-0.01000000,0.00260000,0.02070000,-0.00890000,-0.01740000,0.00120000,0.99840000
$GPFPD,2292,539439.200,295.486,-0.011,1.162,31.42702116,120.62958677,13.393,-0.008,-0.004,-0.009,0.798,20,17,04*75
$GTIMU,2292,539439.200,0.0088,0.0013,0.0008,-0.0210,0.0009,1.0007,25.6*4C
13:50::21.213,1702677039182,120.62958677,31.42702116,3478490.98671987,559859.16819383,295.48600000,6.00000000,-0.00800000,-0.00400000,-0.00900000,0.00880000,0.00130000,0.00080000,-0.02100000,0.00090000,1.00070000
$GPFPD,2292,539439.300,295.485,-0.012,1.157,31.42702117,120.62958674,13.392,-0.012,-0.003,-0.010,0.798,20,17,04*75
$GTIMU,2292,539439.300,0.0014,-0.0521,0.0105,-0.0218,0.0016,0.9992,25.6*66
13:50::21.313,1702677039282,120.62958674,31.42702117,3478490.98781232,559859.16533512,295.48500000,6.00000000,-0.01200000,-0.00300000,-0.01000000,0.00140000,-0.05210000,0.01050000,-0.02180000,0.00160000,0.99920000
$GPFPD,2292,539439.400,295.487,-0.013,1.161,31.42702120,120.62958668,13.388,-0.010,-0.001,-0.011,0.798,20,17,04*77
$GTIMU,2292,539439.400,-0.0133,0.0445,-0.0123,-0.0178,0.0001,0.9985,25.6*4A
13:50::21.413,1702677039382,120.62958668,31.42702120,3478490.99110604,559859.15961134,295.48700000,6.00000000,-0.01000000,-0.00100000,-0.01100000,-0.01330000,0.04450000,-0.01230000,-0.01780000,0.00010000,0.99850000
$GPFPD,2292,539439.500,295.486,-0.011,1.158,31.42702124,120.62958661,13.385,-0.009,-0.003,-0.010,0.796,20,17,04*7A
$GTIMU,2292,539439.500,0.0281,-0.0305,0.0081,-0.0217,-0.0015,1.0010,25.6*49
13:50::21.514,1702677039482,120.62958661,31.42702124,3478490.99550310,559859.15293042,295.48600000,6.00000000,-0.00900000,-0.00300000,-0.01000000,0.02810000,-0.03050000,0.00810000,-0.02170000,-0.00150000,1.00100000
$GPFPD,2292,539439.600,295.486,-0.012,1.157,31.42702127,120.62958655,13.381,-0.010,-0.001,-0.010,0.796,20,17,04*7F
$GTIMU,2292,539439.600,-0.0037,-0.0061,0.0054,-0.0191,0.0017,0.9996,25.6*4C
13:50::21.613,1702677039582,120.62958655,31.42702127,3478490.99879681,559859.14720664,295.48600000,6.00000000,-0.01000000,-0.00100000,-0.01000000,-0.00370000,-0.00610000,0.00540000,-0.01910000,0.00170000,0.99960000
$GPFPD,2292,539439.700,295.486,-0.013,1.163,31.42702131,120.62958648,13.378,-0.010,-0.000,-0.010,0.798,20,17,04*7A
$GTIMU,2292,539439.700,-0.0092,0.0565,-0.0026,-0.0190,0.0006,0.9993,25.6*42
13:50::21.713,1702677039682,120.62958648,31.42702131,3478491.00319387,559859.14052572,295.48600000,6.00000000,-0.01000000,0.00000000,-0.01000000,-0.00920000,0.05650000,-0.00260000,-0.01900000,0.00060000,0.99930000
$GPFPD,2292,539439.800,295.486,-0.011,1.157,31.42702133,120.62958643,13.375,-0.011,-0.004,-0.010,0.798,20,17,04*71
$GTIMU,2292,539439.800,0.0167,-0.0533,0.0087,-0.0236,0.0001,0.9992,25.6*6A
13:50::21.812,1702677039782,120.62958643,31.42702133,3478491.00538423,559859.13575908,295.48600000,6.00000000,-0.01100000,-0.00400000,-0.01000000,0.01670000,-0.05330000,0.00870000,-0.02360000,0.00010000,0.99920000
$GPFPD,2292,539439.900,295.486,-0.012,1.160,31.42702133,120.62958642,13.374,-0.011,-0.001,-0.011,0.797,20,17,04*7C
$GTIMU,2292,539439.900,-0.0008,0.0309,-0.0043,-0.0176,0.0010,0.9989,25.6*44
13:50::21.913,1702677039882,120.62958642,31.42702133,3478491.00537878,559859.13480829,295.48600000,6.00000000,-0.01100000,-0.00100000,-0.01100000,-0.00080000,0.03090000,-0.00430000,-0.01760000,0.00100000,0.99890000
$GPFPD,2292,539440.000,295.486,-0.012,1.159,31.42702133,120.62958641,13.373,-0.010,-0.002,-0.009,0.797,20,17,04*7E
$GTIMU,2292,539440.000,0.0037,-0.0106,0.0036,-0.0208,-0.0001,1.0014,25.6*4F
13:50::22.013,1702677039982,120.62958641,31.42702133,3478491.00537333,559859.13385751,295.48600000,6.00000000,-0.01000000,-0.00200000,-0.00900000,0.00370000,-0.01060000,0.00360000,-0.02080000,-0.00010000,1.00140000
$GPGGA,055022.00,3125.6213933,N,12037.7743723,E,1,17,0.9,6.356,M,7.80,M,,*66
$GPFPD,2292,539440.100,295.486,-0.011,1.157,31.42702133,120.62958640,13.372,-0.010,-0.002,-0.010,0.797,20,17,04*7A
$GTIMU,2292,539440.100,0.0099,-0.0231,0.0070,-0.0202,0.0002,0.9992,25.6*64
13:50::22.113,1702677040082,120.62958640,31.42702133,3478491.00536789,559859.13290672,295.48600000,6.00000000,-0.01000000,-0.00200000,-0.01000000,0.00990000,-0.02310000,0.00700000,-0.02020000,0.00020000,0.99920000
$GPFPD,2292,539440.200,295.486,-0.013,1.164,31.42702132,120.62958639,13.371,-0.010,0.000,-0.010,0.801,20,17,04*58
$GTIMU,2292,539440.200,-0.0154,0.0730,-0.0020,-0.0179,0.0010,0.9988,25.6*4C
13:50::22.212,1702677040182,120.62958639,31.42702132,3478491.00425364,559859.13196229,295.48600000,6.00000000,-0.01000000,0.00000000,-0.01000000,-0.01540000,0.07300000,-0.00200000,-0.01790000,0.00100000,0.99880000
$GPFPD,2292,539440.300,295.486,-0.011,1.162,31.42702133,120.62958637,13.371,-0.012,-0.002,-0.008,0.799,19,17,04*72
$GTIMU,2292,539440.300,0.0219,-0.0175,0.0047,-0.0231,-0.0008,1.0006,25.6*40
13:50::22.313,1702677040282,120.62958637,31.42702133,3478491.00535154,559859.13005436,295.48600000,6.00000000,-0.01200000,-0.00200000,-0.00800000,0.02190000,-0.01750000,0.00470000,-0.02310000,-0.00080000,1.00060000
$GPFPD,2292,539440.400,295.486,-0.012,1.162,31.42702136,120.62958631,13.371,-0.013,-0.000,-0.009,0.799,19,17,04*77
$GTIMU,2292,539440.400,-0.0008,0.0002,0.0036,-0.0196,0.0018,0.9978,25.6*68
13:50::22.413,1702677040382,120.62958631,31.42702136,3478491.00864525,559859.12433058,295.48600000,6.00000000,-0.01300000,0.00000000,-0.00900000,-0.00080000,0.00020000,0.00360000,-0.01960000,0.00180000,0.99780000
$GPFPD,2292,539440.500,295.486,-0.012,1.164,31.42702139,120.62958625,13.372,-0.013,-0.000,-0.008,0.797,19,17,04*76
$GTIMU,2292,539440.500,0.0043,0.0189,0.0002,-0.0198,0.0005,1.0009,25.6*4B
13:50::22.513,1702677040482,120.62958625,31.42702139,3478491.01193897,559859.11860680,295.48600000,6.00000000,-0.01300000,0.00000000,-0.00800000,0.00430000,0.01890000,0.00020000,-0.01980000,0.00050000,1.00090000
$GPFPD,2292,539440.600,295.486,-0.011,1.157,31.42702141,120.62958620,13.373,-0.013,-0.001,-0.007,0.797,19,17,04*73
$GTIMU,2292,539440.600,0.0076,-0.0646,0.0048,-0.0215,0.0005,1.0006,25.6*60
13:50::22.612,1702677040582,120.62958620,31.42702141,3478491.01412933,559859.11384016,295.48600000,6.00000000,-0.01300000,-0.00100000,-0.00700000,0.00760000,-0.06460000,0.00480000,-0.02150000,0.00050000,1.00060000
$GPFPD,2292,539440.700,295.486,-0.013,1.163,31.42702144,120.62958614,13.374,-0.012,0.001,-0.009,0.795,19,17,04*52
$GTIMU,2292,539440.700,-0.0166,0.0644,-0.0020,-0.0170,0.0000,0.9973,25.6*46
13:50::22.713,1702677040682,120.62958614,31.42702144,3478491.01742304,559859.10811638,295.48600000,6.00000000,-0.01200000,0.00100000,-0.00900000,-0.01660000,0.06440000,-0.00200000,-0.01700000,0.00000000,0.99730000
$GPFPD,2292,539440.800,295.486,-0.010,1.162,31.42702146,120.62958610,13.375,-0.012,-0.002,-0.008,0.795,19,17,04*77
$GTIMU,2292,539440.800,0.0293,-0.0129,0.0053,-0.0233,-0.0007,1.0010,25.6*4F
13:50::22.813,1702677040782,120.62958610,31.42702146,3478491.01961884,559859.10430053,295.48600000,6.00000000,-0.01200000,-0.00200000,-0.00800000,0.02930000,-0.01290000,0.00530000,-0.02330000,-0.00070000,1.00100000
$GPFPD,2292,539440.900,295.486,-0.011,1.159,31.42702146,120.62958608,13.374,-0.013,-0.001,-0.008,0.799,19,17,04*79
$GTIMU,2292,539440.900,-0.0009,-0.0311,0.0048,-0.0199,0.0020,0.9996,25.6*45
13:50::22.913,1702677040882,120.62958608,31.42702146,3478491.01960795,559859.10239895,295.48600000,6.00000000,-0.01300000,-0.00100000,-0.00800000,-0.00090000,-0.03110000,0.00480000,-0.01990000,0.00200000,0.99960000
$GPFPD,2292,539441.000,295.486,-0.013,1.164,31.42702146,120.62958607,13.373,-0.013,0.001,-0.009,0.799,19,17,04*59
$GTIMU,2292,539441.000,-0.0166,0.0570,-0.0049,-0.0179,0.0006,0.9987,25.6*4F
13:50::23.012,1702677040982,120.62958607,31.42702146,3478491.01960250,559859.10144817,295.48600000,6.00000000,-0.01300000,0.00100000,-0.00900000,-0.01660000,0.05700000,-0.00490000,-0.01790000,0.00060000,0.99870000
$GPGGA,055023.00,3125.6213988,N,12037.7743743,E,1,17,0.9,6.380,M,7.80,M,,*6A
$GPFPD,2292,539441.100,295.486,-0.010,1.159,31.42702146,120.62958606,13.372,-0.012,-0.002,-0.008,0.799,19,17,04*7B
$GTIMU,2292,539441.100,0.0286,-0.0453,0.0087,-0.0226,-0.0012,1.0009,25.6*4A
13:50::23.113,1702677041082,120.62958606,31.42702146,3478491.01959705,559859.10049738,295.48600000,6.00000000,-0.01200000,-0.00200000,-0.00800000,0.02860000,-0.04530000,0.00870000,-0.02260000,-0.00120000,1.00090000
$GPFPD,2292,539441.200,295.486,-0.012,1.162,31.42702146,120.62958604,13.372,-0.013,0.001,-0.009,0.800,19,17,04*51
$GTIMU,2292,539441.200,-0.0098,0.0286,0.0014,-0.0183,0.0022,0.9985,25.6*67
13:50::23.213,1702677041182,120.62958604,31.42702146,3478491.01958616,559859.09859581,295.48600000,6.00000000,-0.01300000,0.00100000,-0.00900000,-0.00980000,0.02860000,0.00140000,-0.01830000,0.00220000,0.99850000
$GPFPD,2292,539441.300,295.487,-0.012,1.164,31.42702145,120.62958603,13.370,-0.012,-0.004,-0.010,0.800,20,17,04*7A
$GTIMU,2292,539441.300,0.0009,0.0172,-0.0003,-0.0213,-0.0004,0.9999,25.7*4F
13:50::23.313,1702677041282,120.62958603,31.42702145,3478491.01847191,559859.09765137,295.48700000,6.00000000,-0.01200000,-0.00400000,-0.01000000,0.00090000,0.01720000,-0.00030000,-0.02130000,-0.00040000,0.99990000
$GPFPD,2292,539441.400,295.486,-0.011,1.157,31.42702141,120.62958600,13.365,-0.013,-0.006,-0.010,0.800,20,17,04*7F
$GTIMU,2292,539441.400,0.0161,-0.0641,0.0059,-0.0218,0.0001,0.9997,25.7*62
13:50::23.413,1702677041382,120.62958600,31.42702141,3478491.01402037,559859.09482442,295.48600000,6.00000000,-0.01300000,-0.00600000,-0.01000000,0.01610000,-0.06410000,0.00590000,-0.02180000,0.00010000,0.99970000
$GPFPD,2292,539441.500,295.487,-0.013,1.163,31.42702137,120.62958598,13.361,-0.012,-0.002,-0.011,0.800,20,17,04*79
$GTIMU,2292,539441.500,-0.0183,0.0627,-0.0043,-0.0166,0.0016,0.9990,25.7*42
13:50::23.513,1702677041482,120.62958598,31.42702137,3478491.00957428,559859.09294826,295.48700000,6.00000000,-0.01200000,-0.00200000,-0.01100000,-0.01830000,0.06270000,-0.00430000,-0.01660000,0.00160000,0.99900000
$GPFPD,2292,539441.600,295.486,-0.012,1.162,31.42702132,120.62958596,13.356,-0.012,-0.004,-0.010,0.800,20,17,04*73
$GTIMU,2292,539441.600,0.0145,-0.0078,0.0070,-0.0221,-0.0012,1.0008,25.7*43
13:50::23.613,1702677041582,120.62958596,31.42702132,3478491.00401939,559859.09107846,295.48600000,6.00000000,-0.01200000,-0.00400000,-0.01000000,0.01450000,-0.00780000,0.00700000,-0.02210000,-0.00120000,1.00080000
$GPFPD,2292,539441.700,295.486,-0.011,1.160,31.42702128,120.62958594,13.352,-0.013,-0.005,-0.010,0.799,20,17,04*71
$GTIMU,2292,539441.700,0.0122,-0.0243,0.0059,-0.0211,0.0009,0.9987,25.7*60
13:50::23.713,1702677041682,120.62958594,31.42702128,3478490.99957330,559859.08920229,295.48600000,6.00000000,-0.01300000,-0.00500000,-0.01000000,0.01220000,-0.02430000,0.00590000,-0.02110000,0.00090000,0.99870000
$GPFPD,2292,539441.800,295.487,-0.013,1.164,31.42702125,120.62958592,13.348,-0.013,-0.003,-0.011,0.799,20,17,04*7E
$GTIMU,2292,539441.800,-0.0206,0.0434,-0.0054,-0.0185,0.0016,0.9994,25.7*4E
13:50::23.813,1702677041782,120.62958592,31.42702125,3478490.99623600,559859.08731978,295.48700000,6.00000000,-0.01300000,-0.00300000,-0.01100000,-0.02060000,0.04340000,-0.00540000,-0.01850000,0.00160000,0.99940000
$GPFPD,2292,539441.900,295.486,-0.012,1.159,31.42702124,120.62958590,13.347,-0.013,-0.005,-0.010,0.799,20,17,04*7A
$GTIMU,2292,539441.900,0.0161,-0.0510,0.0087,-0.0223,-0.0006,1.0005,25.7*43
13:50::23.913,1702677041882,120.62958590,31.42702124,3478490.99511631,559859.08542456,295.48600000,6.00000000,-0.01300000,-0.00500000,-0.01000000,0.01610000,-0.05100000,0.00870000,-0.02230000,-0.00060000,1.00050000
$GPFPD,2292,539442.000,295.486,-0.012,1.160,31.42702124,120.62958589,13.346,-0.013,-0.004,-0.011,0.799,20,17,04*73
$GTIMU,2292,539442.000,-0.0031,0.0155,-0.0009,-0.0183,0.0012,0.9980,25.7*4E
13:50::24.013,1702677041982,120.62958589,31.42702124,3478490.99511086,559859.08447377,295.48600000,6.00000000,-0.01300000,-0.00400000,-0.01100000,-0.00310000,0.01550000,-0.00090000,-0.01830000,0.00120000,0.99800000
$GPGGA,055024.00,3125.6214074,N,12037.7743763,E,1,17,0.9,6.458,M,7.80,M,,*60
$GPFPD,2292,539442.100,295.487,-0.014,1.164,31.42702124,120.62958588,13.345,-0.012,-0.003,-0.009,0.799,20,17,04*7C
$GTIMU,2292,539442.100,-0.0081,0.0434,-0.0020,-0.0193,-0.0002,1.0017,25.7*6F
13:50::24.113,1702677042082,120.62958588,31.42702124,3478490.99510541,559859.08352299,295.48700000,6.00000000,-0.01200000,-0.00300000,-0.00900000,-0.00810000,0.04340000,-0.00200000,-0.01930000,-0.00020000,1.00170000
$GPFPD,2292,539442.200,295.486,-0.012,1.159,31.42702123,120.62958586,13.344,-0.012,-0.005,-0.010,0.800,19,17,04*75
$GTIMU,2292,539442.200,0.0207,-0.0533,0.0156,-0.0225,-0.0006,0.9992,25.7*4D
13:50::24.213,1702677042182,120.62958586,31.42702123,3478490.99398572,559859.08162777,295.48600000,6.00000000,-0.01200000,-0.00500000,-0.01000000,0.02070000,-0.05330000,0.01560000,-0.02250000,-0.00060000,0.99920000
$GPFPD,2292,539442.300,295.487,-0.014,1.162,31.42702124,120.62958583,13.343,-0.018,-0.003,-0.011,0.801,18,17,04*73
$GTIMU,2292,539442.300,-0.0138,0.0377,-0.0100,-0.0192,0.0020,0.9978,25.7*49
13:50::24.313,1702677042282,120.62958583,31.42702124,3478490.99507818,559859.07876905,295.48700000,6.00000000,-0.01800000,-0.00300000,-0.01100000,-0.01380000,0.03770000,-0.01000000,-0.01920000,0.00200000,0.99780000
$GPFPD,2292,539442.400,295.487,-0.014,1.162,31.42702126,120.62958572,13.342,-0.018,-0.003,-0.010,0.801,18,17,04*78
$GTIMU,2292,539442.400,-0.0048,-0.0038,0.0071,-0.0202,0.0003,1.0011,25.7*42
13:50::24.413,1702677042382,120.62958572,31.42702126,3478490.99723585,559859.06829769,295.48700000,6.00000000,-0.01800000,-0.00300000,-0.01000000,-0.00480000,-0.00380000,0.00710000,-0.02020000,0.00030000,1.00110000
$GPFPD,2292,539442.500,295.487,-0.014,1.158,31.42702129,120.62958562,13.342,-0.018,-0.004,-0.011,0.801,19,17,04*79
$GTIMU,2292,539442.500,0.0042,-0.0373,0.0008,-0.0212,0.0001,0.9987,25.7*6B
13:50::24.512,1702677042482,120.62958562,31.42702129,3478491.00050777,559859.05877077,295.48700000,6.00000000,-0.01800000,-0.00400000,-0.01100000,0.00420000,-0.03730000,0.00080000,-0.02120000,0.00010000,0.99870000
$GPFPD,2292,539442.600,295.488,-0.015,1.166,31.42702131,120.62958551,13.341,-0.017,-0.000,-0.011,0.801,19,17,04*78
$GTIMU,2292,539442.600,-0.0035,0.0855,-0.0055,-0.0167,0.0013,0.9996,25.7*40
13:50::24.613,1702677042582,120.62958551,31.42702131,3478491.00266544,559859.04829940,295.48800000,6.00000000,-0.01700000,0.00000000,-0.01100000,-0.00350000,0.08550000,-0.00550000,-0.01670000,0.00130000,0.99960000
$GPFPD,2292,539442.700,295.486,-0.015,1.164,31.42702134,120.62958541,13.340,-0.017,-0.005,-0.009,0.797,19,17,04*7C
$GTIMU,2292,539442.700,0.0037,-0.0192,0.0150,-0.0241,-0.0015,1.0013,25.7*48
13:50::24.713,1702677042682,120.62958541,31.42702134,3478491.00593736,559859.03877248,295.48600000,6.00000000,-0.01700000,-0.00500000,-0.00900000,0.00370000,-0.01920000,0.01500000,-0.02410000,-0.00150000,1.00130000
$GPFPD,2292,539442.800,295.486,-0.015,1.159,31.42702136,120.62958532,13.340,-0.018,-0.004,-0.011,0.797,19,17,04*7C
$GTIMU,2292,539442.800,-0.0009,-0.0470,0.0019,-0.0202,0.0012,0.9979,25.7*42
13:50::24.813,1702677042782,120.62958532,31.42702136,3478491.00810593,559859.03020269,295.48600000,6.00000000,-0.01800000,-0.00400000,-0.01100000,-0.00090000,-0.04700000,0.00190000,-0.02020000,0.00120000,0.99790000
$GPFPD,2292,539442.900,295.487,-0.018,1.164,31.42702135,120.62958530,13.339,-0.018,-0.002,-0.011,0.800,19,17,04*77
$GTIMU,2292,539442.900,-0.0263,0.0508,-0.0060,-0.0177,0.0013,0.9997,25.7*4D
13:50::24.913,1702677042882,120.62958530,31.42702135,3478491.00698624,559859.02830747,295.48700000,6.00000000,-0.01800000,-0.00200000,-0.01100000,-0.02630000,0.05080000,-0.00600000,-0.01770000,0.00130000,0.99970000
$GPFPD,2292,539443.000,295.487,-0.017,1.159,31.42702135,120.62958528,13.338,-0.018,-0.005,-0.009,0.800,19,17,04*78
$GTIMU,2292,539443.000,0.0122,-0.0504,0.0076,-0.0231,-0.0016,1.0011,25.7*43
13:50::25.013,1702677042982,120.62958528,31.42702135,3478491.00697534,559859.02640590,295.48700000,6.00000000,-0.01800000,-0.00500000,-0.00900000,0.01220000,-0.05040000,0.00760000,-0.02310000,-0.00160000,1.00110000
$GPGGA,055025.00,3125.6213191,N,12037.7744545,E,1,17,0.9,6.409,M,7.80,M,,*69
$GPFPD,2292,539443.100,295.487,-0.019,1.160,31.42702135,120.62958527,13.336,-0.019,-0.002,-0.011,0.800,19,17,04*73
$GTIMU,2292,539443.100,-0.0133,0.0150,-0.0032,-0.0177,0.0032,0.9981,25.7*48
13:50::25.113,1702677043082,120.62958527,31.42702135,3478491.00696989,559859.02545511,295.48700000,6.00000000,-0.01900000,-0.00200000,-0.01100000,-0.01330000,0.01500000,-0.00320000,-0.01770000,0.00320000,0.99810000
$GPFPD,2292,539443.200,295.487,-0.020,1.159,31.42702135,120.62958525,13.335,-0.019,-0.004,-0.010,0.798,19,17,04*78
$GTIMU,2292,539443.200,-0.0071,-0.0135,0.0071,-0.0217,-0.0012,0.9999,25.7*6B
13:50::25.213,1702677043182,120.62958525,31.42702135,3478491.00695900,559859.02355354,295.48700000,6.00000000,-0.01900000,-0.00400000,-0.01000000,-0.00710000,-0.01350000,0.00710000,-0.02170000,-0.00120000,0.99990000
$GPFPD,2292,539443.300,295.487,-0.019,1.153,31.42702135,120.62958524,13.333,-0.015,-0.002,-0.013,0.800,20,17,04*73
$GTIMU,2292,539443.300,0.0110,-0.0572,0.0019,-0.0204,-0.0010,1.0003,25.7*4A
13:50::25.313,1702677043282,120.62958524,31.42702135,3478491.00695355,559859.02260275,295.48700000,6.00000000,-0.01500000,-0.00200000,-0.01300000,0.01100000,-0.05720000,0.00190000,-0.02040000,-0.00100000,1.00030000
$GPFPD,2292,539443.400,295.488,-0.022,1.159,31.42702139,120.62958526,13.327,-0.015,0.001,-0.014,0.800,20,17,04*5B
$GTIMU,2292,539443.400,-0.0206,0.0599,-0.0043,-0.0172,0.0011,0.9985,25.7*4F
13:50::25.413,1702677043382,120.62958526,31.42702139,3478491.01139964,559859.02447891,295.48800000,6.00000000,-0.01500000,0.00100000,-0.01400000,-0.02060000,0.05990000,-0.00430000,-0.01720000,0.00110000,0.99850000
$GPFPD,2292,539443.500,295.487,-0.020,1.157,31.42702143,120.62958528,13.321,-0.016,-0.001,-0.013,0.799,20,17,04*7A
$GTIMU,2292,539443.500,0.0196,-0.0141,0.0076,-0.0227,-0.0001,1.0002,25.7*4F
13:50::25.513,1702677043482,120.62958528,31.42702143,3478491.01584573,559859.02635507,295.48700000,6.00000000,-0.01600000,-0.00100000,-0.01300000,0.01960000,-0.01410000,0.00760000,-0.02270000,-0.00010000,1.00020000
$GPFPD,2292,539443.600,295.487,-0.021,1.157,31.42702146,120.62958530,13.315,-0.017,-0.000,-0.014,0.799,20,17,04*74
$GTIMU,2292,539443.600,-0.0093,-0.0055,0.0031,-0.0196,0.0022,0.9988,25.7*44
13:50::25.613,1702677043582,120.62958530,31.42702146,3478491.01918303,559859.02823759,295.48700000,6.00000000,-0.01700000,0.00000000,-0.01400000,-0.00930000,-0.00550000,0.00310000,-0.01960000,0.00220000,0.99880000
$GPFPD,2292,539443.700,295.488,-0.022,1.160,31.42702150,120.62958532,13.309,-0.016,0.000,-0.014,0.799,20,17,04*59
$GTIMU,2292,539443.700,-0.0064,0.0332,-0.0043,-0.0190,-0.0009,0.9999,25.7*68
13:50::25.713,1702677043682,120.62958532,31.42702150,3478491.02362912,559859.03011375,295.48800000,6.00000000,-0.01600000,0.00000000,-0.01400000,-0.00640000,0.03320000,-0.00430000,-0.01900000,-0.00090000,0.99990000
$GPFPD,2292,539443.800,295.487,-0.020,1.155,31.42702153,120.62958534,13.304,-0.015,-0.002,-0.013,0.799,20,17,04*7E
$GTIMU,2292,539443.800,0.0264,-0.0459,0.0081,-0.0217,-0.0009,1.0003,25.7*42
13:50::25.813,1702677043782,120.62958534,31.42702153,3478491.02696641,559859.03199626,295.48700000,6.00000000,-0.01500000,-0.00200000,-0.01300000,0.02640000,-0.04590000,0.00810000,-0.02170000,-0.00090000,1.00030000
$GPFPD,2292,539443.900,295.488,-0.022,1.159,31.42702153,120.62958532,13.303,-0.016,0.000,-0.014,0.800,20,17,04*5B
$GTIMU,2292,539443.900,-0.0138,0.0434,0.0003,-0.0187,0.0020,0.9984,25.7*6A
13:50::25.913,1702677043882,120.62958532,31.42702153,3478491.02695552,559859.03009469,295.48800000,6.00000000,-0.01600000,0.00000000,-0.01400000,-0.01380000,0.04340000,0.00030000,-0.01870000,0.00200000,0.99840000
$GPFPD,2292,539444.000,295.487,-0.022,1.158,31.42702152,120.62958530,13.301,-0.016,-0.001,-0.014,0.800,20,17,04*76
$GTIMU,2292,539444.000,0.0032,-0.0084,0.0065,-0.0214,-0.0012,1.0001,25.7*49
13:50::26.013,1702677043982,120.62958530,31.42702152,3478491.02583582,559859.02819947,295.48700000,6.00000000,-0.01600000,-0.00100000,-0.01400000,0.00320000,-0.00840000,0.00650000,-0.02140000,-0.00120000,1.00010000
$GPGGA,055026.00,3125.6213131,N,12037.7744329,E,1,17,0.9,6.318,M,7.80,M,,*6B
$GPFPD,2292,539444.100,295.487,-0.021,1.154,31.42702152,120.62958529,13.300,-0.016,-0.001,-0.014,0.800,20,17,04*71
$GTIMU,2292,539444.100,0.0122,-0.0408,-0.0004,-0.0203,0.0008,0.9992,25.7*49
13:50::26.112,1702677044082,120.62958529,31.42702152,3478491.02583037,559859.02724868,295.48700000,6.00000000,-0.01600000,-0.00100000,-0.01400000,0.01220000,-0.04080000,-0.00040000,-0.02030000,0.00080000,0.99920000
$GPFPD,2292,539444.200,295.488,-0.023,1.160,31.42702152,120.62958527,13.298,-0.017,0.001,-0.014,0.798,20,17,04*54
$GTIMU,2292,539444.200,-0.0160,0.0622,-0.0054,-0.0177,0.0015,0.9995,25.7*48
13:50::26.213,1702677044182,120.62958527,31.42702152,3478491.02581948,559859.02534711,295.48800000,6.00000000,-0.01700000,0.00100000,-0.01400000,-0.01600000,0.06220000,-0.00540000,-0.01770000,0.00150000,0.99950000
$GPFPD,2292,539444.300,295.487,-0.021,1.156,31.42702152,120.62958524,13.295,-0.020,-0.002,-0.017,0.799,19,17,04*71
$GTIMU,2292,539444.300,0.0190,-0.0351,0.0122,-0.0223,-0.0010,1.0012,25.7*4E
13:50::26.313,1702677044282,120.62958524,31.42702152,3478491.02580314,559859.02249475,295.48700000,6.00000000,-0.02000000,-0.00200000,-0.01700000,0.01900000,-0.03510000,0.01220000,-0.02230000,-0.00100000,1.00120000
$GPFPD,2292,539444.400,295.488,-0.022,1.155,31.42702151,120.62958515,13.287,-0.021,-0.002,-0.018,0.799,19,17,04*75
$GTIMU,2292,539444.400,-0.0014,-0.0112,0.0014,-0.0202,0.0007,0.9979,25.7*4C
13:50::26.413,1702677044382,120.62958515,31.42702151,3478491.02464531,559859.01394402,295.48800000,6.00000000,-0.02100000,-0.00200000,-0.01800000,-0.00140000,-0.01120000,0.00140000,-0.02020000,0.00070000,0.99790000
$GPFPD,2292,539444.500,295.488,-0.023,1.160,31.42702150,120.62958506,13.279,-0.020,-0.000,-0.018,0.799,19,17,04*72
$GTIMU,2292,539444.500,-0.0053,0.0508,-0.0038,-0.0184,-0.0001,0.9998,25.7*66
13:50::26.514,1702677044482,120.62958506,31.42702150,3478491.02348748,559859.00539329,295.48800000,6.00000000,-0.02000000,0.00000000,-0.01800000,-0.00530000,0.05080000,-0.00380000,-0.01840000,-0.00010000,0.99980000
$GPFPD,2292,539444.600,295.487,-0.020,1.154,31.42702149,120.62958498,13.270,-0.021,-0.003,-0.017,0.799,19,17,04*70
$GTIMU,2292,539444.600,0.0241,-0.0567,0.0110,-0.0227,-0.0002,1.0004,25.7*46
13:50::26.613,1702677044582,120.62958498,31.42702149,3478491.02233510,559858.99779335,295.48700000,6.00000000,-0.02100000,-0.00300000,-0.01700000,0.02410000,-0.05670000,0.01100000,-0.02270000,-0.00020000,1.00040000
$GPFPD,2292,539444.700,295.488,-0.023,1.158,31.42702149,120.62958489,13.262,-0.021,0.000,-0.018,0.798,19,17,04*52
$GTIMU,2292,539444.700,-0.0184,0.0343,-0.0077,-0.0174,0.0019,0.9986,25.7*49
13:50::26.713,1702677044682,120.62958489,31.42702149,3478491.02228607,559858.98923627,295.48800000,6.00000000,-0.02100000,0.00000000,-0.01800000,-0.01840000,0.03430000,-0.00770000,-0.01740000,0.00190000,0.99860000
$GPFPD,2292,539444.800,295.487,-0.024,1.158,31.42702148,120.62958482,13.255,-0.021,-0.001,-0.017,0.798,19,17,04*78
$GTIMU,2292,539444.800,-0.0099,0.0024,0.0111,-0.0215,-0.0007,1.0011,25.7*4C
13:50::26.813,1702677044782,120.62958482,31.42702148,3478491.02113914,559858.98258712,295.48700000,6.00000000,-0.02100000,-0.00100000,-0.01700000,-0.00990000,0.00240000,0.01110000,-0.02150000,-0.00070000,1.00110000
$GPFPD,2292,539444.900,295.487,-0.023,1.154,31.42702148,120.62958480,13.253,-0.021,-0.003,-0.019,0.800,19,17,04*74
$GTIMU,2292,539444.900,0.0156,-0.0317,0.0042,-0.0215,-0.0002,0.9978,25.7*40
13:50::26.913,1702677044882,120.62958480,31.42702148,3478491.02112824,559858.98068554,295.48700000,6.00000000,-0.02100000,-0.00300000,-0.01900000,0.01560000,-0.03170000,0.00420000,-0.02150000,-0.00020000,0.99780000
$GPFPD,2292,539445.000,295.489,-0.025,1.159,31.42702148,120.62958477,13.252,-0.021,0.000,-0.018,0.800,19,17,04*5F
$GTIMU,2292,539445.000,-0.0161,0.0491,-0.0111,-0.0175,0.0017,1.0006,25.7*4B
13:50::27.013,1702677044982,120.62958477,31.42702148,3478491.02111190,559858.97783318,295.48900000,6.00000000,-0.02100000,0.00000000,-0.01800000,-0.01610000,0.04910000,-0.01110000,-0.01750000,0.00170000,1.00060000
$GPGGA,055027.00,3125.6213040,N,12037.7744154,E,1,17,0.9,6.259,M,7.80,M,,*61
$GPFPD,2292,539445.100,295.487,-0.022,1.155,31.42702148,120.62958475,13.250,-0.020,-0.002,-0.017,0.800,19,17,04*7A
$GTIMU,2292,539445.100,0.0247,-0.0351,0.0196,-0.0214,-0.0020,1.0008,25.7*47
13:50::27.112,1702677045082,120.62958475,31.42702148,3478491.02110100,559858.97593161,295.48700000,6.00000000,-0.02000000,-0.00200000,-0.01700000,0.02470000,-0.03510000,0.01960000,-0.02140000,-0.00200000,1.00080000
$GPFPD,2292,539445.200,295.488,-0.022,1.155,31.42702147,120.62958473,13.248,-0.021,-0.002,-0.019,0.798,19,17,04*77
$GTIMU,2292,539445.200,0.0037,0.0008,-0.0049,-0.0204,0.0011,0.9974,25.7*69
13:50::27.212,1702677045182,120.62958473,31.42702147,3478491.01998131,559858.97403639,295.48800000,6.00000000,-0.02100000,-0.00200000,-0.01900000,0.00370000,0.00080000,-0.00490000,-0.02040000,0.00110000,0.99740000
$GPFPD,2292,539445.300,295.489,-0.023,1.160,31.42702147,120.62958469,13.244,-0.025,-0.000,-0.022,0.800,19,16,04*76
$GTIMU,2292,539445.300,-0.0019,0.0514,-0.0089,-0.0182,0.0013,1.0007,25.7*47
13:50::27.313,1702677045282,120.62958469,31.42702147,3478491.01995952,559858.97023324,295.48900000,6.00000000,-0.02500000,0.00000000,-0.02200000,-0.00190000,0.05140000,-0.00890000,-0.01820000,0.00130000,1.00070000
$GPFPD,2292,539445.400,295.487,-0.022,1.155,31.42702146,120.62958460,13.235,-0.025,-0.003,-0.021,0.800,19,16,04*76
$GTIMU,2292,539445.400,0.0145,-0.0516,0.0253,-0.0230,-0.0008,1.0005,25.7*4D
13:50::27.412,1702677045382,120.62958460,31.42702146,3478491.01880169,559858.96168251,295.48700000,6.00000000,-0.02500000,-0.00300000,-0.02100000,0.01450000,-0.05160000,0.02530000,-0.02300000,-0.00080000,1.00050000
$GPFPD,2292,539445.500,295.489,-0.023,1.158,31.42702145,120.62958451,13.226,-0.025,-0.001,-0.023,0.801,19,16,04*77
$GTIMU,2292,539445.500,-0.0042,0.0366,-0.0152,-0.0179,0.0006,0.9971,25.7*4B
13:50::27.513,1702677045482,120.62958451,31.42702145,3478491.01764386,559858.95313179,295.48900000,6.00000000,-0.02500000,-0.00100000,-0.02300000,-0.00420000,0.03660000,-0.01520000,-0.01790000,0.00060000,0.99710000
$GPFPD,2292,539445.600,295.488,-0.021,1.160,31.42702144,120.62958442,13.217,-0.025,-0.002,-0.021,0.801,19,16,04*7C
$GTIMU,2292,539445.600,0.0191,0.0132,0.0064,-0.0205,-0.0002,1.0019,25.7*6E
13:50::27.612,1702677045582,120.62958442,31.42702144,3478491.01648603,559858.94458106,295.48800000,6.00000000,-0.02500000,-0.00200000,-0.02100000,0.01910000,0.01320000,0.00640000,-0.02050000,-0.00020000,1.00190000
$GPFPD,2292,539445.700,295.487,-0.021,1.155,31.42702143,120.62958433,13.208,-0.026,-0.003,-0.022,0.801,19,16,04*7A
$GTIMU,2292,539445.700,0.0048,-0.0465,0.0150,-0.0220,0.0010,0.9990,25.7*6F
13:50::27.713,1702677045682,120.62958433,31.42702143,3478491.01532820,559858.93603033,295.48700000,6.00000000,-0.02600000,-0.00300000,-0.02200000,0.00480000,-0.04650000,0.01500000,-0.02200000,0.00100000,0.99900000
$GPFPD,2292,539445.800,295.489,-0.023,1.160,31.42702143,120.62958425,13.201,-0.026,-0.001,-0.023,0.801,19,16,04*72
$GTIMU,2292,539445.800,-0.0133,0.0480,-0.0151,-0.0179,0.0007,0.9982,25.7*40
13:50::27.813,1702677045782,120.62958425,31.42702143,3478491.01528462,559858.92842404,295.48900000,6.00000000,-0.02600000,-0.00100000,-0.02300000,-0.01330000,0.04800000,-0.01510000,-0.01790000,0.00070000,0.99820000
$GPFPD,2292,539445.900,295.488,-0.020,1.158,31.42702142,120.62958423,13.199,-0.025,-0.002,-0.021,0.800,19,16,04*7C
$GTIMU,2292,539445.900,0.0242,-0.0152,0.0099,-0.0210,-0.0013,1.0015,25.7*4D
13:50::27.913,1702677045882,120.62958423,31.42702142,3478491.01416493,559858.92652882,295.48800000,6.00000000,-0.02500000,-0.00200000,-0.02100000,0.02420000,-0.01520000,0.00990000,-0.02100000,-0.00130000,1.00150000
$GPFPD,2292,539446.000,295.487,-0.020,1.158,31.42702142,120.62958420,13.197,-0.025,-0.003,-0.023,0.800,19,16,04*77
$GTIMU,2292,539446.000,0.0026,-0.0015,0.0099,-0.0207,0.0005,0.9984,25.7*60
13:50::28.012,1702677045982,120.62958420,31.42702142,3478491.01414858,559858.92367646,295.48700000,6.00000000,-0.02500000,-0.00300000,-0.02300000,0.00260000,-0.00150000,0.00990000,-0.02070000,0.00050000,0.99840000
$GPGGA,055028.00,3125.6210842,N,12037.7751308,E,1,16,1.1,8.394,M,7.80,M,,*6E
$GPFPD,2292,539446.100,295.488,-0.021,1.163,31.42702142,120.62958417,13.194,-0.025,-0.001,-0.023,0.800,19,16,04*75
$GTIMU,2292,539446.100,-0.0007,0.0542,-0.0089,-0.0187,0.0010,0.9988,25.7*4A
13:50::28.113,1702677046082,120.62958417,31.42702142,3478491.01413224,559858.92082410,295.48800000,6.00000000,-0.02500000,-0.00100000,-0.02300000,-0.00070000,0.05420000,-0.00890000,-0.01870000,0.00100000,0.99880000
$GPFPD,2292,539446.200,295.488,-0.019,1.158,31.42702142,120.62958415,13.192,-0.026,-0.003,-0.022,0.800,19,16,04*71
$GTIMU,2292,539446.200,0.0258,-0.0436,0.0093,-0.0223,-0.0001,1.0011,25.7*44
13:50::28.213,1702677046182,120.62958415,31.42702142,3478491.01412134,559858.91892252,295.48800000,6.00000000,-0.02600000,-0.00300000,-0.02200000,0.02580000,-0.04360000,0.00930000,-0.02230000,-0.00010000,1.00110000
$GPFPD,2292,539446.300,295.489,-0.020,1.163,31.42702141,120.62958415,13.193,-0.023,-0.001,-0.019,0.798,18,16,04*71
$GTIMU,2292,539446.300,-0.0149,0.0519,-0.0020,-0.0176,0.0020,0.9985,25.7*4E
13:50::28.313,1702677046282,120.62958415,31.42702141,3478491.01301255,559858.91892888,295.48900000,6.00000000,-0.02300000,-0.00100000,-0.01900000,-0.01490000,0.05190000,-0.00200000,-0.01760000,0.00200000,0.99850000
$GPFPD,2292,539446.400,295.488,-0.019,1.164,31.42702137,120.62958424,13.204,-0.021,-0.003,-0.019,0.798,18,16,04*74
$GTIMU,2292,539446.400,0.0163,0.0070,0.0104,-0.0216,-0.0028,1.0002,25.7*62
13:50::28.413,1702677046382,120.62958424,31.42702137,3478491.00862638,559858.92751137,295.48800000,6.00000000,-0.02100000,-0.00300000,-0.01900000,0.01630000,0.00700000,0.01040000,-0.02160000,-0.00280000,1.00020000
$GPFPD,2292,539446.500,295.487,-0.018,1.163,31.42702133,120.62958434,13.215,-0.022,-0.004,-0.019,0.797,18,16,04*72
$GTIMU,2292,539446.500,0.0185,-0.0033,0.0082,-0.0207,0.0010,0.9997,25.7*65
13:50::28.512,1702677046482,120.62958434,31.42702133,3478491.00424566,559858.93704465,295.48700000,6.00000000,-0.02200000,-0.00400000,-0.01900000,0.01850000,-0.00330000,0.00820000,-0.02070000,0.00100000,0.99970000
$GPFPD,2292,539446.600,295.489,-0.019,1.170,31.42702129,120.62958444,13.226,-0.024,-0.001,-0.019,0.797,18,16,04*73
$GTIMU,2292,539446.600,-0.0149,0.0679,-0.0157,-0.0186,0.0027,0.9994,25.7*47
13:50::28.613,1702677046582,120.62958444,31.42702129,3478490.99986494,559858.94657793,295.48900000,6.00000000,-0.02400000,-0.00100000,-0.01900000,-0.01490000,0.06790000,-0.01570000,-0.01860000,0.00270000,0.99940000
$GPFPD,2292,539446.700,295.488,-0.019,1.165,31.42702125,120.62958453,13.237,-0.024,-0.003,-0.018,0.799,18,16,04*70
$GTIMU,2292,539446.700,0.0116,-0.0470,0.0150,-0.0225,-0.0004,1.0006,25.7*41
13:50::28.713,1702677046682,120.62958453,31.42702125,3478490.99547877,559858.95516042,295.48800000,6.00000000,-0.02400000,-0.00300000,-0.01800000,0.01160000,-0.04700000,0.01500000,-0.02250000,-0.00040000,1.00060000
$GPFPD,2292,539446.800,295.487,-0.019,1.164,31.42702122,120.62958460,13.244,-0.023,-0.003,-0.020,0.799,18,16,04*7E
$GTIMU,2292,539446.800,0.0003,-0.0072,0.0082,-0.0199,-0.0007,0.9977,25.7*43
13:50::28.813,1702677046782,120.62958460,31.42702122,3478490.99219051,559858.96183499,295.48700000,6.00000000,-0.02300000,-0.00300000,-0.02000000,0.00030000,-0.00720000,0.00820000,-0.01990000,-0.00070000,0.99770000
$GPFPD,2292,539446.900,295.489,-0.017,1.165,31.42702122,120.62958457,13.242,-0.024,-0.003,-0.019,0.798,18,16,04*70
$GTIMU,2292,539446.900,0.0185,0.0053,-0.0158,-0.0200,0.0011,1.0007,25.7*67
13:50::28.913,1702677046882,120.62958457,31.42702122,3478490.99217417,559858.95898263,295.48900000,6.00000000,-0.02400000,-0.00300000,-0.01900000,0.01850000,0.00530000,-0.01580000,-0.02000000,0.00110000,1.00070000
$GPFPD,2292,539447.000,295.488,-0.017,1.161,31.42702121,120.62958455,13.240,-0.022,-0.003,-0.018,0.798,18,16,04*79
$GTIMU,2292,539447.000,0.0020,-0.0396,0.0173,-0.0200,-0.0010,1.0009,25.7*40
13:50::29.013,1702677046982,120.62958455,31.42702121,3478490.99105447,559858.95708741,295.48800000,6.00000000,-0.02200000,-0.00300000,-0.01800000,0.00200000,-0.03960000,0.01730000,-0.02000000,-0.00100000,1.00090000
$GPGGA,055029.00,3125.6210849,N,12037.7751321,E,1,16,1.1,8.374,M,7.80,M,,*61
$GPFPD,2292,539447.100,295.487,-0.018,1.166,31.42702121,120.62958452,13.239,-0.022,-0.002,-0.020,0.798,18,16,04*7C
$GTIMU,2292,539447.100,-0.0052,0.0519,0.0048,-0.0192,0.0005,0.9971,25.7*63
13:50::29.112,1702677047082,120.62958452,31.42702121,3478490.99103813,559858.95423505,295.48700000,6.00000000,-0.02200000,-0.00200000,-0.02000000,-0.00520000,0.05190000,0.00480000,-0.01920000,0.00050000,0.99710000
$GPFPD,2292,539447.200,295.489,-0.017,1.168,31.42702121,120.62958450,13.237,-0.023,-0.003,-0.019,0.797,18,16,04*79
$GTIMU,2292,539447.200,0.0134,0.0235,-0.0158,-0.0213,0.0006,1.0007,25.7*61
13:50::29.213,1702677047182,120.62958450,31.42702121,3478490.99102723,559858.95233347,295.48900000,6.00000000,-0.02300000,-0.00300000,-0.01900000,0.01340000,0.02350000,-0.01580000,-0.02130000,0.00060000,1.00070000
$GPFPD,2292,539447.300,295.488,-0.016,1.162,31.42702120,120.62958451,13.237,-0.022,-0.004,-0.017,0.800,18,16,04*7B
$GTIMU,2292,539447.300,0.0111,-0.0578,0.0219,-0.0213,0.0022,1.0008,25.7*66
13:50::29.313,1702677047282,120.62958451,31.42702120,3478490.98992388,559858.95329061,295.48800000,6.00000000,-0.02200000,-0.00400000,-0.01700000,0.01110000,-0.05780000,0.02190000,-0.02130000,0.00220000,1.00080000
$GPFPD,2292,539447.400,295.489,-0.019,1.167,31.42702115,120.62958461,13.243,-0.021,-0.003,-0.020,0.800,18,16,04*71
$GTIMU,2292,539447.400,-0.0274,0.0502,-0.0071,-0.0183,0.0004,0.9972,25.7*4F
13:50::29.413,1702677047382,120.62958461,31.42702115,3478490.98443436,559858.96283025,295.48900000,6.00000000,-0.02100000,-0.00300000,-0.02000000,-0.02740000,0.05020000,-0.00710000,-0.01830000,0.00040000,0.99720000
$GPFPD,2292,539447.500,295.489,-0.017,1.165,31.42702111,120.62958471,13.249,-0.019,-0.005,-0.019,0.798,18,16,04*7A
$GTIMU,2292,539447.500,0.0304,-0.0140,-0.0004,-0.0217,-0.0022,1.0007,25.7*6C
13:50::29.513,1702677047482,120.62958471,31.42702111,3478490.98005364,559858.97236353,295.48900000,6.00000000,-0.01900000,-0.00500000,-0.01900000,0.03040000,-0.01400000,-0.00040000,-0.02170000,-0.00220000,1.00070000
$GPFPD,2292,539447.600,295.488,-0.017,1.166,31.42702106,120.62958482,13.255,-0.021,-0.003,-0.018,0.798,18,16,04*70
$GTIMU,2292,539447.600,-0.0042,0.0104,0.0128,-0.0192,0.0021,0.9999,25.7*6A
13:50::29.613,1702677047582,120.62958482,31.42702106,3478490.97456957,559858.98285395,295.48800000,6.00000000,-0.02100000,-0.00300000,-0.01800000,-0.00420000,0.01040000,0.01280000,-0.01920000,0.00210000,0.99990000
$GPFPD,2292,539447.700,295.489,-0.017,1.164,31.42702102,120.62958492,13.260,-0.021,-0.005,-0.019,0.798,18,16,04*76
$GTIMU,2292,539447.700,0.0065,-0.0186,-0.0038,-0.0224,-0.0002,0.9994,25.7*66
13:50::29.713,1702677047682,120.62958492,31.42702102,3478490.97018885,559858.99238723,295.48900000,6.00000000,-0.02100000,-0.00500000,-0.01900000,0.00650000,-0.01860000,-0.00380000,-0.02240000,-0.00020000,0.99940000
$GPFPD,2292,539447.800,295.489,-0.018,1.159,31.42702099,120.62958499,13.264,-0.022,-0.004,-0.019,0.798,18,16,04*76
$GTIMU,2292,539447.800,-0.0049,-0.0453,-0.0003,-0.0187,0.0016,0.9989,25.7*61
13:50::29.813,1702677047782,120.62958499,31.42702099,3478490.96690059,559858.99906179,295.48900000,6.00000000,-0.02200000,-0.00400000,-0.01900000,-0.00490000,-0.04530000,-0.00030000,-0.01870000,0.00160000,0.99890000
$GPFPD,2292,539447.900,295.489,-0.016,1.163,31.42702098,120.62958497,13.263,-0.019,-0.004,-0.018,0.798,18,16,04*71
$GTIMU,2292,539447.900,0.0220,0.0326,0.0059,-0.0191,-0.0018,1.0006,25.7*68
13:50::29.913,1702677047882,120.62958497,31.42702098,3478490.96578090,559858.99716657,295.48900000,6.00000000,-0.01900000,-0.00400000,-0.01800000,0.02200000,0.03260000,0.00590000,-0.01910000,-0.00180000,1.00060000
$GPFPD,2292,539448.000,295.489,-0.014,1.165,31.42702098,120.62958495,13.261,-0.024,-0.001,-0.021,0.798,18,16,04*72
$GTIMU,2292,539448.000,0.0191,0.0309,0.0013,-0.0202,0.0056,0.9968,25.7*43
13:50::30.013,1702677047982,120.62958495,31.42702098,3478490.96577000,559858.99526500,295.48900000,6.00000000,-0.02400000,-0.00100000,-0.02100000,0.01910000,0.03090000,0.00130000,-0.02020000,0.00560000,0.99680000
$GPGGA,055030.00,3125.6210701,N,12037.7751260,E,1,16,1.1,8.297,M,7.80,M,,*62
$GPFPD,2292,539448.100,295.489,-0.009,1.167,31.42702098,120.62958492,13.258,-0.024,-0.003,-0.020,0.798,18,16,04*73
$GTIMU,2292,539448.100,0.0611,0.0144,0.0041,-0.0222,-0.0002,1.0009,25.7*69
13:50::30.113,1702677048082,120.62958492,31.42702098,3478490.96575366,559858.99241264,295.48900000,6.00000000,-0.02400000,-0.00300000,-0.02000000,0.06110000,0.01440000,0.00410000,-0.02220000,-0.00020000,1.00090000
$GPFPD,2292,539448.200,295.489,-0.009,1.165,31.42702097,120.62958490,13.256,-0.019,-0.006,-0.020,0.798,18,16,04*7A
$GTIMU,2292,539448.200,0.0025,-0.0203,-0.0032,-0.0203,-0.0051,0.9989,25.7*63
13:50::30.213,1702677048182,120.62958490,31.42702097,3478490.96463396,559858.99051742,295.48900000,6.00000000,-0.01900000,-0.00600000,-0.02000000,0.00250000,-0.02030000,-0.00320000,-0.02030000,-0.00510000,0.99890000
$GPFPD,2292,539448.300,295.490,-0.001,1.163,31.42702096,120.62958492,13.258,-0.015,-0.005,-0.017,0.800,19,16,04*74
$GTIMU,2292,539448.300,0.0837,-0.0129,0.0017,-0.0196,0.0022,0.9981,25.7*66
13:50::30.313,1702677048282,120.62958492,31.42702096,3478490.96353606,559858.99242534,295.49000000,6.00000000,-0.01500000,-0.00500000,-0.01700000,0.08370000,-0.01290000,0.00170000,-0.01960000,0.00220000,0.99810000
$GPFPD,2292,539448.400,295.490,0.003,1.163,31.42702093,120.62958507,13.271,-0.016,-0.004,-0.013,0.800,19,16,04*59
$GTIMU,2292,539448.400,0.0412,0.0007,-0.0022,-0.0199,0.0024,1.0037,25.7*64
13:50::30.413,1702677048382,120.62958507,31.42702093,3478490.96029138,559859.00670620,295.49000000,6.00000000,-0.01600000,-0.00400000,-0.01300000,0.04120000,0.00070000,-0.00220000,-0.01990000,0.00240000,1.00370000
$GPFPD,2292,539448.500,295.489,0.002,1.164,31.42702090,120.62958521,13.284,-0.017,-0.003,-0.015,0.802,19,16,04*59
$GTIMU,2292,539448.500,-0.0053,0.0053,0.0088,-0.0199,0.0009,0.9976,25.7*6E
13:50::30.513,1702677048482,120.62958521,31.42702090,3478490.95704125,559859.02003628,295.48900000,6.00000000,-0.01700000,-0.00300000,-0.01500000,-0.00530000,0.00530000,0.00880000,-0.01990000,0.00090000,0.99760000
$GPFPD,2292,539448.600,295.490,0.005,1.165,31.42702086,120.62958536,13.297,-0.015,-0.006,-0.016,0.802,19,16,04*53
$GTIMU,2292,539448.600,0.0299,0.0155,-0.0056,-0.0215,-0.0020,0.9992,25.7*46
13:50::30.612,1702677048582,120.62958536,31.42702086,3478490.95268777,559859.03432349,295.49000000,6.00000000,-0.01500000,-0.00600000,-0.01600000,0.02990000,0.01550000,-0.00560000,-0.02150000,-0.00200000,0.99920000
$GPFPD,2292,539448.700,295.490,0.012,1.161,31.42702083,120.62958550,13.310,-0.016,-0.004,-0.016,0.799,19,16,04*57
$GTIMU,2292,539448.700,0.0712,-0.0334,0.0063,-0.0196,0.0027,0.9989,25.7*6A
13:50::30.713,1702677048682,120.62958550,31.42702083,3478490.94943764,559859.04765357,295.49000000,6.00000000,-0.01600000,-0.00400000,-0.01600000,0.07120000,-0.03340000,0.00630000,-0.01960000,0.00270000,0.99890000
$GPFPD,2292,539448.800,295.491,0.013,1.161,31.42702080,120.62958561,13.319,-0.017,-0.004,-0.014,0.799,19,16,04*53
$GTIMU,2292,539448.800,0.0162,0.0007,-0.0038,-0.0205,0.0018,1.0021,25.7*6F
13:50::30.812,1702677048782,120.62958561,31.42702080,3478490.94617116,559859.05813128,295.49100000,6.00000000,-0.01700000,-0.00400000,-0.01400000,0.01620000,0.00070000,-0.00380000,-0.02050000,0.00180000,1.00210000
$GPFPD,2292,539448.900,295.491,0.014,1.163,31.42702080,120.62958559,13.318,-0.017,-0.003,-0.016,0.799,19,16,04*58
$GTIMU,2292,539448.900,0.0157,0.0184,0.0013,-0.0190,0.0010,0.9975,25.7*41
13:50::30.912,1702677048882,120.62958559,31.42702080,3478490.94616027,559859.05622971,295.49100000,6.00000000,-0.01700000,-0.00300000,-0.01600000,0.01570000,0.01840000,0.00130000,-0.01900000,0.00100000,0.99750000
$GPFPD,2292,539449.000,295.490,0.018,1.164,31.42702080,120.62958557,13.316,-0.014,-0.005,-0.015,0.799,19,16,04*5C
$GTIMU,2292,539449.000,0.0350,0.0092,0.0098,-0.0208,-0.0026,1.0010,25.7*61
13:50::31.012,1702677048982,120.62958557,31.42702080,3478490.94614937,559859.05432813,295.49000000,6.00000000,-0.01400000,-0.00500000,-0.01500000,0.03500000,0.00920000,0.00980000,-0.02080000,-0.00260000,1.00100000
$GPGGA,055031.00,3125.6210677,N,12037.7751199,E,1,16,1.1,8.261,M,7.80,M,,*6F
$GPFPD,2292,539449.100,295.490,0.019,1.166,31.42702079,120.62958556,13.315,-0.016,-0.004,-0.015,0.799,19,16,04*59
$GTIMU,2292,539449.100,0.0185,0.0206,-0.0010,-0.0205,0.0030,0.9997,25.7*61
13:50::31.112,1702677049082,120.62958556,31.42702079,3478490.94503513,559859.05338370,295.49000000,6.00000000,-0.01600000,-0.00400000,-0.01500000,0.01850000,0.02060000,-0.00100000,-0.02050000,0.00300000,0.99970000
$GPFPD,2292,539449.200,295.490,0.019,1.166,31.42702079,120.62958554,13.313,-0.017,-0.004,-0.015,0.797,19,16,04*51
$GTIMU,2292,539449.200,0.0049,0.0053,0.0031,-0.0203,0.0023,0.9997,25.7*4B
13:50::31.212,1702677049182,120.62958554,31.42702079,3478490.94502423,559859.05148212,295.49000000,6.00000000,-0.01700000,-0.00400000,-0.01500000,0.00490000,0.00530000,0.00310000,-0.02030000,0.00230000,0.99970000
$GPFPD,2292,539449.300,295.491,0.020,1.164,31.42702078,120.62958555,13.313,-0.013,-0.007,-0.015,0.801,19,16,04*5E
$GTIMU,2292,539449.300,0.0150,-0.0243,0.0048,-0.0210,-0.0024,0.9998,25.7*44
13:50::31.313,1702677049282,120.62958555,31.42702078,3478490.94392088,559859.05243926,295.49100000,6.00000000,-0.01300000,-0.00700000,-0.01500000,0.01500000,-0.02430000,0.00480000,-0.02100000,-0.00240000,0.99980000
$GPFPD,2292,539449.400,295.491,0.021,1.167,31.42702074,120.62958563,13.319,-0.015,-0.004,-0.016,0.801,19,16,04*5E
$GTIMU,2292,539449.400,0.0049,0.0320,-0.0032,-0.0183,0.0037,0.9986,25.7*6A
13:50::31.412,1702677049382,120.62958563,31.42702074,3478490.93952927,559859.06007097,295.49100000,6.00000000,-0.01500000,-0.00400000,-0.01600000,0.00490000,0.03200000,-0.00320000,-0.01830000,0.00370000,0.99860000
$GPFPD,2292,539449.500,295.491,0.023,1.166,31.42702070,120.62958572,13.324,-0.014,-0.006,-0.014,0.799,18,16,04*58
$GTIMU,2292,539449.500,0.0287,-0.0033,0.0064,-0.0223,-0.0006,1.0010,25.7*41
13:50::31.513,1702677049482,120.62958572,31.42702070,3478490.93514310,559859.06865346,295.49100000,6.00000000,-0.01400000,-0.00600000,-0.01400000,0.02870000,-0.00330000,0.00640000,-0.02230000,-0.00060000,1.00100000
$GPFPD,2292,539449.600,295.492,0.022,1.169,31.42702066,120.62958580,13.329,-0.017,-0.005,-0.016,0.799,18,16,04*53
$GTIMU,2292,539449.600,-0.0076,0.0303,-0.0140,-0.0201,0.0038,0.9981,25.7*4D
13:50::31.613,1702677049582,120.62958580,31.42702066,3478490.93075148,559859.07628517,295.49200000,6.00000000,-0.01700000,-0.00500000,-0.01600000,-0.00760000,0.03030000,-0.01400000,-0.02010000,0.00380000,0.99810000
$GPFPD,2292,539449.700,295.493,0.048,1.167,31.42702063,120.62958587,13.334,-0.041,0.004,-0.030,0.800,19,16,04*7A
$GTIMU,2292,539449.700,0.2608,-0.0204,0.0007,-0.0225,0.0271,0.9850,25.7*6C
13:50::31.712,1702677049682,120.62958587,31.42702063,3478490.92746322,559859.08295974,295.49300000,6.00000000,-0.04100000,0.00400000,-0.03000000,0.26080000,-0.02040000,0.00070000,-0.02250000,0.02710000,0.98500000
$GPFPD,2292,539449.800,295.493,0.093,1.166,31.42702062,120.62958588,13.336,-0.076,0.022,-0.030,0.800,19,16,04*7E
$GTIMU,2292,539449.800,0.4539,-0.0114,0.0174,-0.0189,0.0421,1.0001,25.7*61
13:50::31.813,1702677049782,120.62958588,31.42702062,3478490.92635987,559859.08391688,295.49300000,6.00000000,-0.07600000,0.02200000,-0.03000000,0.45390000,-0.01140000,0.01740000,-0.01890000,0.04210000,1.00010000
$GPFPD,2292,539449.900,295.487,0.114,1.164,31.42702065,120.62958578,13.333,-0.110,0.039,-0.017,0.802,19,16,04*77
$GTIMU,2292,539449.900,0.2111,-0.0119,0.0602,-0.0195,0.0415,1.0121,25.7*6A
13:50::31.913,1702677049882,120.62958578,31.42702065,3478490.92963179,559859.07438995,295.48700000,6.00000000,-0.11000000,0.03900000,-0.01700000,0.21110000,-0.01190000,0.06020000,-0.01950000,0.04150000,1.01210000
$GPFPD,2292,539450.000,295.477,0.114,1.168,31.42702069,120.62958565,13.332,-0.145,0.058,-0.012,0.802,19,16,04*76
$GTIMU,2292,539450.000,0.0012,0.0433,0.1012,-0.0188,0.0428,1.0054,25.7*4C
13:50::32.012,1702677049982,120.62958565,31.42702069,3478490.93399617,559859.06200431,295.47700000,6.00000000,-0.14500000,0.05800000,-0.01200000,0.00120000,0.04330000,0.10120000,-0.01880000,0.04280000,1.00540000
$GPFPD,2292,539450$GPGGA,0.100,295.55032.00,461,0.1173125.621,1.168,310790,N,12037.7751.42702075,120.6295130,E,1,18548,13.36,1.1,8.331,-0.17601,M,7.80,0.073,-0,M,,*60
.013,0.802,19,16,04*7A
$GTIMU,2292,539450.100,0.0280,0.0017,0.1684,-0.0196,0.0376,0.9979,25.7*42
13:50::32.112,1702677050082,120.62958548,31.42702075,3478490.94055635,559859.04580282,295.46100000,6.00000000,-0.17600000,0.07300000,-0.01300000,0.02800000,0.00170000,0.16840000,-0.01960000,0.03760000,0.99790000
$GPFPD,2292,539450.200,295.438,0.118,1.177,31.42702083,120.62958528,13.329,-0.208,0.091,-0.015,0.798,19,16,04*7E
$GTIMU,2292,539450.200,0.0159,0.0920,0.2346,-0.0183,0.0408,0.9973,25.7*43
13:50::32.212,1702677050182,120.62958528,31.42702083,3478490.94931779,559859.02673626,295.43800000,6.00000000,-0.20800000,0.09100000,-0.01500000,0.01590000,0.09200000,0.23460000,-0.01830000,0.04080000,0.99730000
$GPFPD,2292,539450.300,295.406,0.123,1.181,31.42702092,120.62958507,13.331,-0.232,0.107,-0.006,0.800,19,16,04*7C
$GTIMU,2292,539450.300,0.0416,0.0350,0.3201,-0.0221,0.0355,1.0033,25.7*43
13:50::32.312,1702677050282,120.62958507,31.42702092,3478490.95918258,559859.00671256,295.40600000,6.00000000,-0.23200000,0.10700000,-0.00600000,0.04160000,0.03500000,0.32010000,-0.02210000,0.03550000,1.00330000
$GPFPD,2292,539450.400,295.366,0.122,1.190,31.42702104,120.62958498,13.348,-0.262,0.124,-0.007,0.800,19,16,04*79
$GTIMU,2292,539450.400,-0.0149,0.0935,0.4080,-0.0177,0.0380,0.9984,25.7*66
13:50::32.413,1702677050382,120.62958498,31.42702104,3478490.97243914,559858.99807924,295.36600000,6.00000000,-0.26200000,0.12400000,-0.00700000,-0.01490000,0.09350000,0.40800000,-0.01770000,0.03800000,0.99840000
$GPFPD,2292,539450.500,295.307,0.132,1.198,31.42702118,120.62958486,13.364,-0.294,0.141,-0.008,0.797,19,16,04*7E
$GTIMU,2292,539450.500,0.0906,0.0853,0.5954,-0.0195,0.0396,0.9979,25.7*40
13:50::32.512,1702677050482,120.62958486,31.42702118,3478490.98789695,559858.98658086,295.30700000,6.00000000,-0.29400000,0.14100000,-0.00800000,0.09060000,0.08530000,0.59540000,-0.01950000,0.03960000,0.99790000
$GPFPD,2292,539450.600,295.233,0.139,1.207,31.42702134,120.62958470,13.380,-0.329,0.159,-0.009,0.797,19,16,04*77
$GTIMU,2292,539450.600,0.0621,0.0970,0.7386,-0.0194,0.0434,0.9995,25.7*42
13:50::32.612,1702677050582,120.62958470,31.42702134,3478491.00555057,559858.97126662,295.23300000,6.00000000,-0.32900000,0.15900000,-0.00900000,0.06210000,0.09700000,0.73860000,-0.01940000,0.04340000,0.99950000
$GPFPD,2292,539450.700,295.144,0.157,1.220,31.42702151,120.62958449,13.396,-0.378,0.181,-0.014,0.800,19,16,04*7A
$GTIMU,2292,539450.700,0.1648,0.1252,0.9009,-0.0209,0.0575,0.9935,25.7*44
13:50::32.713,1702677050682,120.62958449,31.42702151,3478491.02428576,559858.95119209,295.14400000,6.00000000,-0.37800000,0.18100000,-0.01400000,0.16480000,0.12520000,0.90090000,-0.02090000,0.05750000,0.99350000
$GPFPD,2292,539450.800,295.034,0.195,1.232,31.42702170,120.62958420,13.408,-0.437,0.209,-0.019,0.800,19,16,04*70
$GTIMU,2292,539450.800,0.3555,0.1249,1.1120,-0.0211,0.0703,0.9951,25.7*47
13:50::32.813,1702677050782,120.62958420,31.42702170,3478491.04519496,559858.92349857,295.03400000,6.00000000,-0.43700000,0.20900000,-0.01900000,0.35550000,0.12490000,1.11200000,-0.02110000,0.07030000,0.99510000
$GPFPD,2292,539450.900,294.898,0.231,1.232,31.42702191,120.62958370,13.406,-0.503,0.241,-0.014,0.799,19,16,04*78
$GTIMU,2292,539450.900,0.3310,0.0103,1.3636,-0.0204,0.0793,1.0042,25.7*41
13:50::32.912,1702677050882,120.62958370,31.42702191,3478491.06820736,559858.87582582,294.89800000,6.00000000,-0.50300000,0.24100000,-0.01400000,0.33100000,0.01030000,1.36360000,-0.02040000,0.07930000,1.00420000
$GPFPD,2292,539451.000,294.735,0.254,1.228,31.42702214,120.62958313,13.405,-0.575,0.274,-0.011,0.799,19,16,04*7A
$GTIMU,2292,539451.000,0.1994,-0.0337,1.6371,-0.0217,0.0858,1.0019,25.7*62
13:50::33.013,1702677050982,120.62958313,31.42702214,3478491.09339922,559858.82148486,294.73500000,6.00000000,-0.57500000,0.27400000,-0.01100000,0.19940000,-0.03370000,1.63710000,-0.02170000,0.08580000,1.00190000
$GPGGA,055033.00,3125.6211532,N,12037.7749096,E,1,16,1.1,8.280,M,7.80,M,,*66
$GPFPD,2292,539451.100,294.549,0.261,1.209,31.42702241,120.62958249,13.404,-0.650,0.308,-0.004,0.799,19,16,04*72
$GTIMU,2292,539451.100,0.0397,-0.1732,1.8696,-0.0217,0.0893,1.0070,25.7*61
13:50::33.112,1702677051082,120.62958249,31.42702241,3478491.12298814,559858.76046297,294.54900000,6.00000000,-0.65000000,0.30800000,-0.00400000,0.03970000,-0.17320000,1.86960000,-0.02170000,0.08930000,1.00700000
$GPFPD,2292,539451.200,294.336,0.263,1.206,31.42702270,120.62958176,13.404,-0.728,0.347,-0.007,0.797,19,16,04*77
$GTIMU,2292,539451.200,-0.0235,-0.0211,2.1321,-0.0182,0.0940,0.9955,25.7*46
13:50::33.212,1702677051182,120.62958176,31.42702270,3478491.15474563,559858.69087130,294.33600000,6.00000000,-0.72800000,0.34700000,-0.00700000,-0.02350000,-0.02110000,2.13210000,-0.01820000,0.09400000,0.99550000
$GPFPD,2292,539451.300,294.099,0.290,1.228,31.42702303,120.62958097,13.404,-0.821,0.392,-0.020,0.799,19,16,04*7E
$GTIMU,2292,539451.300,0.2178,0.2252,2.3824,-0.0197,0.1142,0.9865,25.7*4B
13:50::33.312,1702677051282,120.62958097,31.42702303,3478491.19090564,559858.61554950,294.09900000,6.00000000,-0.82100000,0.39200000,-0.02000000,0.21780000,0.22520000,2.38240000,-0.01970000,0.11420000,0.98650000
$GPFPD,2292,539451.400,293.834,0.347,1.260,31.42702338,120.62958020,13.408,-0.932,0.440,-0.027,0.799,19,16,04*72
$GTIMU,2292,539451.400,0.5213,0.3361,2.6623,-0.0225,0.1299,0.9925,25.7*43
13:50::33.412,1702677051382,120.62958020,31.42702338,3478491.22929414,559858.54211657,293.83400000,6.00000000,-0.93200000,0.44000000,-0.02700000,0.52130000,0.33610000,2.66230000,-0.02250000,0.12990000,0.99250000
$GPFPD,2292,539451.500,293.531,0.402,1.289,31.42702378,120.62957930,13.412,-1.047,0.489,-0.018,0.803,19,16,04*7D
$GTIMU,2292,539451.500,0.4832,0.3169,3.0439,-0.0246,0.1350,1.0077,25.7*49
13:50::33.512,1702677051482,120.62957930,31.42702378,3478491.27315581,559858.45629164,293.53100000,6.00000000,-1.04700000,0.48900000,-0.01800000,0.48320000,0.31690000,3.04390000,-0.02460000,0.13500000,1.00770000
$GPFPD,2292,539451.600,293.187,0.429,1.302,31.42702422,120.62957828,13.417,-1.176,0.536,-0.007,0.803,19,16,04*71
$GTIMU,2292,539451.600,0.1933,0.1551,3.4484,-0.0298,0.1474,1.0088,25.7*42
13:50::33.612,1702677051582,120.62957828,31.42702422,3478491.32138731,559858.35903186,293.18700000,6.00000000,-1.17600000,0.53600000,-0.00700000,0.19330000,0.15510000,3.44840000,-0.02980000,0.14740000,1.00880000
$GPFPD,2292,539451.700,292.825,0.433,1.297,31.42702470,120.62957712,13.423,-1.311,0.580,-0.001,0.800,19,16,04*7B
$GTIMU,2292,539451.700,-0.0399,-0.0184,3.6189,-0.0355,0.1526,1.0046,25.7*4B
13:50::33.713,1702677051682,120.62957712,31.42702470,3478491.37397774,559858.24843566,292.82500000,6.00000000,-1.31100000,0.58000000,-0.00100000,-0.03990000,-0.01840000,3.61890000,-0.03550000,0.15260000,1.00460000
$GPFPD,2292,539451.800,292.443,0.434,1.281,31.42702523,120.62957579,13.429,-1.441,0.629,-0.003,0.800,19,16,04*7A
$GTIMU,2292,539451.800,-0.0674,-0.1351,3.8209,-0.0272,0.1506,0.9966,25.7*49
13:50::33.813,1702677051782,120.62957579,31.42702523,3478491.43201956,559858.12164432,292.44300000,6.00000000,-1.44100000,0.62900000,-0.00300000,-0.06740000,-0.13510000,3.82090000,-0.02720000,0.15060000,0.99660000
$GPFPD,2292,539451.900,292.028,0.442,1.261,31.42702582,120.62957420,13.428,-1.571,0.671,0.001,0.800,19,16,04*5A
$GTIMU,2292,539451.900,-0.0104,-0.1628,4.1549,-0.0324,0.1464,1.0022,25.7*48
13:50::33.913,1702677051882,120.62957420,31.42702582,3478491.49657253,559857.97009441,292.02800000,6.00000000,-1.57100000,0.67100000,0.00100000,-0.01040000,-0.16280000,4.15490000,-0.03240000,0.14640000,1.00220000
$GPFPD,2292,539452.000,291.615,0.420,1.218,31.42702644,120.62957247,13.429,-1.702,0.703,0.015,0.800,19,16,04*59
$GTIMU,2292,539452.000,-0.3118,-0.3963,4.1226,-0.0413,0.1448,1.0123,25.7*4D
13:50::34.012,1702677051982,120.62957247,31.42702644,3478491.56437564,559857.80521442,291.61500000,6.00000000,-1.70200000,0.70300000,0.01500000,-0.31180000,-0.39630000,4.12260000,-0.04130000,0.14480000,1.01230000
$GPFPD,2292,539452$GPGGA,05.100,291.5034.00,3220,0.390125.62137,1.175,3187,N,1203.427027097.7742282,120.6295,E,1,16,17062,13.4.1,8.169,30,-1.826M,7.80,M,,0.738,0.,*67
003,0.800,19,16,04*5D
$GTIMU,2292,539452.100,-0.3804,-0.3983,3.9488,-0.0344,0.1386,0.9865,25.7*48
13:50::34.113,1702677052082,120.62957062,31.42702709,3478491.63543978,559857.62890595,291.22000000,6.00000000,-1.82600000,0.73800000,0.00300000,-0.38040000,-0.39830000,3.94880000,-0.03440000,0.13860000,0.98650000
$GPFPD,2292,539452.200,290.818,0.383,1.152,31.42702777,120.62956863,13.430,-1.941,0.775,-0.001,0.800,19,16,04*7E
$GTIMU,2292,539452.200,-0.1442,-0.2069,4.0201,-0.0263,0.1297,0.9945,25.7*44
13:50::34.213,1702677052182,120.62956863,31.42702777,3478491.70975405,559857.43926740,290.81800000,6.00000000,-1.94100000,0.77500000,-0.00100000,-0.14420000,-0.20690000,4.02010000,-0.02630000,0.12970000,0.99450000
$GPFPD,2292,539452.300,290.412,0.356,1.121,31.42702849,120.62956656,13.432,-2.048,0.803,0.008,0.803,20,16,04*5D
$GTIMU,2292,539452.300,-0.3480,-0.2791,4.0576,-0.0351,0.1245,1.0087,25.7*4E
13:50::34.313,1702677052282,120.62956656,31.42702849,3478491.78845994,559857.24199715,290.41200000,6.00000000,-2.04800000,0.80300000,0.00800000,-0.34800000,-0.27910000,4.05760000,-0.03510000,0.12450000,1.00870000
$GPFPD,2292,539452.400,290.033,0.296,1.110,31.42702921,120.62956449,13.439,-2.156,0.819,0.012,0.803,20,16,04*54
$GTIMU,2292,539452.400,-0.6709,-0.0893,3.7824,-0.0421,0.1151,1.0023,25.7*43
13:50::34.412,1702677052382,120.62956449,31.42702921,3478491.86716584,559857.04472690,290.03300000,6.00000000,-2.15600000,0.81900000,0.01200000,-0.67090000,-0.08930000,3.78240000,-0.04210000,0.11510000,1.00230000
