1,0.005,0.010,0.795,19,17,04*73
$GTIMU,2292,459358.500,-0.0093,0.0132,0.0014,-0.0178,-0.0076,1.0000,35.4*48
15:35::40.516,1702596958482,120.62740979,31.42737264,3478528.77487713,559651.96131231,112.74300000,6.00000000,-0.00100000,0.00500000,0.01000000,-0.00930000,0.01320000,0.00140000,-0.01780000,-0.00760000,1.00000000
$GPFPD,2292,459358.600,112.743,-0.493,1.087,31.42737264,120.62740977,12.182,-0.000,0.005,0.010,0.795,19,17,04*79
$GTIMU,2292,459358.600,0.0009,0.0053,0.0042,-0.0199,-0.0074,0.9994,35.4*61
15:35::40.616,1702596958582,120.62740977,31.42737264,3478528.77486627,559651.95941075,112.74300000,6.00000000,0.00000000,0.00500000,0.01000000,0.00090000,0.00530000,0.00420000,-0.01990000,-0.00740000,0.99940000
$GPFPD,2292,459358.700,112.743,-0.492,1.086,31.42737263,120.62740975,12.182,-0.001,0.007,0.010,0.790,19,17,04*7B
$GTIMU,2292,459358.700,0.0133,-0.0089,-0.0010,-0.0198,-0.0090,0.9991,35.4*66
15:35::40.716,1702596958682,120.62740975,31.42737263,3478528.77374662,559651.95751551,112.74300000,6.00000000,-0.00100000,0.00700000,0.01000000,0.01330000,-0.00890000,-0.00100000,-0.01980000,-0.00900000,0.99910000
$GPFPD,2292,459358.800,112.743,-0.492,1.086,31.42737263,120.62740974,12.182,-0.001,0.006,0.011,0.790,19,17,04*75
$GTIMU,2292,459358.800,-0.0116,-0.0049,0.0059,-0.0181,-0.0079,1.0009,35.4*60
15:35::40.816,1702596958782,120.62740974,31.42737263,3478528.77374119,559651.95656473,112.74300000,6.00000000,-0.00100000,0.00600000,0.01100000,-0.01160000,-0.00490000,0.00590000,-0.01810000,-0.00790000,1.00090000
$GPFPD,2292,459358.900,112.743,-0.493,1.085,31.42737264,120.62740974,12.183,-0.001,0.005,0.011,0.797,19,17,04*74
$GTIMU,2292,459358.900,-0.0145,-0.0089,0.0025,-0.0185,-0.0080,0.9995,35.4*66
15:35::40.916,1702596958882,120.62740974,31.42737264,3478528.77484999,559651.95655840,112.74300000,6.00000000,-0.00100000,0.00500000,0.01100000,-0.01450000,-0.00890000,0.00250000,-0.01850000,-0.00800000,0.99950000
$GPFPD,2292,459359.000,112.743,-0.493,1.085,31.42737264,120.62740974,12.184,-0.000,0.005,0.010,0.797,19,17,04*7B
$GTIMU,2292,459359.000,0.0060,0.0053,-0.0015,-0.0188,-0.0072,0.9986,35.4*43
15:35::41.016,1702596958982,120.62740974,31.42737264,3478528.77484999,559651.95655840,112.74300000,6.00000000,0.00000000,0.00500000,0.01000000,0.00600000,0.00530000,-0.00150000,-0.01880000,-0.00720000,0.99860000
$GPGGA,073541.00,3125.6423210,N,12037.6452106,E,1,17,1.0,5.481,M,7.80,M,,*68
$GPFPD,2292,459359.100,112.743,-0.492,1.086,31.42737265,120.62740974,12.185,-0.001,0.006,0.011,0.797,19,17,04*7B
$GTIMU,2292,459359.100,0.0015,0.0064,0.0036,-0.0194,-0.0086,1.0007,35.4*66
15:35::41.116,1702596959082,120.62740974,31.42737265,3478528.77595878,559651.95655207,112.74300000,6.00000000,-0.00100000,0.00600000,0.01100000,0.00150000,0.00640000,0.00360000,-0.01940000,-0.00860000,1.00070000
$GPFPD,2292,459359.200,112.743,-0.491,1.086,31.42737265,120.62740974,12.186,-0.002,0.006,0.011,0.792,19,17,04*7E
$GTIMU,2292,459359.200,0.0026,-0.0015,0.0053,-0.0192,-0.0091,0.9995,35.4*47
15:35::41.216,1702596959182,120.62740974,31.42737265,3478528.77595878,559651.95655207,112.74300000,6.00000000,-0.00200000,0.00600000,0.01100000,0.00260000,-0.00150000,0.00530000,-0.01920000,-0.00910000,0.99950000
$GPFPD,2292,459359.300,112.744,-0.493,1.086,31.42737264,120.62740973,12.186,-0.001,0.001,0.007,0.793,19,17,04*7E
$GTIMU,2292,459359.300,-0.0150,-0.0038,-0.0020,-0.0183,-0.0073,0.9994,35.4*40
15:35::41.316,1702596959282,120.62740973,31.42737264,3478528.77484456,559651.95560762,112.74400000,6.00000000,-0.00100000,0.00100000,0.00700000,-0.01500000,-0.00380000,-0.00200000,-0.01830000,-0.00730000,0.99940000
$GPFPD,2292,459359.400,112.743,-0.493,1.087,31.42737259,120.62740973,12.182,-0.001,0.001,0.007,0.793,19,17,04*75
$GTIMU,2292,459359.400,-0.0082,0.0013,0.0042,-0.0188,-0.0074,0.9994,35.4*48
15:35::41.416,1702596959382,120.62740973,31.42737259,3478528.76930056,559651.95563927,112.74300000,6.00000000,-0.00100000,0.00100000,0.00700000,-0.00820000,0.00130000,0.00420000,-0.01880000,-0.00740000,0.99940000
$GPFPD,2292,459359.500,112.743,-0.492,1.086,31.42737253,120.62740973,12.178,-0.000,0.001,0.006,0.789,19,17,04*70
$GTIMU,2292,459359.500,0.0060,-0.0089,0.0019,-0.0197,-0.0078,0.9987,35.4*48
15:35::41.516,1702596959482,120.62740973,31.42737253,3478528.76264777,559651.95567726,112.74300000,6.00000000,0.00000000,0.00100000,0.00600000,0.00600000,-0.00890000,0.00190000,-0.01970000,-0.00780000,0.99870000
$GPFPD,2292,459359.600,112.743,-0.492,1.085,31.42737247,120.62740972,12.174,-0.001,0.002,0.007,0.789,19,17,04*7B
$GTIMU,2292,459359.600,-0.0048,-0.0055,0.0036,-0.0190,-0.0086,1.0002,35.4*6A
15:35::41.616,1702596959582,120.62740972,31.42737247,3478528.75598955,559651.95476446,112.74300000,6.00000000,-0.00100000,0.00200000,0.00700000,-0.00480000,-0.00550000,0.00360000,-0.01900000,-0.00860000,1.00020000
$GPFPD,2292,459359.700,112.743,-0.493,1.086,31.42737241,120.62740972,12.170,-0.001,0.002,0.007,0.793,19,17,04*71
$GTIMU,2292,459359.700,-0.0076,0.0059,0.0037,-0.0189,-0.0085,1.0001,35.4*4E
15:35::41.716,1702596959682,120.62740972,31.42737241,3478528.74933675,559651.95480245,112.74300000,6.00000000,-0.00100000,0.00200000,0.00700000,-0.00760000,0.00590000,0.00370000,-0.01890000,-0.00850000,1.00010000
$GPFPD,2292,459359.800,112.744,-0.493,1.086,31.42737237,120.62740971,12.168,-0.001,0.001,0.006,0.793,19,17,04*70
$GTIMU,2292,459359.800,-0.0037,0.0007,-0.0032,-0.0184,-0.0079,0.9987,35.4*66
15:35::41.816,1702596959782,120.62740971,31.42737237,3478528.74489613,559651.95387699,112.74400000,6.00000000,-0.00100000,0.00100000,0.00600000,-0.00370000,0.00070000,-0.00320000,-0.01840000,-0.00790000,0.99870000
$GPFPD,2292,459359.900,112.743,-0.493,1.087,31.42737237,120.62740971,12.168,-0.001,0.001,0.007,0.795,19,17,04*70
$GTIMU,2292,459359.900,-0.0071,0.0002,0.0025,-0.0185,-0.0076,1.0004,35.4*4F
15:35::41.916,1702596959882,120.62740971,31.42737237,3478528.74489613,559651.95387699,112.74300000,6.00000000,-0.00100000,0.00100000,0.00700000,-0.00710000,0.00020000,0.00250000,-0.01850000,-0.00760000,1.00040000
$GPFPD,2292,459360.000,112.743,-0.492,1.087,31.42737237,120.62740971,12.169,-0.001,0.001,0.006,0.795,19,17,04*72
$GTIMU,2292,459360.000,0.0054,0.0070,0.0036,-0.0192,-0.0077,0.9988,35.4*63
15:35::42.016,1702596959982,120.62740971,31.42737237,3478528.74489613,559651.95387699,112.74300000,6.00000000,-0.00100000,0.00100000,0.00600000,0.00540000,0.00700000,0.00360000,-0.01920000,-0.00770000,0.99880000
$GPGGA,073542.00,3125.6423188,N,12037.6452136,E,1,17,1.0,5.476,M,7.80,M,,*62
$GPFPD,2292,459360.100,112.743,-0.492,1.087,31.42737237,120.62740971,12.170,-0.001,0.001,0.007,0.795,19,17,04*7A
$GTIMU,2292,459360.100,-0.0014,-0.0004,0.0031,-0.0195,-0.0085,1.0004,35.4*6D
15:35::42.116,1702596960082,120.62740971,31.42737237,3478528.74489613,559651.95387699,112.74300000,6.00000000,-0.00100000,0.00100000,0.00700000,-0.00140000,-0.00040000,0.00310000,-0.01950000,-0.00850000,1.00040000
$GPFPD,2292,459360.200,112.743,-0.492,1.086,31.42737238,120.62740971,12.170,-0.001,0.002,0.007,0.793,19,17,04*72
$GTIMU,2292,459360.200,0.0020,-0.0118,0.0025,-0.0196,-0.0084,0.9994,35.4*47
15:35::42.216,1702596960182,120.62740971,31.42737238,3478528.74600493,559651.95387066,112.74300000,6.00000000,-0.00100000,0.00200000,0.00700000,0.00200000,-0.01180000,0.00250000,-0.01960000,-0.00840000,0.99940000
$GPFPD,2292,459360.300,112.743,-0.492,1.084,31.42737238,120.62740971,12.172,-0.001,0.002,0.009,0.794,19,17,04*7A
$GTIMU,2292,459360.300,-0.0071,-0.0226,0.0076,-0.0190,-0.0077,1.0002,35.4*63
15:35::42.316,1702596960282,120.62740971,31.42737238,3478528.74600493,559651.95387066,112.74300000,6.00000000,-0.00100000,0.00200000,0.00900000,-0.00710000,-0.02260000,0.00760000,-0.01900000,-0.00770000,1.00020000
$GPFPD,2292,459360.400,112.743,-0.493,1.084,31.42737237,120.62740969,12.177,-0.002,0.001,0.009,0.794,19,17,04*7F
$GTIMU,2292,459360.400,-0.0105,-0.0089,-0.0032,-0.0180,-0.0078,0.9988,35.4*41
15:35::42.416,1702596960382,120.62740969,31.42737237,3478528.74488527,559651.95197543,112.74300000,6.00000000,-0.00200000,0.00100000,0.00900000,-0.01050000,-0.00890000,-0.00320000,-0.01800000,-0.00780000,0.99880000
$GPFPD,2292,459360.500,112.744,-0.493,1.086,31.42737236,120.62740967,12.182,-0.002,0.000,0.008,0.794,19,17,04*7E
$GTIMU,2292,459360.500,-0.0019,0.0229,-0.0032,-0.0183,-0.0086,0.9994,35.4*66
15:35::42.516,1702596960482,120.62740967,31.42737236,3478528.74376561,559651.95008019,112.74400000,6.00000000,-0.00200000,0.00000000,0.00800000,-0.00190000,0.02290000,-0.00320000,-0.01830000,-0.00860000,0.99940000
$GPFPD,2292,459360.600,112.744,-0.492,1.087,31.42737235,120.62740966,12.188,-0.002,0.000,0.009,0.794,19,17,04*74
$GTIMU,2292,459360.600,0.0015,0.0098,0.0019,-0.0190,-0.0074,1.0000,35.4*6B
15:35::42.616,1702596960582,120.62740966,31.42737235,3478528.74265139,559651.94913574,112.74400000,6.00000000,-0.00200000,0.00000000,0.00900000,0.00150000,0.00980000,0.00190000,-0.01900000,-0.00740000,1.00000000
$GPFPD,2292,459360.700,112.744,-0.493,1.087,31.42737235,120.62740964,12.193,-0.002,0.001,0.009,0.797,19,17,04*7E
$GTIMU,2292,459360.700,-0.0099,-0.0032,0.0014,-0.0193,-0.0081,0.9998,35.4*6A
15:35::42.716,1702596960682,120.62740964,31.42737235,3478528.74264053,559651.94723417,112.74400000,6.00000000,-0.00200000,0.00100000,0.00900000,-0.00990000,-0.00320000,0.00140000,-0.01930000,-0.00810000,0.99980000
$GPFPD,2292,459360.800,112.744,-0.493,1.087,31.42737234,120.62740963,12.197,-0.002,0.001,0.009,0.797,19,17,04*73
$GTIMU,2292,459360.800,-0.0008,-0.0021,0.0014,-0.0192,-0.0085,0.9990,35.4*62
15:35::42.816,1702596960782,120.62740963,31.42737234,3478528.74152630,559651.94628972,112.74400000,6.00000000,-0.00200000,0.00100000,0.00900000,-0.00080000,-0.00210000,0.00140000,-0.01920000,-0.00850000,0.99900000
$GPFPD,2292,459360.900,112.744,-0.492,1.086,31.42737234,120.62740963,12.198,-0.002,0.001,0.009,0.795,19,17,04*7F
$GTIMU,2292,459360.900,-0.0008,-0.0118,0.0042,-0.0194,-0.0077,1.0000,35.4*68
15:35::42.916,1702596960882,120.62740963,31.42737234,3478528.74152630,559651.94628972,112.74400000,6.00000000,-0.00200000,0.00100000,0.00900000,-0.00080000,-0.01180000,0.00420000,-0.01940000,-0.00770000,1.00000000
$GPFPD,2292,459361.000,112.744,-0.492,1.086,31.42737234,120.62740963,12.199,-0.002,0.001,0.009,0.795,19,17,04*76
$GTIMU,2292,459361.000,-0.0042,0.0007,-0.0009,-0.0189,-0.0079,0.9991,35.4*65
15:35::43.016,1702596960982,120.62740963,31.42737234,3478528.74152630,559651.94628972,112.74400000,6.00000000,-0.00200000,0.00100000,0.00900000,-0.00420000,0.00070000,-0.00090000,-0.01890000,-0.00790000,0.99910000
$GPGGA,073543.00,3125.6423140,N,12037.6452084,E,1,17,1.0,5.452,M,7.80,M,,*69
$GPFPD,2292,459361.100,112.744,-0.492,1.087,31.42737234,120.62740963,12.200,-0.002,0.001,0.009,0.795,19,17,04*75
$GTIMU,2292,459361.100,-0.0014,0.0070,0.0019,-0.0189,-0.0082,0.9995,35.4*4B
15:35::43.116,1702596961082,120.62740963,31.42737234,3478528.74152630,559651.94628972,112.74400000,6.00000000,-0.00200000,0.00100000,0.00900000,-0.00140000,0.00700000,0.00190000,-0.01890000,-0.00820000,0.99950000
$GPFPD,2292,459361.200,112.744,-0.492,1.087,31.42737234,120.62740962,12.201,-0.002,0.001,0.009,0.791,19,17,04*72
$GTIMU,2292,459361.200,-0.0059,0.0007,-0.0003,-0.0193,-0.0082,1.0002,35.4*63
15:35::43.216,1702596961182,120.62740962,31.42737234,3478528.74152087,559651.94533894,112.74400000,6.00000000,-0.00200000,0.00100000,0.00900000,-0.00590000,0.00070000,-0.00030000,-0.01930000,-0.00820000,1.00020000
$GPFPD,2292,459361.300,112.745,-0.492,1.087,31.42737233,120.62740963,12.203,-0.001,-0.003,0.013,0.795,19,17,04*55
$GTIMU,2292,459361.300,0.0014,-0.0084,0.0036,-0.0184,-0.0080,0.9990,35.4*45
15:35::43.316,1702596961282,120.62740963,31.42737233,3478528.74041750,559651.94629605,112.74500000,6.00000000,-0.00100000,-0.00300000,0.01300000,0.00140000,-0.00840000,0.00360000,-0.01840000,-0.00800000,0.99900000
$GPFPD,2292,459361.400,112.744,-0.493,1.087,31.42737227,120.62740964,12.211,-0.001,-0.003,0.014,0.795,19,17,04*54
$GTIMU,2292,459361.400,-0.0161,0.0047,0.0031,-0.0188,-0.0077,1.0006,35.4*43
15:35::43.416,1702596961382,120.62740964,31.42737227,3478528.73377014,559651.94728482,112.74400000,6.00000000,-0.00100000,-0.00300000,0.01400000,-0.01610000,0.00470000,0.00310000,-0.01880000,-0.00770000,1.00060000
$GPFPD,2292,459361.500,112.745,-0.493,1.087,31.42737221,120.62740966,12.219,-0.001,-0.003,0.012,0.795,19,17,04*5E
$GTIMU,2292,459361.500,0.0003,-0.0072,-0.0004,-0.0188,-0.0083,0.9982,35.4*6C
15:35::43.516,1702596961482,120.62740966,31.42737221,3478528.72712820,559651.94922438,112.74500000,6.00000000,-0.00100000,-0.00300000,0.01200000,0.00030000,-0.00720000,-0.00040000,-0.01880000,-0.00830000,0.99820000
$GPFPD,2292,459361.600,112.744,-0.492,1.084,31.42737215,120.62740968,12.228,-0.000,-0.003,0.012,0.795,19,17,04*54
$GTIMU,2292,459361.600,0.0060,-0.0266,0.0065,-0.0194,-0.0078,0.9998,35.4*45
15:35::43.616,1702596961582,120.62740968,31.42737215,3478528.72048626,559651.95116393,112.74400000,6.00000000,0.00000000,-0.00300000,0.01200000,0.00600000,-0.02660000,0.00650000,-0.01940000,-0.00780000,0.99980000
$GPFPD,2292,459361.700,112.744,-0.493,1.084,31.42737209,120.62740969,12.236,-0.000,-0.004,0.013,0.794,19,17,04*50
$GTIMU,2292,459361.700,-0.0122,-0.0061,0.0059,-0.0183,-0.0074,0.9999,35.4*6F
15:35::43.716,1702596961682,120.62740969,31.42737209,3478528.71383890,559651.95215270,112.74400000,6.00000000,0.00000000,-0.00400000,0.01300000,-0.01220000,-0.00610000,0.00590000,-0.01830000,-0.00740000,0.99990000
$GPFPD,2292,459361.800,112.744,-0.492,1.085,31.42737205,120.62740970,12.242,-0.001,-0.003,0.013,0.794,19,17,04*5E
$GTIMU,2292,459361.800,0.0043,0.0155,0.0008,-0.0190,-0.0090,0.9994,35.4*61
15:35::43.816,1702596961782,120.62740970,31.42737205,3478528.70940913,559651.95312881,112.74400000,6.00000000,-0.00100000,-0.00300000,0.01300000,0.00430000,0.01550000,0.00080000,-0.01900000,-0.00900000,0.99940000
$GPFPD,2292,459361.900,112.744,-0.493,1.087,31.42737204,120.62740970,12.243,-0.001,-0.003,0.013,0.794,19,17,04*5C
$GTIMU,2292,459361.900,-0.0082,0.0184,-0.0003,-0.0196,-0.0079,1.0000,35.4*67
15:35::43.916,1702596961882,120.62740970,31.42737204,3478528.70830033,559651.95313514,112.74400000,6.00000000,-0.00100000,-0.00300000,0.01300000,-0.00820000,0.01840000,-0.00030000,-0.01960000,-0.00790000,1.00000000
$GPFPD,2292,459362.000,112.744,-0.493,1.087,31.42737204,120.62740970,12.245,-0.001,-0.003,0.013,0.794,19,17,04*50
$GTIMU,2292,459362.000,-0.0014,-0.0032,0.0031,-0.0188,-0.0082,0.9997,35.4*6B
15:35::44.016,1702596961982,120.62740970,31.42737204,3478528.70830033,559651.95313514,112.74400000,6.00000000,-0.00100000,-0.00300000,0.01300000,-0.00140000,-0.00320000,0.00310000,-0.01880000,-0.00820000,0.99970000
$GPGGA,073544.00,3125.6423043,N,12037.6452135,E,1,17,1.0,5.399,M,7.80,M,,*67
$GPFPD,2292,459362.100,112.744,-0.493,1.086,31.42737204,120.62740970,12.246,-0.001,-0.004,0.013,0.794,19,17,04*54
$GTIMU,2292,459362.100,-0.0105,-0.0112,0.0002,-0.0179,-0.0076,0.9992,35.4*68
15:35::44.116,1702596962082,120.62740970,31.42737204,3478528.70830033,559651.95313514,112.74400000,6.00000000,-0.00100000,-0.00400000,0.01300000,-0.01050000,-0.01120000,0.00020000,-0.01790000,-0.00760000,0.99920000
$GPFPD,2292,459362.200,112.744,-0.493,1.087,31.42737203,120.62740970,12.247,-0.001,-0.004,0.013,0.794,19,17,04*50
$GTIMU,2292,459362.200,0.0009,0.0064,0.0014,-0.0193,-0.0081,0.9996,35.4*69
15:35::44.216,1702596962182,120.62740970,31.42737203,3478528.70719153,559651.95314147,112.74400000,6.00000000,-0.00100000,-0.00400000,0.01300000,0.00090000,0.00640000,0.00140000,-0.01930000,-0.00810000,0.99960000
$GPFPD,2292,459362.300,112.744,-0.492,1.086,31.42737203,120.62740969,12.247,-0.002,-0.004,0.008,0.794,19,17,04*50
$GTIMU,2292,459362.300,0.0071,-0.0089,0.0065,-0.0199,-0.0079,0.9988,35.4*4D
15:35::44.316,1702596962282,120.62740969,31.42737203,3478528.70718611,559651.95219069,112.74400000,6.00000000,-0.00200000,-0.00400000,0.00800000,0.00710000,-0.00890000,0.00650000,-0.01990000,-0.00790000,0.99880000
$GPFPD,2292,459362.400,112.744,-0.493,1.086,31.42737201,120.62740966,12.242,-0.002,-0.004,0.009,0.794,19,17,04*5F
$GTIMU,2292,459362.400,-0.0128,-0.0089,0.0042,-0.0189,-0.0078,1.0011,35.4*6E
15:35::44.416,1702596962382,120.62740966,31.42737201,3478528.70495222,559651.94935100,112.74400000,6.00000000,-0.00200000,-0.00400000,0.00900000,-0.01280000,-0.00890000,0.00420000,-0.01890000,-0.00780000,1.00110000
$GPFPD,2292,459362.500,112.744,-0.493,1.087,31.42737198,120.62740963,12.237,-0.003,-0.005,0.009,0.792,19,17,04*5D
$GTIMU,2292,459362.500,-0.0093,0.0144,-0.0020,-0.0181,-0.0088,0.9988,35.4*6C
15:35::44.516,1702596962482,120.62740963,31.42737198,3478528.70160954,559651.94651764,112.74400000,6.00000000,-0.00300000,-0.00500000,0.00900000,-0.00930000,0.01440000,-0.00200000,-0.01810000,-0.00880000,0.99880000
$GPFPD,2292,459362.600,112.744,-0.493,1.088,31.42737196,120.62740960,12.232,-0.003,-0.005,0.008,0.792,19,17,04*58
$GTIMU,2292,459362.600,-0.0025,0.0053,0.0065,-0.0190,-0.0078,0.9991,35.4*4E
15:35::44.616,1702596962582,120.62740960,31.42737196,3478528.69937565,559651.94367796,112.74400000,6.00000000,-0.00300000,-0.00500000,0.00800000,-0.00250000,0.00530000,0.00650000,-0.01900000,-0.00780000,0.99910000
$GPFPD,2292,459362.700,112.744,-0.493,1.086,31.42737194,120.62740956,12.227,-0.002,-0.004,0.009,0.791,19,17,04*56
$GTIMU,2292,459362.700,-0.0009,-0.0220,-0.0015,-0.0198,-0.0075,1.0001,35.4*4D
15:35::44.716,1702596962682,120.62740956,31.42737194,3478528.69713634,559651.93988749,112.74400000,6.00000000,-0.00200000,-0.00400000,0.00900000,-0.00090000,-0.02200000,-0.00150000,-0.01980000,-0.00750000,1.00010000
$GPFPD,2292,459362.800,112.744,-0.491,1.085,31.42737193,120.62740954,12.223,-0.002,-0.005,0.008,0.791,19,17,04*59
$GTIMU,2292,459362.800,0.0117,-0.0055,0.0030,-0.0184,-0.0083,0.9991,35.4*47
15:35::44.816,1702596962782,120.62740954,31.42737193,3478528.69601668,559651.93799225,112.74400000,6.00000000,-0.00200000,-0.00500000,0.00800000,0.01170000,-0.00550000,0.00300000,-0.01840000,-0.00830000,0.99910000
$GPFPD,2292,459362.900,112.744,-0.492,1.087,31.42737192,120.62740954,12.224,-0.002,-0.005,0.009,0.789,19,17,04*57
$GTIMU,2292,459362.900,-0.0116,0.0115,0.0014,-0.0190,-0.0079,1.0006,35.4*4B
15:35::44.916,1702596962882,120.62740954,31.42737192,3478528.69490788,559651.93799858,112.74400000,6.00000000,-0.00200000,-0.00500000,0.00900000,-0.01160000,0.01150000,0.00140000,-0.01900000,-0.00790000,1.00060000
$GPFPD,2292,459363.000,112.744,-0.493,1.088,31.42737192,120.62740953,12.225,-0.003,-0.005,0.009,0.789,19,17,04*56
$GTIMU,2292,459363.000,-0.0122,0.0081,0.0025,-0.0182,-0.0085,0.9993,35.4*47
15:35::45.016,1702596962982,120.62740953,31.42737192,3478528.69490245,559651.93704780,112.74400000,6.00000000,-0.00300000,-0.00500000,0.00900000,-0.01220000,0.00810000,0.00250000,-0.01820000,-0.00850000,0.99930000
$GPGGA,073545.00,3125.6422957,N,12037.6452251,E,1,17,1.0,5.341,M,7.80,M,,*6F
$GPFPD,2292,459363.100,112.744,-0.492,1.087,31.42737192,120.62740953,12.226,-0.002,-0.005,0.008,0.789,19,17,04*5A
$GTIMU,2292,459363.100,0.0060,-0.0078,0.0065,-0.0195,-0.0074,0.9990,35.4*48
15:35::45.116,1702596963082,120.62740953,31.42737192,3478528.69490245,559651.93704780,112.74400000,6.00000000,-0.00200000,-0.00500000,0.00800000,0.00600000,-0.00780000,0.00650000,-0.01950000,-0.00740000,0.99900000
$GPFPD,2292,459363.200,112.744,-0.492,1.086,31.42737191,120.62740953,12.227,-0.002,-0.005,0.009,0.796,19,17,04*55
$GTIMU,2292,459363.200,-0.0026,-0.0146,0.0019,-0.0191,-0.0078,1.0000,35.4*63
15:35::45.216,1702596963182,120.62740953,31.42737191,3478528.69379366,559651.93705413,112.74400000,6.00000000,-0.00200000,-0.00500000,0.00900000,-0.00260000,-0.01460000,0.00190000,-0.01910000,-0.00780000,1.00000000
$GPFPD,2292,459363.300,112.744,-0.491,1.087,31.42737190,120.62740954,12.226,0.000,-0.005,0.005,0.793,19,17,04*77
$GTIMU,2292,459363.300,0.0094,0.0132,0.0042,-0.0187,-0.0097,1.0000,35.4*60
15:35::45.316,1702596963282,120.62740954,31.42737190,3478528.69269029,559651.93801125,112.74400000,6.00000000,0.00000000,-0.00500000,0.00500000,0.00940000,0.01320000,0.00420000,-0.01870000,-0.00970000,1.00000000
$GPFPD,2292,459363.400,112.744,-0.492,1.088,31.42737189,120.62740960,12.220,0.001,-0.005,0.005,0.793,19,17,04*74
$GTIMU,2292,459363.400,-0.0099,0.0064,0.0037,-0.0196,-0.0071,0.9994,35.4*43
15:35::45.416,1702596963382,120.62740960,31.42737189,3478528.69161406,559651.94372227,112.74400000,6.00000000,0.00100000,-0.00500000,0.00500000,-0.00990000,0.00640000,0.00370000,-0.01960000,-0.00710000,0.99940000
$GPFPD,2292,459363.500,112.745,-0.494,1.088,31.42737188,120.62740965,12.215,0.001,-0.006,0.005,0.788,19,17,04*79
$GTIMU,2292,459363.500,-0.0230,0.0008,-0.0060,-0.0181,-0.0077,0.9993,35.4*61
15:35::45.516,1702596963482,120.62740965,31.42737188,3478528.69053241,559651.94848252,112.74500000,6.00000000,0.00100000,-0.00600000,0.00500000,-0.02300000,0.00080000,-0.00600000,-0.01810000,-0.00770000,0.99930000
$GPFPD,2292,459363.600,112.744,-0.492,1.088,31.42737186,120.62740971,12.209,0.001,-0.005,0.005,0.788,19,17,04*78
$GTIMU,2292,459363.600,0.0185,-0.0061,0.0053,-0.0195,-0.0083,0.9997,35.4*47
15:35::45.616,1702596963582,120.62740971,31.42737186,3478528.68834738,559651.95419988,112.74400000,6.00000000,0.00100000,-0.00500000,0.00500000,0.01850000,-0.00610000,0.00530000,-0.01950000,-0.00830000,0.99970000
$GPFPD,2292,459363.700,112.744,-0.493,1.087,31.42737185,120.62740977,12.203,0.002,-0.006,0.004,0.790,19,17,04*70
$GTIMU,2292,459363.700,-0.0179,-0.0061,0.0037,-0.0188,-0.0069,0.9984,35.4*60
15:35::45.716,1702596963682,120.62740977,31.42737185,3478528.68727116,559651.95991091,112.74400000,6.00000000,0.00200000,-0.00600000,0.00400000,-0.01790000,-0.00610000,0.00370000,-0.01880000,-0.00690000,0.99840000
$GPFPD,2292,459363.800,112.744,-0.493,1.089,31.42737183,120.62740981,12.199,0.001,-0.006,0.005,0.790,19,17,04*7C
$GTIMU,2292,459363.800,0.0015,0.0167,0.0025,-0.0188,-0.0089,1.0009,35.4*6A
15:35::45.816,1702596963782,120.62740981,31.42737183,3478528.68507527,559651.96372671,112.74400000,6.00000000,0.00100000,-0.00600000,0.00500000,0.00150000,0.01670000,0.00250000,-0.01880000,-0.00890000,1.00090000
$GPFPD,2292,459363.900,112.744,-0.493,1.090,31.42737183,120.62740981,12.200,0.000,-0.005,0.004,0.790,19,17,04*75
$GTIMU,2292,459363.900,-0.0076,0.0053,0.0002,-0.0193,-0.0092,0.9987,35.4*47
15:35::45.916,1702596963882,120.62740981,31.42737183,3478528.68507527,559651.96372671,112.74400000,6.00000000,0.00000000,-0.00500000,0.00400000,-0.00760000,0.00530000,0.00020000,-0.01930000,-0.00920000,0.99870000
$GPFPD,2292,459364.000,112.743,-0.492,1.089,31.42737183,120.62740981,12.200,0.001,-0.005,0.006,0.790,19,17,04*76
$GTIMU,2292,459364.000,0.0088,-0.0124,0.0116,-0.0189,-0.0072,1.0012,35.4*45
15:35::46.016,1702596963982,120.62740981,31.42737183,3478528.68507527,559651.96372671,112.74300000,6.00000000,0.00100000,-0.00500000,0.00600000,0.00880000,-0.01240000,0.01160000,-0.01890000,-0.00720000,1.00120000
$GPGGA,073546.00,3125.6422863,N,12037.6452285,E,1,17,1.0,5.345,M,7.80,M,,*67
$GPFPD,2292,459364.100,112.745,-0.493,1.088,31.42737182,120.62740981,12.201,0.001,-0.006,0.006,0.790,19,17,04*72
$GTIMU,2292,459364.100,-0.0134,-0.0117,-0.0089,-0.0186,-0.0073,0.9996,35.4*46
15:35::46.116,1702596964082,120.62740981,31.42737182,3478528.68396648,559651.96373304,112.74500000,6.00000000,0.00100000,-0.00600000,0.00600000,-0.01340000,-0.01170000,-0.00890000,-0.01860000,-0.00730000,0.99960000
$GPFPD,2292,459364.200,112.744,-0.492,1.087,31.42737182,120.62740981,12.201,0.001,-0.006,0.004,0.791,19,17,04*7D
$GTIMU,2292,459364.200,0.0026,-0.0049,0.0031,-0.0190,-0.0087,0.9973,35.4*49
15:35::46.216,1702596964182,120.62740981,31.42737182,3478528.68396648,559651.96373304,112.74400000,6.00000000,0.00100000,-0.00600000,0.00400000,0.00260000,-0.00490000,0.00310000,-0.01900000,-0.00870000,0.99730000
$GPFPD,2292,459364.300,112.744,-0.490,1.086,31.42737181,120.62740982,12.201,0.002,-0.004,0.005,0.790,19,17,04*7E
$GTIMU,2292,459364.300,0.0185,-0.0180,0.0082,-0.0200,-0.0084,1.0015,35.4*44
15:35::46.316,1702596964282,120.62740982,31.42737181,3478528.68286310,559651.96469015,112.74400000,6.00000000,0.00200000,-0.00400000,0.00500000,0.01850000,-0.01800000,0.00820000,-0.02000000,-0.00840000,1.00150000
$GPFPD,2292,459364.400,112.744,-0.491,1.085,31.42737181,120.62740985,12.202,0.003,-0.005,0.005,0.790,19,17,04*7F
$GTIMU,2292,459364.400,-0.0139,-0.0072,0.0037,-0.0184,-0.0069,0.9993,35.4*68
15:35::46.416,1702596964382,120.62740985,31.42737181,3478528.68287939,559651.96754250,112.74400000,6.00000000,0.00300000,-0.00500000,0.00500000,-0.01390000,-0.00720000,0.00370000,-0.01840000,-0.00690000,0.99930000
$GPFPD,2292,459364.500,112.745,-0.493,1.086,31.42737181,120.62740987,12.202,0.003,-0.005,0.004,0.792,19,17,04*7F
$GTIMU,2292,459364.500,-0.0179,0.0059,-0.0032,-0.0184,-0.0086,0.9987,35.4*65
15:35::46.516,1702596964482,120.62740987,31.42737181,3478528.68289025,559651.96944407,112.74500000,6.00000000,0.00300000,-0.00500000,0.00400000,-0.01790000,0.00590000,-0.00320000,-0.01840000,-0.00860000,0.99870000
$GPFPD,2292,459364.600,112.745,-0.492,1.085,31.42737180,120.62740990,12.202,0.002,-0.005,0.004,0.792,19,17,04*78
$GTIMU,2292,459364.600,0.0071,-0.0072,-0.0027,-0.0190,-0.0083,1.0001,35.4*6D
15:35::46.616,1702596964582,120.62740990,31.42737180,3478528.68179774,559651.97230275,112.74500000,6.00000000,0.00200000,-0.00500000,0.00400000,0.00710000,-0.00720000,-0.00270000,-0.01900000,-0.00830000,1.00010000
$GPFPD,2292,459364.700,112.745,-0.491,1.084,31.42737180,120.62740992,12.202,0.003,-0.005,0.003,0.788,19,17,04*74
$GTIMU,2292,459364.700,-0.0003,-0.0106,0.0082,-0.0189,-0.0071,0.9983,35.4*6A
15:35::46.716,1702596964682,120.62740992,31.42737180,3478528.68180859,559651.97420431,112.74500000,6.00000000,0.00300000,-0.00500000,0.00300000,-0.00030000,-0.01060000,0.00820000,-0.01890000,-0.00710000,0.99830000
$GPFPD,2292,459364.800,112.745,-0.491,1.086,31.42737180,120.62740994,12.203,0.003,-0.005,0.005,0.788,19,17,04*78
$GTIMU,2292,459364.800,-0.0053,0.0144,-0.0003,-0.0189,-0.0085,1.0014,35.4*6B
15:35::46.816,1702596964782,120.62740994,31.42737180,3478528.68181945,559651.97610588,112.74500000,6.00000000,0.00300000,-0.00500000,0.00500000,-0.00530000,0.01440000,-0.00030000,-0.01890000,-0.00850000,1.00140000
$GPFPD,2292,459364.900,112.745,-0.493,1.089,31.42737179,120.62740994,12.203,0.002,-0.006,0.005,0.791,19,17,04*78
$GTIMU,2292,459364.900,-0.0167,0.0269,0.0020,-0.0184,-0.0086,0.9995,35.4*4A
15:35::46.916,1702596964882,120.62740994,31.42737179,3478528.68071065,559651.97611221,112.74500000,6.00000000,0.00200000,-0.00600000,0.00500000,-0.01670000,0.02690000,0.00200000,-0.01840000,-0.00860000,0.99950000
$GPFPD,2292,459365.000,112.745,-0.493,1.088,31.42737179,120.62740995,12.203,0.003,-0.006,0.004,0.791,19,17,04*70
$GTIMU,2292,459365.000,-0.0048,-0.0044,0.0042,-0.0191,-0.0073,0.9986,35.4*66
15:35::47.016,1702596964982,120.62740995,31.42737179,3478528.68071608,559651.97706299,112.74500000,6.00000000,0.00300000,-0.00600000,0.00400000,-0.00480000,-0.00440000,0.00420000,-0.01910000,-0.00730000,0.99860000
$GPGGA,073547.00,3125.6422814,N,12037.6452360,E,1,17,1.0,5.333,M,7.80,M,,*6D
$GPFPD,2292,459365.100,112.745,-0.493,1.087,31.42737178,120.62740995,12.204,0.003,-0.005,0.005,0.791,19,17,04*7A
$GTIMU,2292,459365.100,-0.0065,-0.0129,-0.0020,-0.0199,-0.0075,1.0004,35.4*4E
15:35::47.116,1702596965082,120.62740995,31.42737178,3478528.67960728,559651.97706932,112.74500000,6.00000000,0.00300000,-0.00500000,0.00500000,-0.00650000,-0.01290000,-0.00200000,-0.01990000,-0.00750000,1.00040000
$GPFPD,2292,459365.200,112.745,-0.493,1.087,31.42737178,120.62740995,12.204,0.002,-0.005,0.004,0.789,19,17,04*70
$GTIMU,2292,459365.200,0.0043,-0.0072,0.0013,-0.0184,-0.0090,0.9990,35.4*4D
15:35::47.216,1702596965182,120.62740995,31.42737178,3478528.67960728,559651.97706932,112.74500000,6.00000000,0.00200000,-0.00500000,0.00400000,0.00430000,-0.00720000,0.00130000,-0.01840000,-0.00900000,0.99900000
$GPFPD,2292,459365.300,112.745,-0.492,1.088,31.42737177,120.62740995,12.204,0.000,-0.007,0.004,0.790,19,17,04*78
$GTIMU,2292,459365.300,0.0004,0.0127,0.0122,-0.0181,-0.0084,1.0003,35.4*6B
15:35::47.316,1702596965282,120.62740995,31.42737177,3478528.67849848,559651.97707566,112.74500000,6.00000000,0.00000000,-0.00700000,0.00400000,0.00040000,0.01270000,0.01220000,-0.01810000,-0.00840000,1.00030000
$GPFPD,2292,459365.400,112.745,-0.493,1.089,31.42737174,120.62740992,12.203,0.001,-0.006,0.004,0.790,19,17,04*7C
$GTIMU,2292,459365.400,-0.0162,0.0064,-0.0060,-0.0201,-0.0073,0.9999,35.4*6D
15:35::47.416,1702596965382,120.62740992,31.42737174,3478528.67515580,559651.97424230,112.74500000,6.00000000,0.00100000,-0.00600000,0.00400000,-0.01620000,0.00640000,-0.00600000,-0.02010000,-0.00730000,0.99990000
$GPFPD,2292,459365.500,112.746,-0.492,1.086,31.42737172,120.62740990,12.202,0.001,-0.006,0.002,0.788,19,17,04*7A
$GTIMU,2292,459365.500,0.0093,-0.0339,-0.0055,-0.0191,-0.0081,0.9976,35.4*68
15:35::47.516,1702596965482,120.62740990,31.42737172,3478528.67292735,559651.97235340,112.74600000,6.00000000,0.00100000,-0.00600000,0.00200000,0.00930000,-0.03390000,-0.00550000,-0.01910000,-0.00810000,0.99760000
$GPFPD,2292,459365.600,112.745,-0.491,1.084,31.42737169,120.62740987,12.200,0.001,-0.007,0.003,0.788,19,17,04*75
$GTIMU,2292,459365.600,0.0060,-0.0192,0.0139,-0.0182,-0.0078,1.0003,35.4*45
15:35::47.616,1702596965582,120.62740987,31.42737169,3478528.66958466,559651.96952004,112.74500000,6.00000000,0.00100000,-0.00700000,0.00300000,0.00600000,-0.01920000,0.01390000,-0.01820000,-0.00780000,1.00030000
$GPFPD,2292,459365.700,112.745,-0.492,1.085,31.42737167,120.62740985,12.199,0.001,-0.007,0.004,0.792,19,17,04*75
$GTIMU,2292,459365.700,-0.0110,0.0138,0.0008,-0.0190,-0.0086,1.0004,35.4*44
15:35::47.716,1702596965682,120.62740985,31.42737167,3478528.66735621,559651.96763114,112.74500000,6.00000000,0.00100000,-0.00700000,0.00400000,-0.01100000,0.01380000,0.00080000,-0.01900000,-0.00860000,1.00040000
$GPFPD,2292,459365.800,112.745,-0.493,1.086,31.42737164,120.62740983,12.198,0.001,-0.006,0.003,0.792,19,17,04*7A
$GTIMU,2292,459365.800,-0.0127,0.0076,0.0042,-0.0194,-0.0076,0.9990,35.4*4D
15:35::47.816,1702596965782,120.62740983,31.42737164,3478528.66401895,559651.96574856,112.74500000,6.00000000,0.00100000,-0.00600000,0.00300000,-0.01270000,0.00760000,0.00420000,-0.01940000,-0.00760000,0.99900000
$GPFPD,2292,459365.900,112.745,-0.494,1.085,31.42737164,120.62740983,12.198,0.001,-0.007,0.003,0.790,19,17,04*7C
$GTIMU,2292,459365.900,-0.0128,-0.0129,0.0002,-0.0186,-0.0077,0.9997,35.4*64
15:35::47.916,1702596965882,120.62740983,31.42737164,3478528.66401895,559651.96574856,112.74500000,6.00000000,0.00100000,-0.00700000,0.00300000,-0.01280000,-0.01290000,0.00020000,-0.01860000,-0.00770000,0.99970000
$GPFPD,2292,459366.000,112.745,-0.493,1.086,31.42737163,120.62740983,12.199,0.001,-0.008,0.002,0.790,19,17,04*7A
$GTIMU,2292,459366.000,0.0015,0.0104,-0.0015,-0.0179,-0.0083,0.9989,35.4*41
15:35::48.016,1702596965982,120.62740983,31.42737163,3478528.66291015,559651.96575490,112.74500000,6.00000000,0.00100000,-0.00800000,0.00200000,0.00150000,0.01040000,-0.00150000,-0.01790000,-0.00830000,0.99890000
$GPGGA,073548.00,3125.6422798,N,12037.6452415,E,1,17,1.0,5.286,M,7.80,M,,*63
$GPFPD,2292,459366.100,112.745,-0.492,1.088,31.42737163,120.62740983,12.199,0.001,-0.007,0.002,0.790,19,17,04*7B
$GTIMU,2292,459366.100,0.0066,0.0149,0.0019,-0.0196,-0.0079,0.9996,35.4*66
15:35::48.116,1702596966082,120.62740983,31.42737163,3478528.66291015,559651.96575490,112.74500000,6.00000000,0.00100000,-0.00700000,0.00200000,0.00660000,0.01490000,0.00190000,-0.01960000,-0.00790000,0.99960000
$GPFPD,2292,459366.200,112.745,-0.493,1.089,31.42737162,120.62740983,12.199,0.001,-0.007,0.004,0.792,19,17,04*7D
$GTIMU,2292,459366.200,-0.0127,0.0121,0.0020,-0.0194,-0.0079,1.0011,35.4*44
15:35::48.216,1702596966182,120.62740983,31.42737162,3478528.66180135,559651.96576123,112.74500000,6.00000000,0.00100000,-0.00700000,0.00400000,-0.01270000,0.01210000,0.00200000,-0.01940000,-0.00790000,1.00110000
$GPFPD,2292,459366.300,112.746,-0.494,1.090,31.42737160,120.62740985,12.200,0.004,-0.009,0.004,0.789,20,17,04*7C
$GTIMU,2292,459366.300,-0.0054,0.0007,0.0042,-0.0188,-0.0087,0.9993,35.4*46
15:35::48.316,1702596966282,120.62740985,31.42737160,3478528.65959461,559651.96767546,112.74600000,6.00000000,0.00400000,-0.00900000,0.00400000,-0.00540000,0.00070000,0.00420000,-0.01880000,-0.00870000,0.99930000
$GPFPD,2292,459366.400,112.746,-0.494,1.090,31.42737156,120.62740990,12.200,0.004,-0.011,0.003,0.789,20,17,04*74
$GTIMU,2292,459366.400,-0.0065,0.0002,-0.0026,-0.0180,-0.0072,0.9987,35.4*6E
15:35::48.416,1702596966382,120.62740990,31.42737156,3478528.65518656,559651.97245470,112.74600000,6.00000000,0.00400000,-0.01100000,0.00300000,-0.00650000,0.00020000,-0.00260000,-0.01800000,-0.00720000,0.99870000
$GPFPD,2292,459366.500,112.745,-0.494,1.090,31.42737151,120.62740996,12.201,0.004,-0.010,0.004,0.791,20,17,04*79
$GTIMU,2292,459366.500,-0.0008,0.0007,0.0088,-0.0197,-0.0081,1.0001,35.4*4D
15:35::48.516,1702596966482,120.62740996,31.42737151,3478528.64967514,559651.97819105,112.74500000,6.00000000,0.00400000,-0.01000000,0.00400000,-0.00080000,0.00070000,0.00880000,-0.01970000,-0.00810000,1.00010000
$GPFPD,2292,459366.600,112.745,-0.492,1.088,31.42737147,120.62741001,12.201,0.004,-0.009,0.003,0.791,20,17,04*7B
$GTIMU,2292,459366.600,0.0196,-0.0254,0.0030,-0.0198,-0.0083,0.9988,35.4*42
15:35::48.616,1702596966582,120.62741001,31.42737147,3478528.64526709,559651.98297029,112.74500000,6.00000000,0.00400000,-0.00900000,0.00300000,0.01960000,-0.02540000,0.00300000,-0.01980000,-0.00830000,0.99880000
$GPFPD,2292,459366.700,112.746,-0.492,1.087,31.42737142,120.62741006,12.202,0.004,-0.010,0.004,0.792,20,17,04*7B
$GTIMU,2292,459366.700,-0.0099,-0.0038,-0.0009,-0.0185,-0.0080,1.0009,35.4*48
15:35::48.716,1702596966682,120.62741006,31.42737142,3478528.63975024,559651.98775586,112.74600000,6.00000000,0.00400000,-0.01000000,0.00400000,-0.00990000,-0.00380000,-0.00090000,-0.01850000,-0.00800000,1.00090000
$GPFPD,2292,459366.800,112.746,-0.493,1.088,31.42737139,120.62741011,12.203,0.004,-0.010,0.003,0.792,20,17,04*76
$GTIMU,2292,459366.800,-0.0065,0.0098,0.0031,-0.0186,-0.0081,0.9984,35.4*43
15:35::48.816,1702596966782,120.62741011,31.42737139,3478528.63645099,559651.99252877,112.74600000,6.00000000,0.00400000,-0.01000000,0.00300000,-0.00650000,0.00980000,0.00310000,-0.01860000,-0.00810000,0.99840000
$GPFPD,2292,459366.900,112.746,-0.493,1.090,31.42737138,120.62741011,12.203,0.004,-0.010,0.003,0.793,20,17,04*7E
$GTIMU,2292,459366.900,-0.0070,0.0132,0.0019,-0.0190,-0.0084,0.9995,35.4*4F
15:35::48.916,1702596966882,120.62741011,31.42737138,3478528.63534219,559651.99253510,112.74600000,6.00000000,0.00400000,-0.01000000,0.00300000,-0.00700000,0.01320000,0.00190000,-0.01900000,-0.00840000,0.99950000
$GPFPD,2292,459367.000,112.746,-0.493,1.089,31.42737137,120.62741011,12.203,0.004,-0.010,0.004,0.793,20,17,04*76
$GTIMU,2292,459367.000,-0.0014,-0.0078,-0.0021,-0.0193,-0.0076,1.0009,35.4*4B
15:35::49.016,1702596966982,120.62741011,31.42737137,3478528.63423339,559651.99254143,112.74600000,6.00000000,0.00400000,-0.01000000,0.00400000,-0.00140000,-0.00780000,-0.00210000,-0.01930000,-0.00760000,1.00090000
$GPGGA,073549.00,3125.6422745,N,12037.6452339,E,1,17,1.0,5.298,M,7.80,M,,*64
$GPFPD,2292,459367.100,112.745,-0.492,1.088,31.42737136,120.62741012,12.204,0.004,-0.010,0.003,0.793,20,17,04*76
$GTIMU,2292,459367.100,0.0003,-0.0169,0.0105,-0.0182,-0.0077,0.9981,35.4*4A
15:35::49.116,1702596967082,120.62741012,31.42737136,3478528.63313002,559651.99349854,112.74500000,6.00000000,0.00400000,-0.01000000,0.00300000,0.00030000,-0.01690000,0.01050000,-0.01820000,-0.00770000,0.99810000
$GPFPD,2292,459367.200,112.745,-0.493,1.087,31.42737135,120.62741012,12.204,0.005,-0.010,0.003,0.793,20,17,04*79
$GTIMU,2292,459367.200,-0.0048,-0.0129,0.0002,-0.0199,-0.0079,1.0000,35.4*65
15:35::49.216,1702596967182,120.62741012,31.42737135,3478528.63202122,559651.99350488,112.74500000,6.00000000,0.00500000,-0.01000000,0.00300000,-0.00480000,-0.01290000,0.00020000,-0.01990000,-0.00790000,1.00000000
$GPFPD,2292,459367.300,112.746,-0.492,1.086,31.42737136,120.62741013,12.203,0.006,-0.007,0.000,0.792,19,17,04*73
$GTIMU,2292,459367.300,-0.0003,-0.0010,-0.0009,-0.0184,-0.0083,1.0006,35.4*49
15:35::49.316,1702596967282,120.62741013,31.42737136,3478528.63313545,559651.99444933,112.74600000,6.00000000,0.00600000,-0.00700000,0.00000000,-0.00030000,-0.00100000,-0.00090000,-0.01840000,-0.00830000,1.00060000
$GPFPD,2292,459367.400,112.745,-0.492,1.088,31.42737139,120.62741017,12.197,0.006,-0.006,-0.001,0.792,19,17,04*51
$GTIMU,2292,459367.400,0.0004,0.0144,0.0088,-0.0194,-0.0087,0.9982,35.4*65
15:35::49.416,1702596967382,120.62741017,31.42737139,3478528.63648356,559651.99823347,112.74500000,6.00000000,0.00600000,-0.00600000,-0.00100000,0.00040000,0.01440000,0.00880000,-0.01940000,-0.00870000,0.99820000
$GPFPD,2292,459367.500,112.746,-0.493,1.088,31.42737143,120.62741020,12.190,0.006,-0.006,-0.000,0.796,19,17,04*59
$GTIMU,2292,459367.500,-0.0139,0.0002,-0.0043,-0.0189,-0.0074,1.0008,35.4*6C
15:35::49.516,1702596967482,120.62741020,31.42737143,3478528.64093504,559652.00106049,112.74600000,6.00000000,0.00600000,-0.00600000,0.00000000,-0.01390000,0.00020000,-0.00430000,-0.01890000,-0.00740000,1.00080000
$GPFPD,2292,459367.600,112.746,-0.494,1.087,31.42737147,120.62741023,12.184,0.006,-0.007,-0.001,0.796,19,17,04*50
$GTIMU,2292,459367.600,-0.0105,-0.0118,0.0014,-0.0184,-0.0075,0.9987,35.4*62
15:35::49.617,1702596967582,120.62741023,31.42737147,3478528.64538653,559652.00388752,112.74600000,6.00000000,0.00600000,-0.00700000,-0.00100000,-0.01050000,-0.01180000,0.00140000,-0.01840000,-0.00750000,0.99870000
$GPFPD,2292,459367.700,112.746,-0.493,1.088,31.42737151,120.62741027,12.178,0.007,-0.007,-0.002,0.790,19,17,04*5D
$GTIMU,2292,459367.700,0.0020,0.0042,-0.0004,-0.0192,-0.0078,0.9988,35.4*42
15:35::49.716,1702596967682,120.62741027,31.42737151,3478528.64984344,559652.00766532,112.74600000,6.00000000,0.00700000,-0.00700000,-0.00200000,0.00200000,0.00420000,-0.00040000,-0.01920000,-0.00780000,0.99880000
$GPFPD,2292,459367.800,112.746,-0.493,1.089,31.42737154,120.62741029,12.173,0.006,-0.006,0.000,0.790,19,17,04*7C
$GTIMU,2292,459367.800,-0.0002,0.0121,0.0008,-0.0196,-0.0089,1.0012,35.4*4D
15:35::49.816,1702596967782,120.62741029,31.42737154,3478528.65318069,559652.00954790,112.74600000,6.00000000,0.00600000,-0.00600000,0.00000000,-0.00020000,0.01210000,0.00080000,-0.01960000,-0.00890000,1.00120000
$GPFPD,2292,459367.900,112.746,-0.494,1.089,31.42737153,120.62741030,12.173,0.006,-0.006,-0.000,0.793,18,17,04*5A
$GTIMU,2292,459367.900,-0.0139,-0.0038,0.0060,-0.0189,-0.0081,0.9990,35.4*62
15:35::49.916,1702596967882,120.62741030,31.42737153,3478528.65207732,559652.01050501,112.74600000,6.00000000,0.00600000,-0.00600000,0.00000000,-0.01390000,-0.00380000,0.00600000,-0.01890000,-0.00810000,0.99900000
$GPFPD,2292,459368.000,112.746,-0.494,1.088,31.42737152,120.62741031,12.173,0.006,-0.007,-0.001,0.793,18,17,04*5D
$GTIMU,2292,459368.000,-0.0042,-0.0129,0.0065,-0.0183,-0.0079,0.9992,35.4*62
15:35::50.016,1702596967982,120.62741031,31.42737152,3478528.65097395,559652.01146212,112.74600000,6.00000000,0.00600000,-0.00700000,-0.00100000,-0.00420000,-0.01290000,0.00650000,-0.01830000,-0.00790000,0.99920000
$GPGGA,073550.00,3125.6422681,N,12037.6452336,E,1,17,1.0,5.284,M,7.80,M,,*67
$GPFPD,2292,459368.100,112.746,-0.493,1.088,31.42737152,120.62741031,12.173,0.007,-0.007,-0.000,0.793,18,17,04*5B
$GTIMU,2292,459368.100,0.0060,0.0036,-0.0044,-0.0188,-0.0071,1.0004,35.4*4F
15:35::50.116,1702596968082,120.62741031,31.42737152,3478528.65097395,559652.01146212,112.74600000,6.00000000,0.00700000,-0.00700000,0.00000000,0.00600000,0.00360000,-0.00440000,-0.01880000,-0.00710000,1.00040000
$GPFPD,2292,459368.200,112.746,-0.493,1.090,31.42737151,120.62741032,12.173,0.006,-0.007,-0.001,0.793,19,17,04*50
$GTIMU,2292,459368.200,-0.0036,0.0132,0.0031,-0.0191,-0.0087,0.9988,35.4*4C
15:35::50.216,1702596968182,120.62741032,31.42737151,3478528.64987058,559652.01241924,112.74600000,6.00000000,0.00600000,-0.00700000,-0.00100000,-0.00360000,0.01320000,0.00310000,-0.01910000,-0.00870000,0.99880000
$GPFPD,2292,459368.300,112.745,-0.493,1.091,31.42737151,120.62741031,12.174,0.003,-0.005,0.001,0.789,19,17,04*76
$GTIMU,2292,459368.300,-0.0013,0.0115,0.0116,-0.0200,-0.0090,0.9999,35.4*46
15:35::50.316,1702596968282,120.62741031,31.42737151,3478528.64986515,559652.01146846,112.74500000,6.00000000,0.00300000,-0.00500000,0.00100000,-0.00130000,0.01150000,0.01160000,-0.02000000,-0.00900000,0.99990000
$GPFPD,2292,459368.400,112.746,-0.492,1.089,31.42737152,120.62741026,12.176,0.003,-0.004,0.002,0.789,19,17,04*7F
$GTIMU,2292,459368.400,0.0003,-0.0248,0.0002,-0.0196,-0.0079,1.0002,35.4*47
15:35::50.416,1702596968382,120.62741026,31.42737152,3478528.65094681,559652.00670821,112.74600000,6.00000000,0.00300000,-0.00400000,0.00200000,0.00030000,-0.02480000,0.00020000,-0.01960000,-0.00790000,1.00020000
$GPFPD,2292,459368.500,112.746,-0.493,1.087,31.42737153,120.62741022,12.178,0.004,-0.006,0.000,0.796,19,17,04*73
$GTIMU,2292,459368.500,-0.0077,-0.0203,0.0002,-0.0174,-0.0066,0.9981,35.4*6F
15:35::50.516,1702596968482,120.62741022,31.42737153,3478528.65203389,559652.00289875,112.74600000,6.00000000,0.00400000,-0.00600000,0.00000000,-0.00770000,-0.02030000,0.00020000,-0.01740000,-0.00660000,0.99810000
$GPFPD,2292,459368.600,112.745,-0.492,1.086,31.42737153,120.62741017,12.180,0.004,-0.006,0.001,0.796,19,17,04*73
$GTIMU,2292,459368.600,-0.0008,-0.0038,0.0088,-0.0192,-0.0079,1.0004,35.4*66
15:35::50.616,1702596968582,120.62741017,31.42737153,3478528.65200675,559651.99814483,112.74500000,6.00000000,0.00400000,-0.00600000,0.00100000,-0.00080000,-0.00380000,0.00880000,-0.01920000,-0.00790000,1.00040000
$GPFPD,2292,459368.700,112.745,-0.492,1.087,31.42737154,120.62741012,12.182,0.003,-0.005,0.000,0.790,19,17,04*70
$GTIMU,2292,459368.700,0.0037,0.0081,0.0002,-0.0197,-0.0093,0.9991,35.4*67
15:35::50.716,1702596968682,120.62741012,31.42737154,3478528.65308840,559651.99338458,112.74500000,6.00000000,0.00300000,-0.00500000,0.00000000,0.00370000,0.00810000,0.00020000,-0.01970000,-0.00930000,0.99910000
$GPFPD,2292,459368.800,112.745,-0.492,1.090,31.42737155,120.62741008,12.184,0.002,-0.005,0.001,0.790,19,17,04*75
$GTIMU,2292,459368.800,-0.0025,0.0229,0.0014,-0.0183,-0.0083,1.0001,35.4*4D
15:35::50.816,1702596968782,120.62741008,31.42737155,3478528.65417548,559651.98957512,112.74500000,6.00000000,0.00200000,-0.00500000,0.00100000,-0.00250000,0.02290000,0.00140000,-0.01830000,-0.00830000,1.00010000
$GPFPD,2292,459368.900,112.746,-0.493,1.089,31.42737154,120.62741009,12.184,0.004,-0.006,0.001,0.791,19,17,04*7A
$GTIMU,2292,459368.900,-0.0207,-0.0061,0.0008,-0.0190,-0.0061,0.9997,35.4*60
15:35::50.917,1702596968882,120.62741009,31.42737154,3478528.65307211,559651.99053224,112.74600000,6.00000000,0.00400000,-0.00600000,0.00100000,-0.02070000,-0.00610000,0.00080000,-0.01900000,-0.00610000,0.99970000
$GPFPD,2292,459369.000,112.746,-0.493,1.089,31.42737154,120.62741009,12.184,0.003,-0.006,-0.000,0.791,19,17,04*59
$GTIMU,2292,459369.000,0.0048,-0.0089,-0.0004,-0.0190,-0.0089,0.9985,35.4*6E
15:35::51.016,1702596968982,120.62741009,31.42737154,3478528.65307211,559651.99053224,112.74600000,6.00000000,0.00300000,-0.00600000,0.00000000,0.00480000,-0.00890000,-0.00040000,-0.01900000,-0.00890000,0.99850000
$GPFPD,2292,459369$GPGGA,07.100,112.3551.00,3746,-0.49125.642262,1.089,339,N,12031.42737157.64522223,120.627,E,1,17,141009,12..0,5.262,184,0.003M,7.80,M,,-0.005,0,*69
.001,0.791,19,17,04*71
$GTIMU,2292,459369.100,0.0066,0.0053,0.0013,-0.0195,-0.0082,1.0002,35.4*62
15:35::51.116,1702596969082,120.62741009,31.42737153,3478528.65196331,559651.99053857,112.74600000,6.00000000,0.00300000,-0.00500000,0.00100000,0.00660000,0.00530000,0.00130000,-0.01950000,-0.00820000,1.00020000
$GPFPD,2292,459369.200,112.746,-0.493,1.091,31.42737153,120.62741010,12.184,0.003,-0.006,0.002,0.787,19,17,04*75
$GTIMU,2292,459369.200,-0.0201,0.0138,0.0020,-0.0189,-0.0079,1.0007,35.4*4F
15:35::51.216,1702596969182,120.62741010,31.42737153,3478528.65196874,559651.99148935,112.74600000,6.00000000,0.00300000,-0.00600000,0.00200000,-0.02010000,0.01380000,0.00200000,-0.01890000,-0.00790000,1.00070000
$GPFPD,2292,459369.300,112.746,-0.494,1.091,31.42737152,120.62741011,12.184,0.005,-0.006,-0.000,0.788,19,17,04*55
$GTIMU,2292,459369.300,-0.0065,-0.0038,0.0031,-0.0191,-0.0084,0.9990,35.4*66
15:35::51.317,1702596969282,120.62741011,31.42737152,3478528.65086537,559651.99244646,112.74600000,6.00000000,0.00500000,-0.00600000,0.00000000,-0.00650000,-0.00380000,0.00310000,-0.01910000,-0.00840000,0.99900000
$GPFPD,2292,459369.400,112.747,-0.493,1.089,31.42737150,120.62741013,12.182,0.005,-0.007,-0.002,0.788,19,17,04*58
$GTIMU,2292,459369.400,0.0014,-0.0214,-0.0032,-0.0182,-0.0075,0.9981,35.4*64
15:35::51.417,1702596969382,120.62741013,31.42737150,3478528.64865863,559651.99436069,112.74700000,6.00000000,0.00500000,-0.00700000,-0.00200000,0.00140000,-0.02140000,-0.00320000,-0.01820000,-0.00750000,0.99810000
$GPFPD,2292,459369.500,112.747,-0.492,1.089,31.42737148,120.62741016,12.179,0.005,-0.006,0.000,0.793,19,17,04*74
$GTIMU,2292,459369.500,0.0105,0.0070,0.0002,-0.0197,-0.0082,1.0013,35.4*61
15:35::51.516,1702596969482,120.62741016,31.42737148,3478528.64645732,559651.99722570,112.74700000,6.00000000,0.00500000,-0.00600000,0.00000000,0.01050000,0.00700000,0.00020000,-0.01970000,-0.00820000,1.00130000
$GPFPD,2292,459369.600,112.746,-0.492,1.089,31.42737146,120.62741018,12.177,0.005,-0.006,-0.000,0.793,19,17,04*55
$GTIMU,2292,459369.600,-0.0042,-0.0027,0.0071,-0.0189,-0.0083,0.9991,35.4*63
15:35::51.617,1702596969582,120.62741018,31.42737146,3478528.64425058,559651.99913993,112.74600000,6.00000000,0.00500000,-0.00600000,0.00000000,-0.00420000,-0.00270000,0.00710000,-0.01890000,-0.00830000,0.99910000
$GPFPD,2292,459369.700,112.746,-0.493,1.089,31.42737144,120.62741021,12.175,0.005,-0.006,-0.000,0.789,19,17,04*54
$GTIMU,2292,459369.700,-0.0167,-0.0004,0.0048,-0.0191,-0.0077,0.9997,35.4*6B
15:35::51.717,1702596969682,120.62741021,31.42737144,3478528.64204927,559652.00200494,112.74600000,6.00000000,0.00500000,-0.00600000,0.00000000,-0.01670000,-0.00040000,0.00480000,-0.01910000,-0.00770000,0.99970000
$GPFPD,2292,459369.800,112.747,-0.493,1.089,31.42737142,120.62741023,12.174,0.004,-0.007,-0.000,0.789,19,17,04*5F
$GTIMU,2292,459369.800,-0.0026,-0.0083,-0.0021,-0.0186,-0.0084,0.9995,35.4*45
15:35::51.816,1702596969782,120.62741023,31.42737142,3478528.63984253,559652.00391917,112.74700000,6.00000000,0.00400000,-0.00700000,0.00000000,-0.00260000,-0.00830000,-0.00210000,-0.01860000,-0.00840000,0.99950000
$GPFPD,2292,459369.900,112.746,-0.492,1.087,31.42737142,120.62741023,12.174,0.005,-0.007,-0.002,0.791,19,17,04*5A
$GTIMU,2292,459369.900,0.0082,-0.0180,0.0070,-0.0192,-0.0073,0.9982,35.4*47
15:35::51.916,1702596969882,120.62741023,31.42737142,3478528.63984253,559652.00391917,112.74600000,6.00000000,0.00500000,-0.00700000,-0.00200000,0.00820000,-0.01800000,0.00700000,-0.01920000,-0.00730000,0.99820000
$GPFPD,2292,459370.000,112.746,-0.493,1.086,31.42737141,120.62741024,12.174,0.006,-0.007,-0.000,0.791,19,17,04*5E
$GTIMU,2292,459370.000,-0.0088,-0.0072,0.0014,-0.0194,-0.0074,1.0009,35.4*6C
15:35::52.016,1702596969982,120.62741024,31.42737141,3478528.63873916,559652.00487629,112.74600000,6.00000000,0.00600000,-0.00700000,0.00000000,-0.00880000,-0.00720000,0.00140000,-0.01940000,-0.00740000,1.00090000
$GPFPD,2292,459370$GPGGA,0.100,112.73552.00,747,-0.43125.642293,1.087,628,N,12031.42737137.64522840,120.628,E,1,17741024,1,1.0,5.192.174,0.3,M,7.80,004,-0.00M,,*67
6,-0.000,0.791,19,17,04*5D
$GTIMU,2292,459370.100,-0.0042,0.0081,-0.0015,-0.0186,-0.0097,0.9994,35.4*6D
15:35::52.116,1702596970082,120.62741024,31.42737140,3478528.63763036,559652.00488262,112.74700000,6.00000000,0.00400000,-0.00600000,0.00000000,-0.00420000,0.00810000,-0.00150000,-0.01860000,-0.00970000,0.99940000
$GPFPD,2292,459370.200,112.746,-0.493,1.089,31.42737140,120.62741025,12.173,0.004,-0.007,-0.001,0.789,19,17,04*5E
$GTIMU,2292,459370.200,-0.0082,0.0115,0.0048,-0.0183,-0.0075,0.9990,35.4*46
15:35::52.217,1702596970182,120.62741025,31.42737140,3478528.63763579,559652.00583340,112.74600000,6.00000000,0.00400000,-0.00700000,-0.00100000,-0.00820000,0.01150000,0.00480000,-0.01830000,-0.00750000,0.99900000
$GPFPD,2292,459370.300,112.747,-0.494,1.089,31.42737139,120.62741025,12.175,0.006,-0.006,0.003,0.790,19,17,04*75
$GTIMU,2292,459370.300,-0.0065,0.0036,-0.0015,-0.0193,-0.0072,1.0005,35.4*60
15:35::52.316,1702596970282,120.62741025,31.42737139,3478528.63652699,559652.00583973,112.74700000,6.00000000,0.00600000,-0.00600000,0.00300000,-0.00650000,0.00360000,-0.00150000,-0.01930000,-0.00720000,1.00050000
$GPFPD,2292,459370.400,112.747,-0.492,1.089,31.42737140,120.62741026,12.179,0.005,-0.006,0.002,0.790,19,17,04*77
$GTIMU,2292,459370.400,0.0088,-0.0044,0.0008,-0.0191,-0.0086,0.9982,35.4*47
15:35::52.416,1702596970382,120.62741026,31.42737140,3478528.63764122,559652.00678418,112.74700000,6.00000000,0.00500000,-0.00600000,0.00200000,0.00880000,-0.00440000,0.00080000,-0.01910000,-0.00860000,0.99820000
$GPFPD,2292,459370.500,112.747,-0.493,1.090,31.42737140,120.62741027,12.184,0.006,-0.006,0.003,0.790,19,17,04*7E
$GTIMU,2292,459370.500,-0.0105,0.0076,0.0014,-0.0193,-0.0077,1.0007,35.4*4E
15:35::52.516,1702596970482,120.62741027,31.42737140,3478528.63764665,559652.00773497,112.74700000,6.00000000,0.00600000,-0.00600000,0.00300000,-0.01050000,0.00760000,0.00140000,-0.01930000,-0.00770000,1.00070000
$GPFPD,2292,459370.600,112.747,-0.493,1.090,31.42737140,120.62741028,12.188,0.005,-0.006,0.004,0.790,19,17,04*7A
$GTIMU,2292,459370.600,-0.0076,0.0007,0.0025,-0.0188,-0.0088,1.0002,35.4*43
15:35::52.616,1702596970582,120.62741028,31.42737140,3478528.63765208,559652.00868575,112.74700000,6.00000000,0.00500000,-0.00600000,0.00400000,-0.00760000,0.00070000,0.00250000,-0.01880000,-0.00880000,1.00020000
$GPFPD,2292,459370.700,112.747,-0.494,1.089,31.42737140,120.62741028,12.193,0.005,-0.006,0.002,0.789,19,17,04*70
$GTIMU,2292,459370.700,-0.0048,-0.0106,0.0031,-0.0186,-0.0079,0.9983,35.4*6F
15:35::52.717,1702596970682,120.62741028,31.42737140,3478528.63765208,559652.00868575,112.74700000,6.00000000,0.00500000,-0.00600000,0.00200000,-0.00480000,-0.01060000,0.00310000,-0.01860000,-0.00790000,0.99830000
$GPFPD,2292,459370.800,112.747,-0.493,1.088,31.42737140,120.62741029,12.197,0.006,-0.007,0.003,0.789,19,17,04*7F
$GTIMU,2292,459370.800,-0.0008,-0.0066,0.0014,-0.0190,-0.0071,0.9999,35.4*60
15:35::52.817,1702596970782,120.62741029,31.42737140,3478528.63765751,559652.00963653,112.74700000,6.00000000,0.00600000,-0.00700000,0.00300000,-0.00080000,-0.00660000,0.00140000,-0.01900000,-0.00710000,0.99990000
$GPFPD,2292,459370.900,112.747,-0.492,1.088,31.42737140,120.62741030,12.197,0.005,-0.006,0.003,0.789,19,17,04*75
$GTIMU,2292,459370.900,0.0054,-0.0049,0.0031,-0.0196,-0.0087,0.9995,35.4*4C
15:35::52.916,1702596970882,120.62741030,31.42737140,3478528.63766294,559652.01058731,112.74700000,6.00000000,0.00500000,-0.00600000,0.00300000,0.00540000,-0.00490000,0.00310000,-0.01960000,-0.00870000,0.99950000
$GPFPD,2292,459371.000,112.747,-0.492,1.088,31.42737139,120.62741030,12.197,0.006,-0.006,0.002,0.789,19,17,04*71
$GTIMU,2292,459371.000,0.0014,-0.0010,0.0019,-0.0190,-0.0078,0.9991,35.4*44
15:35::53.017,1702596970982,120.62741030,31.42737139,3478528.63655414,559652.01059365,112.74700000,6.00000000,0.00600000,-0.00600000,0.00200000,0.00140000,-0.00100000,0.00190000,-0.01900000,-0.00780000,0.99910000
$GPGGA,073553.00,3125.6422594,N,12037.6452189,E,1,17,1.0,5.201,M,7.80,M,,*68
$GPFPD,2292,459371.100,112.747,-0.493,1.088,31.42737139,120.62741031,12.197,0.005,-0.006,0.004,0.789,19,17,04*75
$GTIMU,2292,459371.100,-0.0156,0.0002,0.0031,-0.0190,-0.0084,1.0009,35.4*48
15:35::53.116,1702596971082,120.62741031,31.42737139,3478528.63655957,559652.01154443,112.74700000,6.00000000,0.00500000,-0.00600000,0.00400000,-0.01560000,0.00020000,0.00310000,-0.01900000,-0.00840000,1.00090000
$GPFPD,2292,459371.200,112.747,-0.493,1.088,31.42737138,120.62741031,12.198,0.005,-0.006,0.002,0.787,19,17,04*70
$GTIMU,2292,459371.200,-0.0003,-0.0027,0.0019,-0.0184,-0.0080,0.9983,35.4*68
15:35::53.216,1702596971182,120.62741031,31.42737138,3478528.63545077,559652.01155076,112.74700000,6.00000000,0.00500000,-0.00600000,0.00200000,-0.00030000,-0.00270000,0.00190000,-0.01840000,-0.00800000,0.99830000
$GPFPD,2292,459371.300,112.747,-0.493,1.087,31.42737137,120.62741032,12.196,0.006,-0.008,-0.002,0.790,19,17,04*5A
$GTIMU,2292,459371.300,-0.0076,-0.0118,0.0042,-0.0188,-0.0074,0.9998,35.4*65
15:35::53.317,1702596971282,120.62741032,31.42737137,3478528.63434740,559652.01250787,112.74700000,6.00000000,0.00600000,-0.00800000,-0.00200000,-0.00760000,-0.01180000,0.00420000,-0.01880000,-0.00740000,0.99980000
$GPFPD,2292,459371.400,112.747,-0.493,1.088,31.42737134,120.62741032,12.189,0.005,-0.008,-0.002,0.790,19,17,04*5C
$GTIMU,2292,459371.400,0.0020,0.0081,0.0002,-0.0187,-0.0080,0.9997,35.4*6F
15:35::53.417,1702596971382,120.62741032,31.42737134,3478528.63102100,559652.01252687,112.74700000,6.00000000,0.00500000,-0.00800000,-0.00200000,0.00200000,0.00810000,0.00020000,-0.01870000,-0.00800000,0.99970000
$GPFPD,2292,459371.500,112.748,-0.492,1.089,31.42737132,120.62741032,12.182,0.005,-0.007,-0.002,0.793,19,17,04*53
$GTIMU,2292,459371.500,0.0077,0.0081,0.0002,-0.0197,-0.0086,0.9994,35.4*68
15:35::53.517,1702596971482,120.62741032,31.42737132,3478528.62880340,559652.01253953,112.74800000,6.00000000,0.00500000,-0.00700000,-0.00200000,0.00770000,0.00810000,0.00020000,-0.01970000,-0.00860000,0.99940000
$GPFPD,2292,459371.600,112.747,-0.493,1.089,31.42737129,120.62741032,12.175,0.006,-0.007,-0.001,0.793,19,17,04*5C
$GTIMU,2292,459371.600,-0.0110,-0.0072,0.0054,-0.0191,-0.0076,1.0003,35.4*62
15:35::53.616,1702596971582,120.62741032,31.42737129,3478528.62547701,559652.01255852,112.74700000,6.00000000,0.00600000,-0.00700000,-0.00100000,-0.01100000,-0.00720000,0.00540000,-0.01910000,-0.00760000,1.00030000
$GPFPD,2292,459371.700,112.747,-0.493,1.088,31.42737126,120.62741032,12.168,0.005,-0.007,-0.001,0.788,19,17,04*56
$GTIMU,2292,459371.700,-0.0065,-0.0044,0.0008,-0.0188,-0.0085,0.9998,35.4*6B
15:35::53.717,1702596971682,120.62741032,31.42737126,3478528.62215061,559652.01257752,112.74700000,6.00000000,0.00500000,-0.00700000,-0.00100000,-0.00650000,-0.00440000,0.00080000,-0.01880000,-0.00850000,0.99980000
$GPFPD,2292,459371.800,112.748,-0.493,1.088,31.42737124,120.62741032,12.163,0.005,-0.008,-0.002,0.788,19,17,04*53
$GTIMU,2292,459371.800,-0.0037,-0.0049,-0.0003,-0.0183,-0.0078,0.9983,35.4*4B
15:35::53.817,1702596971782,120.62741032,31.42737124,3478528.61993301,559652.01259018,112.74800000,6.00000000,0.00500000,-0.00800000,-0.00200000,-0.00370000,-0.00490000,-0.00030000,-0.01830000,-0.00780000,0.99830000
$GPFPD,2292,459371.900,112.747,-0.493,1.088,31.42737123,120.62741033,12.163,0.006,-0.008,-0.001,0.786,19,17,04*55
$GTIMU,2292,459371.900,-0.0036,0.0007,0.0065,-0.0191,-0.0075,1.0003,35.4*46
15:35::53.917,1702596971882,120.62741033,31.42737123,3478528.61882964,559652.01354730,112.74700000,6.00000000,0.00600000,-0.00800000,-0.00100000,-0.00360000,0.00070000,0.00650000,-0.01910000,-0.00750000,1.00030000
$GPFPD,2292,459372.000,112.747,-0.493,1.089,31.42737123,120.62741033,12.162,0.006,-0.007,-0.002,0.786,19,17,04*53
$GTIMU,2292,459372.000,-0.0048,0.0024,0.0002,-0.0197,-0.0080,0.9989,35.4*4A
15:35::54.016,1702596971982,120.62741033,31.42737123,3478528.61882964,559652.01354730,112.74700000,6.00000000,0.00600000,-0.00700000,-0.00200000,-0.00480000,0.00240000,0.00020000,-0.01970000,-0.00800000,0.99890000
$GPGGA,073554.00,3125.6422519,N,12037.6452214,E,1,17,1.0,5.198,M,7.80,M,,*6E
$GPFPD,2292,459372.100,112.747,-0.493,1.088,31.42737122,120.62741034,12.162,0.005,-0.007,-0.002,0.786,19,17,04*56
$GTIMU,2292,459372.100,-0.0031,-0.0032,0.0031,-0.0193,-0.0087,0.9997,35.4*63
15:35::54.117,1702596972082,120.62741034,31.42737122,3478528.61772627,559652.01450441,112.74700000,6.00000000,0.00500000,-0.00700000,-0.00200000,-0.00310000,-0.00320000,0.00310000,-0.01930000,-0.00870000,0.99970000
$GPFPD,2292,459372.200,112.748,-0.494,1.088,31.42737121,120.62741034,12.162,0.005,-0.007,-0.001,0.791,19,17,04*5B
$GTIMU,2292,459372.200,-0.0093,-0.0004,-0.0015,-0.0185,-0.0081,1.0006,35.4*4E
15:35::54.217,1702596972182,120.62741034,31.42737121,3478528.61661747,559652.01451074,112.74800000,6.00000000,0.00500000,-0.00700000,-0.00100000,-0.00930000,-0.00040000,-0.00150000,-0.01850000,-0.00810000,1.00060000
$GPFPD,2292,459372.300,112.748,-0.493,1.090,31.42737119,120.62741034,12.163,0.002,-0.011,0.000,0.792,19,17,04*71
$GTIMU,2292,459372.300,-0.0019,0.0070,0.0014,-0.0177,-0.0078,0.9989,35.4*42
15:35::54.317,1702596972282,120.62741034,31.42737119,3478528.61439987,559652.01452340,112.74800000,6.00000000,0.00200000,-0.01100000,0.00000000,-0.00190000,0.00700000,0.00140000,-0.01770000,-0.00780000,0.99890000
$GPFPD,2292,459372.400,112.748,-0.493,1.090,31.42737115,120.62741030,12.165,0.003,-0.011,0.000,0.792,19,17,04*79
$GTIMU,2292,459372.400,-0.0025,0.0053,0.0042,-0.0194,-0.0078,0.9998,35.4*45
15:35::54.416,1702596972382,120.62741030,31.42737115,3478528.60994296,559652.01074559,112.74800000,6.00000000,0.00300000,-0.01100000,0.00000000,-0.00250000,0.00530000,0.00420000,-0.01940000,-0.00780000,0.99980000
$GPFPD,2292,459372.500,112.748,-0.492,1.090,31.42737110,120.62741026,12.167,0.003,-0.010,0.000,0.791,19,17,04*7B
$GTIMU,2292,459372.500,0.0071,-0.0067,0.0013,-0.0199,-0.0080,0.9995,35.4*41
15:35::54.517,1702596972482,120.62741026,31.42737110,3478528.60437725,559652.00697412,112.74800000,6.00000000,0.00300000,-0.01000000,0.00000000,0.00710000,-0.00670000,0.00130000,-0.01990000,-0.00800000,0.99950000
$GPFPD,2292,459372.600,112.748,-0.492,1.088,31.42737105,120.62741022,12.169,0.003,-0.010,0.000,0.791,19,17,04*7F
$GTIMU,2292,459372.600,0.0009,-0.0163,0.0025,-0.0195,-0.0082,0.9996,35.4*40
15:35::54.617,1702596972582,120.62741022,31.42737105,3478528.59881154,559652.00320264,112.74800000,6.00000000,0.00300000,-0.01000000,0.00000000,0.00090000,-0.01630000,0.00250000,-0.01950000,-0.00820000,0.99960000
$GPFPD,2292,459372.700,112.747,-0.493,1.087,31.42737100,120.62741018,12.172,0.003,-0.011,0.001,0.791,19,17,04*79
$GTIMU,2292,459372.700,-0.0150,-0.0157,0.0082,-0.0184,-0.0078,1.0003,35.4*63
15:35::54.716,1702596972682,120.62741018,31.42737100,3478528.59324583,559651.99943117,112.74700000,6.00000000,0.00300000,-0.01100000,0.00100000,-0.01500000,-0.01570000,0.00820000,-0.01840000,-0.00780000,1.00030000
$GPFPD,2292,459372.800,112.748,-0.493,1.088,31.42737096,120.62741015,12.173,0.002,-0.011,0.000,0.791,19,17,04*74
$GTIMU,2292,459372.800,-0.0076,0.0093,-0.0015,-0.0177,-0.0085,0.9987,35.4*6D
15:35::54.817,1702596972782,120.62741015,31.42737096,3478528.58879435,559651.99660414,112.74800000,6.00000000,0.00200000,-0.01100000,0.00000000,-0.00760000,0.00930000,-0.00150000,-0.01770000,-0.00850000,0.99870000
$GPFPD,2292,459372.900,112.748,-0.493,1.089,31.42737095,120.62741015,12.173,0.003,-0.011,0.000,0.787,19,17,04*71
$GTIMU,2292,459372.900,0.0020,0.0064,-0.0015,-0.0194,-0.0075,0.9995,35.4*4B
15:35::54.917,1702596972882,120.62741015,31.42737095,3478528.58768555,559651.99661047,112.74800000,6.00000000,0.00300000,-0.01100000,0.00000000,0.00200000,0.00640000,-0.00150000,-0.01940000,-0.00750000,0.99950000
$GPFPD,2292,459373.000,112.747,-0.493,1.088,31.42737094,120.62741015,12.173,0.003,-0.011,0.000,0.787,19,17,04*76
$GTIMU,2292,459373.000,0.0003,-0.0061,0.0105,-0.0197,-0.0084,0.9998,35.4*47
15:35::55.016,1702596972982,120.62741015,31.42737094,3478528.58657675,559651.99661680,112.74700000,6.00000000,0.00300000,-0.01100000,0.00000000,0.00030000,-0.00610000,0.01050000,-0.01970000,-0.00840000,0.99980000
$GPGGA,073555.00,3125.6422410,N,12037.6452248,E,1,17,1.0,5.173,M,7.80,M,,*6B
