06,-0.012,0.801,19,18,04*50
$GTIMU,2292,527119.600,-0.0081,0.0394,0.0002,-0.0185,-0.0067,0.9984,23.2*40
10:25::01.623,1702664719582,120.62751712,31.42732934,3478524.03205117,559662.19348521,112.95500000,6.00000000,0.00500000,-0.00600000,-0.01200000,-0.00810000,0.03940000,0.00020000,-0.01850000,-0.00670000,0.99840000
$GPFPD,2292,527119.700,112.954,-0.405,1.232,31.42732938,120.62751712,10.610,0.006,-0.004,-0.010,0.799,19,18,04*51
$GTIMU,2292,527119.700,0.0105,-0.0368,0.0082,-0.0242,-0.0066,1.0008,23.2*4B
10:25::01.723,1702664719682,120.62751712,31.42732938,3478524.03648636,559662.19345988,112.95400000,6.00000000,0.00600000,-0.00400000,-0.01000000,0.01050000,-0.03680000,0.00820000,-0.02420000,-0.00660000,1.00080000
$GPFPD,2292,527119.800,112.955,-0.407,1.236,31.42732941,120.62751713,10.606,0.006,-0.006,-0.011,0.799,19,18,04*52
$GTIMU,2292,527119.800,-0.0212,0.0354,-0.0060,-0.0185,-0.0058,0.9986,23.2*6D
10:25::01.824,1702664719782,120.62751713,31.42732941,3478524.03981819,559662.19439167,112.95500000,6.00000000,0.00600000,-0.00600000,-0.01100000,-0.02120000,0.03540000,-0.00600000,-0.01850000,-0.00580000,0.99860000
$GPFPD,2292,527119.900,112.955,-0.404,1.233,31.42732941,120.62751713,10.605,0.005,-0.004,-0.011,0.801,19,18,04*59
$GTIMU,2292,527119.900,0.0202,-0.0300,0.0076,-0.0233,-0.0084,1.0004,23.2*42
10:25::01.923,1702664719882,120.62751713,31.42732941,3478524.03981819,559662.19439167,112.95500000,6.00000000,0.00500000,-0.00400000,-0.01100000,0.02020000,-0.03000000,0.00760000,-0.02330000,-0.00840000,1.00040000
$GPFPD,2292,527120.000,112.955,-0.406,1.237,31.42732940,120.62751714,10.604,0.006,-0.006,-0.011,0.801,19,18,04*5A
$GTIMU,2292,527120.000,-0.0144,0.0457,-0.0054,-0.0188,-0.0051,0.9993,23.2*6C
10:25::02.023,1702664719982,120.62751714,31.42732940,3478524.03871482,559662.19534878,112.95500000,6.00000000,0.00600000,-0.00600000,-0.01100000,-0.01440000,0.04570000,-0.00540000,-0.01880000,-0.00510000,0.99930000
$GPGGA,022502.00,3125.6397900,N,12037.6516799,E,1,18,1.0,3.987,M,7.80,M,,*6A
$GPFPD,2292,527120.100,112.955,-0.405,1.232,31.42732940,120.62751715,10.603,0.007,-0.004,-0.010,0.801,19,18,04*59
$GTIMU,2292,527120.100,-0.0009,-0.0567,0.0093,-0.0245,-0.0059,1.0001,23.2*6C
10:25::02.123,1702664720082,120.62751715,31.42732940,3478524.03872025,559662.19629957,112.95500000,6.00000000,0.00700000,-0.00400000,-0.01000000,-0.00090000,-0.05670000,0.00930000,-0.02450000,-0.00590000,1.00010000
$GPFPD,2292,527120.200,112.955,-0.408,1.234,31.42732939,120.62751715,10.602,0.006,-0.006,-0.011,0.797,19,18,04*5C
$GTIMU,2292,527120.200,-0.0275,0.0167,-0.0026,-0.0185,-0.0073,0.9988,23.2*6B
10:25::02.223,1702664720182,120.62751715,31.42732939,3478524.03761145,559662.19630590,112.95500000,6.00000000,0.00600000,-0.00600000,-0.01100000,-0.02750000,0.01670000,-0.00260000,-0.01850000,-0.00730000,0.99880000
$GPFPD,2292,527120.300,112.955,-0.406,1.229,31.42732939,120.62751716,10.600,0.005,-0.004,-0.013,0.801,19,18,04*5D
$GTIMU,2292,527120.300,0.0116,-0.0510,0.0082,-0.0233,-0.0071,1.0000,23.2*46
10:25::02.323,1702664720282,120.62751716,31.42732939,3478524.03761688,559662.19725668,112.95500000,6.00000000,0.00500000,-0.00400000,-0.01300000,0.01160000,-0.05100000,0.00820000,-0.02330000,-0.00710000,1.00000000
$GPFPD,2292,527120.400,112.956,-0.408,1.230,31.42732938,120.62751715,10.597,0.005,-0.006,-0.013,0.801,19,18,04*52
$GTIMU,2292,527120.400,-0.0258,0.0104,-0.0026,-0.0192,-0.0059,0.9998,23.2*68
10:25::02.423,1702664720382,120.62751715,31.42732938,3478524.03650265,559662.19631223,112.95600000,6.00000000,0.00500000,-0.00600000,-0.01300000,-0.02580000,0.01040000,-0.00260000,-0.01920000,-0.00590000,0.99980000
$GPFPD,2292,527120.500,112.955,-0.410,1.226,31.42732938,120.62751714,10.593,0.006,-0.005,-0.014,0.800,19,18,04*5D
$GTIMU,2292,527120.500,-0.0139,-0.0379,0.0037,-0.0224,-0.0063,0.9983,23.2*68
10:25::02.524,1702664720482,120.62751714,31.42732938,3478524.03649722,559662.19536145,112.95500000,6.00000000,0.00600000,-0.00500000,-0.01400000,-0.01390000,-0.03790000,0.00370000,-0.02240000,-0.00630000,0.99830000
$GPFPD,2292,527120.600,112.956,-0.408,1.229,31.42732937,120.62751713,10.590,0.004,-0.006,-0.013,0.800,19,18,04*56
$GTIMU,2292,527120.600,0.0083,0.0241,-0.0009,-0.0194,-0.0078,1.0006,23.2*4F
10:25::02.623,1702664720582,120.62751713,31.42732937,3478524.03538299,559662.19441700,112.95600000,6.00000000,0.00400000,-0.00600000,-0.01300000,0.00830000,0.02410000,-0.00090000,-0.01940000,-0.00780000,1.00060000
$GPFPD,2292,527120.700,112.955,-0.410,1.226,31.42732936,120.62751712,10.586,0.005,-0.005,-0.013,0.800,19,18,04*57
$GTIMU,2292,527120.700,-0.0150,-0.0265,0.0060,-0.0226,-0.0066,0.9994,23.2*6A
10:25::02.723,1702664720682,120.62751712,31.42732936,3478524.03426877,559662.19347255,112.95500000,6.00000000,0.00500000,-0.00500000,-0.01300000,-0.01500000,-0.02650000,0.00600000,-0.02260000,-0.00660000,0.99940000
$GPFPD,2292,527120.800,112.956,-0.410,1.228,31.42732935,120.62751712,10.583,0.005,-0.006,-0.014,0.800,19,18,04*57
$GTIMU,2292,527120.800,-0.0053,0.0167,-0.0015,-0.0202,-0.0067,0.9991,23.2*66
10:25::02.823,1702664720782,120.62751712,31.42732935,3478524.03315997,559662.19347888,112.95600000,6.00000000,0.00500000,-0.00600000,-0.01400000,-0.00530000,0.01670000,-0.00150000,-0.02020000,-0.00670000,0.99910000
$GPFPD,2292,527120.900,112.956,-0.410,1.224,31.42732935,120.62751712,10.582,0.007,-0.006,-0.014,0.799,19,18,04*56
$GTIMU,2292,527120.900,-0.0009,-0.0408,0.0036,-0.0220,-0.0051,0.9994,23.2*65
10:25::02.923,1702664720882,120.62751712,31.42732935,3478524.03315997,559662.19347888,112.95600000,6.00000000,0.00700000,-0.00600000,-0.01400000,-0.00090000,-0.04080000,0.00360000,-0.02200000,-0.00510000,0.99940000
$GPFPD,2292,527121.000,112.956,-0.410,1.227,31.42732934,120.62751713,10.581,0.005,-0.006,-0.013,0.799,19,18,04*5B
$GTIMU,2292,527121.000,-0.0093,0.0303,-0.0020,-0.0195,-0.0082,1.0001,23.2*6B
$GPFPD,2292,527121.100,112.955,-0.409,1.226,31.42732934,120.62751713,10.579,0.005,-0.005,-0.014,0.799,19,18,04*53
$GTIMU,2292,527121.100,0.0037,-0.0192,0.0076,-0.0222,-0.0071,0.9988,23.2*43
$GPFPD,2292,527121.200,112.956,-0.410,1.229,31.42732933,120.62751714,10.578,0.005,-0.006,-0.014,0.797,19,18,04*58
$GTIMU,2292,527121.200,-0.0047,0.0332,-0.0015,-0.0204,-0.0057,1.0002,23.2*64
$GPFPD,2292,527121.300,112.956,-0.410,1.224,31.42732932,120.62751714,10.577,0.005,-0.007,-0.013,0.801,19,18,04*5C
$GTIMU,2292,527121.300,-0.0083,-0.0533,0.0031,-0.0225,-0.0052,0.9994,23.2*64
$GPFPD,2292,527121.400,112.957,-0.410,1.228,31.42732929,120.62751712,10.578,0.003,-0.008,-0.014,0.801,19,18,04*5B
$GTIMU,2292,527121.400,-0.0042,0.0394,-0.0032,-0.0187,-0.0087,0.9994,23.2*65
$GPFPD,2292,527121.500,112.956,-0.409,1.226,31.42732927,120.62751709,10.580,0.003,-0.006,-0.013,0.798,19,18,04*58
$GTIMU,2292,527121.500,0.0071,-0.0214,0.0105,-0.0231,-0.0071,0.9998,23.2*4E
$GPFPD,2292,527121.600,112.957,-0.410,1.227,31.42732924,120.62751707,10.581,0.003,-0.007,-0.013,0.798,19,18,04*5E
$GTIMU,2292,527121.600,-0.0116,0.0110,-0.0049,-0.0204,-0.0058,0.9997,23.2*6C
$GPFPD,2292,527121.700,112.956,-0.411,1.225,31.42732921,120.62751705,10.582,0.005,-0.008,-0.014,0.797,19,18,04*58
$GTIMU,2292,527121.700,-0.0128,-0.0282,0.0042,-0.0209,-0.0047,0.9991,23.2*66
$GPFPD,2292,527121.800,112.957,-0.410,1.227,31.42732919,120.62751704,10.583,0.003,-0.007,-0.013,0.797,19,18,04*50
$GTIMU,2292,527121.800,0.0049,0.0201,0.0013,-0.0208,-0.0090,0.9999,23.2*63
$GPFPD,2292,527121.900,112.957,-0.410,1.227,31.42732918,120.62751704,10.581,0.003,-0.007,-0.014,0.800,19,18,04*54
$GTIMU,2292,527121.900,-0.0071,-0.0032,0.0019,-0.0210,-0.0066,0.9994,23.2*6C
$GPGGA,022503.00,3125.6396970,N,12037.6516957,E,1,18,1.0,3.992,M,7.80,M,,*65
$GPFPD,2292,527122.000,112.956,-0.410,1.226,31.42732917,120.62751704,10.580,0.004,-0.007,-0.013,0.800,19,18,04*50
$GTIMU,2292,527122.000,-0.0025,-0.0078,0.0042,-0.0222,-0.0062,1.0002,23.2*6C
10:25::04.024,1702664721982,120.62751704,31.42732917,3478524.01315815,559662.18598659,112.95600000,6.00000000,0.00400000,-0.00700000,-0.01300000,-0.00250000,-0.00780000,0.00420000,-0.02220000,-0.00620000,1.00020000
$GPGGA,022504.00,3125.6397277,N,12037.6516987,E,1,18,1.0,3.999,M,7.80,M,,*69
$GPFPD,2292,527122.100,112.957,-0.412,1.226,31.42732917,120.62751705,10.579,0.004,-0.009,-0.014,0.800,19,18,04*5C
$GTIMU,2292,527122.100,-0.0178,0.0025,-0.0020,-0.0192,-0.0050,0.9982,23.2*68
10:25::04.123,1702664722082,120.62751705,31.42732917,3478524.01316358,559662.18693738,112.95700000,6.00000000,0.00400000,-0.00900000,-0.01400000,-0.01780000,0.00250000,-0.00200000,-0.01920000,-0.00500000,0.99820000
$GPFPD,2292,527122.200,112.957,-0.410,1.227,31.42732916,120.62751705,10.577,0.003,-0.007,-0.013,0.799,19,18,04*52
$GTIMU,2292,527122.200,0.0157,0.0019,0.0042,-0.0224,-0.0089,1.0010,23.2*6D
10:25::04.223,1702664722182,120.62751705,31.42732916,3478524.01205478,559662.18694371,112.95700000,6.00000000,0.00300000,-0.00700000,-0.01300000,0.01570000,0.00190000,0.00420000,-0.02240000,-0.00890000,1.00100000
$GPFPD,2292,527122.300,112.957,-0.412,1.227,31.42732915,120.62751705,10.578,0.001,-0.009,-0.011,0.797,19,18,04*5D
$GTIMU,2292,527122.300,-0.0224,0.0019,0.0043,-0.0201,-0.0064,0.9984,23.2*4F
10:25::04.323,1702664722282,120.62751705,31.42732915,3478524.01094598,559662.18695004,112.95700000,6.00000000,0.00100000,-0.00900000,-0.01100000,-0.02240000,0.00190000,0.00430000,-0.02010000,-0.00640000,0.99840000
$GPFPD,2292,527122.400,112.957,-0.409,1.225,31.42732913,120.62751702,10.584,0.001,-0.007,-0.010,0.797,19,18,04*5F
$GTIMU,2292,527122.400,0.0236,-0.0214,0.0047,-0.0226,-0.0071,0.9999,23.2*4D
10:25::04.423,1702664722382,120.62751702,31.42732913,3478524.00871209,559662.18411035,112.95700000,6.00000000,0.00100000,-0.00700000,-0.01000000,0.02360000,-0.02140000,0.00470000,-0.02260000,-0.00710000,0.99990000
$GPFPD,2292,527122.500,112.958,-0.411,1.226,31.42732911,120.62751699,10.590,0.003,-0.010,-0.010,0.799,19,18,04*55
$GTIMU,2292,527122.500,-0.0224,0.0059,-0.0066,-0.0195,-0.0036,0.9995,23.2*6E
10:25::04.523,1702664722482,120.62751699,31.42732911,3478524.00647820,559662.18127067,112.95800000,6.00000000,0.00300000,-0.01000000,-0.01000000,-0.02240000,0.00590000,-0.00660000,-0.01950000,-0.00360000,0.99950000
$GPFPD,2292,527122.600,112.957,-0.410,1.225,31.42732909,120.62751696,10.596,0.001,-0.008,-0.010,0.799,19,18,04*50
$GTIMU,2292,527122.600,0.0066,-0.0157,0.0065,-0.0219,-0.0098,1.0003,23.2*45
10:25::04.623,1702664722582,120.62751696,31.42732909,3478524.00424432,559662.17843098,112.95700000,6.00000000,0.00100000,-0.00800000,-0.01000000,0.00660000,-0.01570000,0.00650000,-0.02190000,-0.00980000,1.00030000
$GPFPD,2292,527122.700,112.957,-0.411,1.227,31.42732906,120.62751694,10.602,0.000,-0.009,-0.011,0.800,19,18,04*5F
$GTIMU,2292,527122.700,-0.0121,0.0252,0.0031,-0.0196,-0.0065,0.9985,23.2*48
10:25::04.723,1702664722682,120.62751694,31.42732906,3478524.00090706,559662.17654841,112.95700000,6.00000000,0.00000000,-0.00900000,-0.01100000,-0.01210000,0.02520000,0.00310000,-0.01960000,-0.00650000,0.99850000
$GPFPD,2292,527122.800,112.957,-0.409,1.225,31.42732905,120.62751692,10.606,0.002,-0.007,-0.010,0.800,19,18,04*57
$GTIMU,2292,527122.800,0.0145,-0.0254,0.0019,-0.0236,-0.0058,1.0002,23.2*40
10:25::04.823,1702664722782,120.62751692,31.42732905,3478523.99978740,559662.17465318,112.95700000,6.00000000,0.00200000,-0.00700000,-0.01000000,0.01450000,-0.02540000,0.00190000,-0.02360000,-0.00580000,1.00020000
$GPFPD,2292,527122.900,112.957,-0.412,1.227,31.42732904,120.62751692,10.605,0.002,-0.011,-0.010,0.799,19,18,04*54
$GTIMU,2292,527122.900,-0.0297,0.0235,-0.0003,-0.0182,-0.0055,0.9991,23.2*66
10:25::04.924,1702664722882,120.62751692,31.42732904,3478523.99867860,559662.17465951,112.95700000,6.00000000,0.00200000,-0.01100000,-0.01000000,-0.02970000,0.02350000,-0.00030000,-0.01820000,-0.00550000,0.99910000
$GPFPD,2292,527123.000,112.956,-0.410,1.224,31.42732903,120.62751692,10.604,0.001,-0.008,-0.010,0.799,19,18,04*51
$GTIMU,2292,527123.000,0.0168,-0.0300,0.0104,-0.0235,-0.0089,1.0003,23.2*45
10:25::05.023,1702664722982,120.62751692,31.42732903,3478523.99756980,559662.17466584,112.95600000,6.00000000,0.00100000,-0.00800000,-0.01000000,0.01680000,-0.03000000,0.01040000,-0.02350000,-0.00890000,1.00030000
$GPGGA,022505.00,3125.6396939,N,12037.6517021,E,1,18,1.0,3.991,M,7.80,M,,*64
$GPFPD,2292,527123.100,112.957,-0.411,1.228,31.42732902,120.62751692,10.603,0.001,-0.010,-0.010,0.799,19,18,04*53
$GTIMU,2292,527123.100,-0.0161,0.0354,-0.0066,-0.0186,-0.0059,0.9988,23.2*60
10:25::05.123,1702664723082,120.62751692,31.42732902,3478523.99646100,559662.17467217,112.95700000,6.00000000,0.00100000,-0.01000000,-0.01000000,-0.01610000,0.03540000,-0.00660000,-0.01860000,-0.00590000,0.99880000
$GPFPD,2292,527123.200,112.957,-0.410,1.225,31.42732902,120.62751692,10.602,0.002,-0.007,-0.010,0.801,19,18,04*56
$GTIMU,2292,527123.200,0.0065,-0.0357,0.0093,-0.0240,-0.0065,1.0001,23.2*44
10:25::05.223,1702664723182,120.62751692,31.42732902,3478523.99646100,559662.17467217,112.95700000,6.00000000,0.00200000,-0.00700000,-0.01000000,0.00650000,-0.03570000,0.00930000,-0.02400000,-0.00650000,1.00010000
$GPFPD,2292,527123.300,112.958,-0.411,1.227,31.42732901,120.62751692,10.601,-0.000,-0.008,-0.011,0.798,19,18,04*75
$GTIMU,2292,527123.300,-0.0178,0.0275,-0.0032,-0.0183,-0.0061,0.9988,23.2*67
10:25::05.324,1702664723282,120.62751692,31.42732901,3478523.99535221,559662.17467851,112.95800000,6.00000000,0.00000000,-0.00800000,-0.01100000,-0.01780000,0.02750000,-0.00320000,-0.01830000,-0.00610000,0.99880000
$GPFPD,2292,527123.400,112.957,-0.409,1.225,31.42732904,120.62751690,10.603,-0.000,-0.006,-0.009,0.798,19,18,04*74
$GTIMU,2292,527123.400,0.0179,-0.0294,0.0065,-0.0231,-0.0079,1.0006,23.2*45
10:25::05.423,1702664723382,120.62751690,31.42732904,3478523.99866774,559662.17275794,112.95700000,6.00000000,0.00000000,-0.00600000,-0.00900000,0.01790000,-0.02940000,0.00650000,-0.02310000,-0.00790000,1.00060000
$GPFPD,2292,527123.500,112.957,-0.411,1.228,31.42732906,120.62751688,10.604,-0.000,-0.008,-0.010,0.801,19,18,04*74
$GTIMU,2292,527123.500,-0.0263,0.0292,0.0014,-0.0193,-0.0056,0.9988,23.2*4D
10:25::05.523,1702664723482,120.62751688,31.42732906,3478524.00087448,559662.17084371,112.95700000,6.00000000,0.00000000,-0.00800000,-0.01000000,-0.02630000,0.02920000,0.00140000,-0.01930000,-0.00560000,0.99880000
$GPFPD,2292,527123.600,112.957,-0.410,1.224,31.42732908,120.62751686,10.605,-0.000,-0.006,-0.010,0.801,19,18,04*75
$GTIMU,2292,527123.600,0.0116,-0.0351,0.0042,-0.0231,-0.0075,0.9999,23.2*48
10:25::05.623,1702664723582,120.62751686,31.42732908,3478524.00308122,559662.16892948,112.95700000,6.00000000,0.00000000,-0.00600000,-0.01000000,0.01160000,-0.03510000,0.00420000,-0.02310000,-0.00750000,0.99990000
$GPFPD,2292,527123.700,112.958,-0.411,1.228,31.42732910,120.62751684,10.606,-0.000,-0.008,-0.011,0.799,19,17,04*70
$GTIMU,2292,527123.700,-0.0184,0.0360,-0.0032,-0.0186,-0.0056,0.9986,23.2*6A
10:25::05.724,1702664723682,120.62751684,31.42732910,3478524.00528796,559662.16701525,112.95800000,6.00000000,0.00000000,-0.00800000,-0.01100000,-0.01840000,0.03600000,-0.00320000,-0.01860000,-0.00560000,0.99860000
$GPFPD,2292,527123.800,112.957,-0.410,1.226,31.42732912,120.62751682,10.607,-0.001,-0.005,-0.009,0.799,19,17,04*7F
$GTIMU,2292,527123.800,0.0156,-0.0231,0.0093,-0.0237,-0.0085,1.0011,23.2*41
10:25::05.823,1702664723782,120.62751682,31.42732912,3478524.00749470,559662.16510102,112.95700000,6.00000000,-0.00100000,-0.00500000,-0.00900000,0.01560000,-0.02310000,0.00930000,-0.02370000,-0.00850000,1.00110000
$GPFPD,2292,527123.900,112.958,-0.412,1.228,31.42732911,120.62751682,10.605,-0.000,-0.008,-0.011,0.798,19,17,04*78
$GTIMU,2292,527123.900,-0.0235,0.0184,-0.0049,-0.0189,-0.0050,0.9982,23.2*64
10:25::05.924,1702664723882,120.62751682,31.42732911,3478524.00638590,559662.16510735,112.95800000,6.00000000,0.00000000,-0.00800000,-0.01100000,-0.02350000,0.01840000,-0.00490000,-0.01890000,-0.00500000,0.99820000
$GPFPD,2292,527124.000,112.957,-0.410,1.226,31.42732910,120.62751682,10.604,-0.000,-0.006,-0.010,0.798,19,17,04*7A
$GTIMU,2292,527124.000,0.0156,-0.0254,0.0065,-0.0230,-0.0076,1.0002,23.2*4D
10:25::06.024,1702664723982,120.62751682,31.42732910,3478524.00527710,559662.16511368,112.95700000,6.00000000,0.00000000,-0.00600000,-0.01000000,0.01560000,-0.02540000,0.00650000,-0.02300000,-0.00760000,1.00020000
$GPGGA,022506.00,3125.6398005,N,12037.6517041,E,1,17,1.0,3.994,M,7.80,M,,*63
$GPFPD,2292,527124.100,112.958,-0.411,1.228,31.42732910,120.62751682,10.603,-0.000,-0.008,-0.010,0.798,19,17,04*72
$GTIMU,2292,527124.100,-0.0184,0.0269,-0.0009,-0.0190,-0.0060,0.9992,23.2*6C
10:25::06.124,1702664724082,120.62751682,31.42732910,3478524.00527710,559662.16511368,112.95800000,6.00000000,0.00000000,-0.00800000,-0.01000000,-0.01840000,0.02690000,-0.00090000,-0.01900000,-0.00600000,0.99920000
$GPFPD,2292,527124.200,112.957,-0.410,1.226,31.42732909,120.62751682,10.602,-0.001,-0.005,-0.009,0.797,19,17,04*73
$GTIMU,2292,527124.200,0.0116,-0.0288,0.0065,-0.0234,-0.0082,1.0004,23.2*43
10:25::06.223,1702664724182,120.62751682,31.42732909,3478524.00416830,559662.16512001,112.95700000,6.00000000,-0.00100000,-0.00500000,-0.00900000,0.01160000,-0.02880000,0.00650000,-0.02340000,-0.00820000,1.00040000
$GPFPD,2292,527124.300,112.958,-0.412,1.228,31.42732909,120.62751682,10.603,-0.001,-0.008,-0.007,0.796,19,17,04*72
$GTIMU,2292,527124.300,-0.0229,0.0235,0.0003,-0.0187,-0.0054,0.9986,23.2*40
10:25::06.323,1702664724282,120.62751682,31.42732909,3478524.00416830,559662.16512001,112.95800000,6.00000000,-0.00100000,-0.00800000,-0.00700000,-0.02290000,0.02350000,0.00030000,-0.01870000,-0.00540000,0.99860000
$GPFPD,2292,527124.400,112.958,-0.410,1.225,31.42732908,120.62751681,10.610,-0.000,-0.006,-0.006,0.796,19,17,04*74
$GTIMU,2292,527124.400,0.0139,-0.0345,0.0036,-0.0236,-0.0067,0.9999,23.2*42
10:25::06.423,1702664724382,120.62751681,31.42732908,3478524.00305407,559662.16417556,112.95800000,6.00000000,0.00000000,-0.00600000,-0.00600000,0.01390000,-0.03450000,0.00360000,-0.02360000,-0.00670000,0.99990000
$GPFPD,2292,527124.500,112.958,-0.411,1.229,31.42732908,120.62751681,10.617,-0.001,-0.009,-0.007,0.797,19,17,04*71
$GTIMU,2292,527124.500,-0.0178,0.0377,-0.0026,-0.0181,-0.0058,0.9992,23.2*63
10:25::06.523,1702664724482,120.62751681,31.42732908,3478524.00305407,559662.16417556,112.95800000,6.00000000,-0.00100000,-0.00900000,-0.00700000,-0.01780000,0.03770000,-0.00260000,-0.01810000,-0.00580000,0.99920000
$GPFPD,2292,527124.600,112.957,-0.410,1.226,31.42732908,120.62751680,10.624,-0.002,-0.006,-0.006,0.797,19,17,04*7F
$GTIMU,2292,527124.600,0.0134,-0.0294,0.0110,-0.0238,-0.0092,1.0006,23.2*46
10:25::06.623,1702664724582,120.62751680,31.42732908,3478524.00304864,559662.16322478,112.95700000,6.00000000,-0.00200000,-0.00600000,-0.00600000,0.01340000,-0.02940000,0.01100000,-0.02380000,-0.00920000,1.00060000
$GPFPD,2292,527124.700,112.958,-0.411,1.228,31.42732908,120.62751679,10.630,-0.002,-0.008,-0.007,0.798,19,17,04*7D
$GTIMU,2292,527124.700,-0.0184,0.0235,-0.0032,-0.0190,-0.0060,0.9982,23.2*6A
10:25::06.723,1702664724682,120.62751679,31.42732908,3478524.00304321,559662.16227400,112.95800000,6.00000000,-0.00200000,-0.00800000,-0.00700000,-0.01840000,0.02350000,-0.00320000,-0.01900000,-0.00600000,0.99820000
$GPFPD,2292,527124.800,112.958,-0.409,1.226,31.42732907,120.62751679,10.635,-0.000,-0.006,-0.006,0.798,19,17,04*72
$GTIMU,2292,527124.800,0.0168,-0.0231,0.0036,-0.0229,-0.0055,1.0002,23.2*44
10:25::06.823,1702664724782,120.62751679,31.42732907,3478524.00193441,559662.16228033,112.95800000,6.00000000,0.00000000,-0.00600000,-0.00600000,0.01680000,-0.02310000,0.00360000,-0.02290000,-0.00550000,1.00020000
$GPFPD,2292,527124.900,112.958,-0.411,1.228,31.42732907,120.62751679,10.635,0.000,-0.009,-0.007,0.797,19,17,04*58
$GTIMU,2292,527124.900,-0.0241,0.0127,-0.0009,-0.0193,-0.0054,0.9987,23.2*67
10:25::06.923,1702664724882,120.62751679,31.42732907,3478524.00193441,559662.16228033,112.95800000,6.00000000,0.00000000,-0.00900000,-0.00700000,-0.02410000,0.01270000,-0.00090000,-0.01930000,-0.00540000,0.99870000
$GPFPD,2292,527125.000,112.958,-0.410,1.227,31.42732906,120.62751679,10.634,-0.002,-0.006,-0.006,0.797,19,17,04*7F
$GTIMU,2292,527125.000,0.0128,-0.0095,0.0059,-0.0225,-0.0095,1.0008,23.2*46
10:25::07.023,1702664724982,120.62751679,31.42732906,3478524.00082561,559662.16228666,112.95800000,6.00000000,-0.00200000,-0.00600000,-0.00600000,0.01280000,-0.00950000,0.00590000,-0.02250000,-0.00950000,1.00080000
$GPGGA,022507.00,3125.6397986,N,12037.6517085,E,1,17,1.0,4.003,M,7.80,M,,*67
$GPFPD,2292,527125.100,112.958,-0.411,1.228,31.42732905,120.62751679,10.633,-0.002,-0.007,-0.007,0.797,19,17,04*74
$GTIMU,2292,527125.100,-0.0122,0.0081,-0.0009,-0.0201,-0.0063,0.9984,23.2*6A
10:25::07.123,1702664725082,120.62751679,31.42732905,3478523.99971681,559662.16229299,112.95800000,6.00000000,-0.00200000,-0.00700000,-0.00700000,-0.01220000,0.00810000,-0.00090000,-0.02010000,-0.00630000,0.99840000
$GPFPD,2292,527125.200,112.958,-0.409,1.227,31.42732905,120.62751678,10.633,-0.001,-0.007,-0.006,0.800,19,17,04*73
$GTIMU,2292,527125.200,0.0071,-0.0112,0.0059,-0.0220,-0.0059,1.0003,23.2*49
10:25::07.223,1702664725182,120.62751678,31.42732905,3478523.99971138,559662.16134221,112.95800000,6.00000000,-0.00100000,-0.00700000,-0.00600000,0.00710000,-0.01120000,0.00590000,-0.02200000,-0.00590000,1.00030000
$GPFPD,2292,527125.300,112.959,-0.411,1.227,31.42732904,120.62751679,10.632,0.001,-0.007,-0.008,0.798,19,17,04*56
$GTIMU,2292,527125.300,-0.0184,-0.0027,-0.0026,-0.0203,-0.0048,0.9983,23.2*44
10:25::07.324,1702664725282,120.62751679,31.42732904,3478523.99860801,559662.16229932,112.95900000,6.00000000,0.00100000,-0.00700000,-0.00800000,-0.01840000,-0.00270000,-0.00260000,-0.02030000,-0.00480000,0.99830000
$GPFPD,2292,527125.400,112.959,-0.409,1.227,31.42732906,120.62751680,10.633,-0.001,-0.006,-0.006,0.798,19,17,04*7F
$GTIMU,2292,527125.400,0.0140,0.0019,0.0030,-0.0217,-0.0095,1.0011,23.2*63
10:25::07.423,1702664725382,120.62751680,31.42732906,3478524.00083104,559662.16323744,112.95900000,6.00000000,-0.00100000,-0.00600000,-0.00600000,0.01400000,0.00190000,0.00300000,-0.02170000,-0.00950000,1.00110000
$GPFPD,2292,527125.500,112.958,-0.411,1.227,31.42732907,120.62751680,10.635,-0.001,-0.007,-0.007,0.797,19,17,04*7E
$GTIMU,2292,527125.500,-0.0156,-0.0021,0.0031,-0.0201,-0.0062,0.9986,23.2*6F
10:25::07.524,1702664725482,120.62751680,31.42732907,3478524.00193984,559662.16323111,112.95800000,6.00000000,-0.00100000,-0.00700000,-0.00700000,-0.01560000,-0.00210000,0.00310000,-0.02010000,-0.00620000,0.99860000
$GPFPD,2292,527125.600,112.958,-0.409,1.226,31.42732909,120.62751681,10.636,-0.001,-0.005,-0.007,0.797,19,17,04*7B
$GTIMU,2292,527125.600,0.0100,-0.0089,0.0036,-0.0225,-0.0067,0.9998,23.2*4B
10:25::07.623,1702664725582,120.62751681,31.42732909,3478524.00416287,559662.16416923,112.95800000,6.00000000,-0.00100000,-0.00500000,-0.00700000,0.01000000,-0.00890000,0.00360000,-0.02250000,-0.00670000,0.99980000
$GPFPD,2292,527125.700,112.959,-0.411,1.227,31.42732910,120.62751682,10.637,0.000,-0.008,-0.007,0.796,19,17,04*59
$GTIMU,2292,527125.700,-0.0201,0.0110,-0.0009,-0.0193,-0.0047,0.9994,23.2*68
10:25::07.723,1702664725682,120.62751682,31.42732910,3478524.00527710,559662.16511368,112.95900000,6.00000000,0.00000000,-0.00800000,-0.00700000,-0.02010000,0.01100000,-0.00090000,-0.01930000,-0.00470000,0.99940000
$GPFPD,2292,527125.800,112.958,-0.409,1.226,31.42732911,120.62751683,10.638,-0.001,-0.005,-0.006,0.796,19,17,04*70
$GTIMU,2292,527125.800,0.0117,-0.0203,0.0059,-0.0230,-0.0090,1.0006,23.2*40
10:25::07.823,1702664725782,120.62751683,31.42732911,3478524.00639133,559662.16605813,112.95800000,6.00000000,-0.00100000,-0.00500000,-0.00600000,0.01170000,-0.02030000,0.00590000,-0.02300000,-0.00900000,1.00060000
$GPFPD,2292,527125.900,112.958,-0.411,1.228,31.42732911,120.62751683,10.637,-0.002,-0.007,-0.007,0.797,19,17,04*78
$GTIMU,2292,527125.900,-0.0172,0.0224,-0.0003,-0.0189,-0.0067,0.9985,23.2*66
10:25::07.924,1702664725882,120.62751683,31.42732911,3478524.00639133,559662.16605813,112.95800000,6.00000000,-0.00200000,-0.00700000,-0.00700000,-0.01720000,0.02240000,-0.00030000,-0.01890000,-0.00670000,0.99850000
$GPFPD,2292,527126.000,112.958,-0.410,1.225,31.42732910,120.62751683,10.636,-0.000,-0.005,-0.007,0.797,19,17,04*7E
$GTIMU,2292,527126.000,0.0088,-0.0322,0.0059,-0.0238,-0.0057,0.9999,23.2*4A
10:25::08.023,1702664725982,120.62751683,31.42732910,3478524.00528253,559662.16606447,112.95800000,6.00000000,0.00000000,-0.00500000,-0.00700000,0.00880000,-0.03220000,0.00590000,-0.02380000,-0.00570000,0.99990000
$GPGGA,022508.00,3125.6397946,N,12037.6517127,E,1,17,1.0,3.987,M,7.80,M,,*6F
$GPFPD,2292,527126.100,112.958,-0.411,1.229,31.42732909,120.62751683,10.636,-0.000,-0.009,-0.007,0.797,19,17,04*76
$GTIMU,2292,527126.100,-0.0166,0.0354,-0.0015,-0.0178,-0.0056,0.9993,23.2*62
10:25::08.123,1702664726082,120.62751683,31.42732909,3478524.00417373,559662.16607080,112.95800000,6.00000000,0.00000000,-0.00900000,-0.00700000,-0.01660000,0.03540000,-0.00150000,-0.01780000,-0.00560000,0.99930000
$GPFPD,2292,527126.200,112.958,-0.410,1.225,31.42732909,120.62751683,10.635,-0.001,-0.005,-0.006,0.797,19,17,04*77
$GTIMU,2292,527126.200,0.0065,-0.0345,0.0088,-0.0243,-0.0086,1.0002,23.2*45
10:25::08.223,1702664726182,120.62751683,31.42732909,3478524.00417373,559662.16607080,112.95800000,6.00000000,-0.00100000,-0.00500000,-0.00600000,0.00650000,-0.03450000,0.00880000,-0.02430000,-0.00860000,1.00020000
$GPFPD,2292,527126.300,112.959,-0.411,1.229,31.42732908,120.62751683,10.635,-0.002,-0.007,-0.006,0.797,19,17,04*7A
$GTIMU,2292,527126.300,-0.0093,0.0320,-0.0055,-0.0184,-0.0070,0.9986,23.2*6F
10:25::08.324,1702664726282,120.62751683,31.42732908,3478524.00306493,559662.16607713,112.95900000,6.00000000,-0.00200000,-0.00700000,-0.00600000,-0.00930000,0.03200000,-0.00550000,-0.01840000,-0.00700000,0.99860000
$GPFPD,2292,527126.400,112.959,-0.409,1.224,31.42732909,120.62751684,10.637,0.001,-0.005,-0.006,0.797,19,17,04*51
$GTIMU,2292,527126.400,0.0105,-0.0442,0.0070,-0.0240,-0.0052,0.9998,23.2*4B
10:25::08.423,1702664726382,120.62751684,31.42732909,3478524.00417916,559662.16702158,112.95900000,6.00000000,0.00100000,-0.00500000,-0.00600000,0.01050000,-0.04420000,0.00700000,-0.02400000,-0.00520000,0.99980000
$GPFPD,2292,527126.500,112.959,-0.412,1.228,31.42732910,120.62751686,10.640,-0.000,-0.008,-0.005,0.796,19,17,04*7F
$GTIMU,2292,527126.500,-0.0280,0.0354,-0.0060,-0.0177,-0.0065,1.0002,23.2*69
10:25::08.524,1702664726482,120.62751686,31.42732910,3478524.00529882,559662.16891682,112.95900000,6.00000000,0.00000000,-0.00800000,-0.00500000,-0.02800000,0.03540000,-0.00600000,-0.01770000,-0.00650000,1.00020000
$GPFPD,2292,527126.600,112.958,-0.410,1.227,31.42732910,120.62751687,10.642,-0.001,-0.006,-0.006,0.796,19,17,04*7F
$GTIMU,2292,527126.600,0.0123,-0.0129,0.0213,-0.0230,-0.0080,0.9983,23.2*40
10:25::08.624,1702664726582,120.62751687,31.42732910,3478524.00530425,559662.16986760,112.95800000,6.00000000,-0.00100000,-0.00600000,-0.00600000,0.01230000,-0.01290000,0.02130000,-0.02300000,-0.00800000,0.99830000
$GPFPD,2292,527126.700,112.959,-0.410,1.230,31.42732911,120.62751689,10.644,-0.001,-0.006,-0.005,0.799,19,17,04*7C
$GTIMU,2292,527126.700,-0.0070,0.0349,-0.0146,-0.0211,-0.0067,1.0007,23.2*6B
10:25::08.724,1702664726682,120.62751689,31.42732911,3478524.00642391,559662.17176283,112.95900000,6.00000000,-0.00100000,-0.00600000,-0.00500000,-0.00700000,0.03490000,-0.01460000,-0.02110000,-0.00670000,1.00070000
$GPFPD,2292,527126.800,112.958,-0.411,1.226,31.42732911,120.62751690,10.646,0.001,-0.006,-0.007,0.799,19,17,04*51
$GTIMU,2292,527126.800,-0.0054,-0.0465,0.0116,-0.0213,-0.0051,0.9982,23.2*65
10:25::08.823,1702664726782,120.62751690,31.42732911,3478524.00642934,559662.17271362,112.95800000,6.00000000,0.00100000,-0.00600000,-0.00700000,-0.00540000,-0.04650000,0.01160000,-0.02130000,-0.00510000,0.99820000
$GPFPD,2292,527126.900,112.958,-0.410,1.229,31.42732910,120.62751690,10.645,-0.001,-0.007,-0.005,0.798,19,17,04*73
$GTIMU,2292,527126.900,-0.0008,0.0269,0.0025,-0.0203,-0.0079,1.0009,23.2*42
10:25::08.923,1702664726882,120.62751690,31.42732910,3478524.00532054,559662.17271995,112.95800000,6.00000000,-0.00100000,-0.00700000,-0.00500000,-0.00080000,0.02690000,0.00250000,-0.02030000,-0.00790000,1.00090000
$GPFPD,2292,527127.000,112.959,-0.411,1.227,31.42732910,120.62751690,10.645,-0.001,-0.006,-0.006,0.798,19,17,04*77
$GTIMU,2292,527127.000,-0.0048,-0.0163,-0.0032,-0.0216,-0.0065,0.9986,23.2*4E
10:25::09.023,1702664726982,120.62751690,31.42732910,3478524.00532054,559662.17271995,112.95900000,6.00000000,-0.00100000,-0.00600000,-0.00600000,-0.00480000,-0.01630000,-0.00320000,-0.02160000,-0.00650000,0.99860000
$GPGGA,022509.00,3125.6397946,N,12037.6517180,E,1,17,1.0,3.940,M,7.80,M,,*68
$GPFPD,2292,527127.100,112.958,-0.410,1.227,31.42732909,120.62751690,10.644,-0.000,-0.005,-0.006,0.798,19,17,04*7D
$GTIMU,2292,527127.100,0.0066,-0.0010,0.0070,-0.0222,-0.0068,1.0002,23.2*47
10:25::09.123,1702664727082,120.62751690,31.42732909,3478524.00421174,559662.17272628,112.95800000,6.00000000,0.00000000,-0.00500000,-0.00600000,0.00660000,-0.00100000,0.00700000,-0.02220000,-0.00680000,1.00020000
$GPFPD,2292,527127.200,112.959,-0.411,1.225,31.42732909,120.62751690,10.644,0.001,-0.007,-0.006,0.799,19,17,04*53
$GTIMU,2292,527127.200,-0.0168,-0.0282,-0.0066,-0.0198,-0.0053,0.9989,23.2*4D
10:25::09.223,1702664727182,120.62751690,31.42732909,3478524.00421174,559662.17272628,112.95900000,6.00000000,0.00100000,-0.00700000,-0.00600000,-0.01680000,-0.02820000,-0.00660000,-0.01980000,-0.00530000,0.99890000
$GPFPD,2292,527127.300,112.960,-0.409,1.225,31.42732909,120.62751689,10.643,-0.003,-0.003,-0.008,0.799,19,17,04*7B
$GTIMU,2292,527127.300,0.0168,0.0007,0.0042,-0.0210,-0.0090,1.0005,23.2*61
10:25::09.323,1702664727282,120.62751689,31.42732909,3478524.00420631,559662.17177550,112.96000000,6.00000000,-0.00300000,-0.00300000,-0.00800000,0.01680000,0.00070000,0.00420000,-0.02100000,-0.00900000,1.00050000
$GPFPD,2292,527127.400,112.959,-0.410,1.228,31.42732913,120.62751687,10.639,-0.002,-0.005,-0.008,0.799,19,17,04*7C
$GTIMU,2292,527127.400,-0.0189,0.0263,0.0077,-0.0202,-0.0053,0.9989,23.2*4B
10:25::09.423,1702664727382,120.62751687,31.42732913,3478524.00863064,559662.16984860,112.95900000,6.00000000,-0.00200000,-0.00500000,-0.00800000,-0.01890000,0.02630000,0.00770000,-0.02020000,-0.00530000,0.99890000
$GPFPD,2292,527127.500,112.959,-0.410,1.227,31.42732918,120.62751684,10.637,-0.002,-0.003,-0.008,0.798,19,17,04*73
$GTIMU,2292,527127.500,0.0014,-0.0078,0.0008,-0.0231,-0.0073,1.0002,23.2*4F
10:25::09.523,1702664727482,120.62751684,31.42732918,3478524.01415835,559662.16696459,112.95900000,6.00000000,-0.00200000,-0.00300000,-0.00800000,0.00140000,-0.00780000,0.00080000,-0.02310000,-0.00730000,1.00020000
$GPFPD,2292,527127.600,112.959,-0.411,1.227,31.42732922,120.62751682,10.633,-0.002,-0.005,-0.010,0.798,19,17,04*75
$GTIMU,2292,527127.600,-0.0116,0.0036,0.0014,-0.0191,-0.0056,0.9976,23.2*44
10:25::09.623,1702664727582,120.62751682,31.42732922,3478524.01858268,559662.16503769,112.95900000,6.00000000,-0.00200000,-0.00500000,-0.01000000,-0.01160000,0.00360000,0.00140000,-0.01910000,-0.00560000,0.99760000
$GPFPD,2292,527127.700,112.959,-0.410,1.227,31.42732926,120.62751680,10.630,-0.003,-0.003,-0.007,0.797,19,17,04*7E
$GTIMU,2292,527127.700,0.0054,-0.0049,0.0059,-0.0230,-0.0083,1.0022,23.2*43
10:25::09.723,1702664727682,120.62751680,31.42732926,3478524.02300702,559662.16311080,112.95900000,6.00000000,-0.00300000,-0.00300000,-0.00700000,0.00540000,-0.00490000,0.00590000,-0.02300000,-0.00830000,1.00220000
$GPFPD,2292,527127.800,112.959,-0.412,1.228,31.42732929,120.62751678,10.628,-0.002,-0.004,-0.009,0.797,19,17,04*75
$GTIMU,2292,527127.800,-0.0212,0.0121,-0.0037,-0.0194,-0.0055,0.9978,23.2*6E
10:25::09.824,1702664727782,120.62751678,31.42732929,3478524.02632256,559662.16119023,112.95900000,6.00000000,-0.00200000,-0.00400000,-0.00900000,-0.02120000,0.01210000,-0.00370000,-0.01940000,-0.00550000,0.99780000
$GPFPD,2292,527127.900,112.959,-0.410,1.225,31.42732928,120.62751678,10.627,-0.001,-0.003,-0.009,0.797,19,17,04*71
$GTIMU,2292,527127.900,0.0111,-0.0339,0.0065,-0.0232,-0.0067,0.9996,23.2*40
10:25::09.923,1702664727882,120.62751678,31.42732928,3478524.02521376,559662.16119657,112.95900000,6.00000000,-0.00100000,-0.00300000,-0.00900000,0.01110000,-0.03390000,0.00650000,-0.02320000,-0.00670000,0.99960000
$GPFPD,2292,527128.000,112.960,-0.412,1.228,31.42732928,120.62751678,10.626,-0.002,-0.005,-0.008,0.797,19,17,04*77
$GTIMU,2292,527128.000,-0.0224,0.0241,-0.0043,-0.0186,-0.0065,0.9997,23.2*6B
10:25::10.024,1702664727982,120.62751678,31.42732928,3478524.02521376,559662.16119657,112.96000000,6.00000000,-0.00200000,-0.00500000,-0.00800000,-0.02240000,0.02410000,-0.00430000,-0.01860000,-0.00650000,0.99970000
$GPGGA,022510.00,3125.6397924,N,12037.6517159,E,1,17,1.0,3.896,M,7.80,M,,*6A
$GPFPD,2292,527128.100,112.959,-0.411,1.226,31.42732928,120.62751677,10.625,-0.003,-0.003,-0.008,0.797,19,17,04*7A
$GTIMU,2292,527128.100,0.0043,-0.0197,0.0076,-0.0228,-0.0080,0.9999,23.2*48
10:25::10.123,1702664728082,120.62751677,31.42732928,3478524.02520833,559662.16024578,112.95900000,6.00000000,-0.00300000,-0.00300000,-0.00800000,0.00430000,-0.01970000,0.00760000,-0.02280000,-0.00800000,0.99990000
$GPFPD,2292,527128.200,112.959,-0.414,1.227,31.42732927,120.62751677,10.625,-0.002,-0.004,-0.008,0.797,19,17,04*74
$GTIMU,2292,527128.200,-0.0280,0.0127,0.0009,-0.0198,-0.0060,0.9993,23.2*49
10:25::10.223,1702664728182,120.62751677,31.42732927,3478524.02409953,559662.16025212,112.95900000,6.00000000,-0.00200000,-0.00400000,-0.00800000,-0.02800000,0.01270000,0.00090000,-0.01980000,-0.00600000,0.99930000
$GPFPD,2292,527128.300,112.960,-0.413,1.226,31.42732928,120.62751678,10.623,-0.001,-0.002,-0.012,0.798,19,17,04*7E
$GTIMU,2292,527128.300,0.0054,-0.0095,0.0019,-0.0223,-0.0068,0.9997,23.2*45
10:25::10.323,1702664728282,120.62751678,31.42732928,3478524.02521376,559662.16119657,112.96000000,6.00000000,-0.00100000,-0.00200000,-0.01200000,0.00540000,-0.00950000,0.00190000,-0.02230000,-0.00680000,0.99970000
$GPFPD,2292,527128.400,112.960,-0.416,1.227,31.42732930,120.62751680,10.617,0.000,-0.004,-0.012,0.798,19,17,04*5E
$GTIMU,2292,527128.400,-0.0292,0.0059,-0.0026,-0.0198,-0.0053,0.9993,23.2*64
10:25::10.423,1702664728382,120.62751680,31.42732930,3478524.02744222,559662.16308547,112.96000000,6.00000000,0.00000000,-0.00400000,-0.01200000,-0.02920000,0.00590000,-0.00260000,-0.01980000,-0.00530000,0.99930000
$GPFPD,2292,527128.500,112.960,-0.414,1.227,31.42732932,120.62751683,10.612,-0.002,-0.002,-0.011,0.798,19,17,04*73
$GTIMU,2292,527128.500,0.0083,-0.0015,0.0082,-0.0219,-0.0091,1.0005,23.2*46
10:25::10.524,1702664728482,120.62751683,31.42732932,3478524.02967610,559662.16592516,112.96000000,6.00000000,-0.00200000,-0.00200000,-0.01100000,0.00830000,-0.00150000,0.00820000,-0.02190000,-0.00910000,1.00050000
$GPFPD,2292,527128.600,112.959,-0.416,1.227,31.42732934,120.62751685,10.607,-0.002,-0.003,-0.012,0.798,19,17,04*7E
$GTIMU,2292,527128.600,-0.0150,-0.0010,0.0042,-0.0206,-0.0065,0.9987,23.2*60
10:25::10.624,1702664728582,120.62751685,31.42732934,3478524.03190456,559662.16781406,112.95900000,6.00000000,-0.00200000,-0.00300000,-0.01200000,-0.01500000,-0.00100000,0.00420000,-0.02060000,-0.00650000,0.99870000
$GPFPD,2292,527128.700,112.960,-0.415,1.229,31.42732936,120.62751688,10.601,-0.001,-0.003,-0.012,0.797,19,17,04*7D
$GTIMU,2292,527128.700,0.0049,0.0127,-0.0004,-0.0213,-0.0060,0.9997,23.2*42
10:25::10.723,1702664728682,120.62751688,31.42732936,3478524.03413845,559662.17065374,112.96000000,6.00000000,-0.00100000,-0.00300000,-0.01200000,0.00490000,0.01270000,-0.00040000,-0.02130000,-0.00600000,0.99970000
$GPFPD,2292,527128.800,112.959,-0.417,1.227,31.42732937,120.62751690,10.597,0.002,-0.003,-0.012,0.797,19,17,04*5E
$GTIMU,2292,527128.800,-0.0235,-0.0214,0.0048,-0.0215,-0.0043,0.9999,23.2*6B
10:25::10.823,1702664728782,120.62751690,31.42732937,3478524.03525811,559662.17254898,112.95900000,6.00000000,0.00200000,-0.00300000,-0.01200000,-0.02350000,-0.02140000,0.00480000,-0.02150000,-0.00430000,0.99990000
$GPFPD,2292,527128.900,112.959,-0.416,1.227,31.42732937,120.62751690,10.596,-0.002,-0.002,-0.012,0.798,19,17,04*7C
$GTIMU,2292,527128.900,0.0015,0.0059,0.0008,-0.0211,-0.0108,0.9996,23.2*60
10:25::10.923,1702664728882,120.62751690,31.42732937,3478524.03525811,559662.17254898,112.95900000,6.00000000,-0.00200000,-0.00200000,-0.01200000,0.00150000,0.00590000,0.00080000,-0.02110000,-0.01080000,0.99960000
$GPFPD,2292,527129.000,112.960,-0.415,1.225,31.42732937,120.62751690,10.595,-0.002,-0.002,-0.012,0.798,19,17,04*7C
$GTIMU,2292,527129.000,0.0116,-0.0243,0.0008,-0.0205,-0.0069,0.9989,23.2*43
10:25::11.023,1702664728982,120.62751690,31.42732937,3478524.03525811,559662.17254898,112.96000000,6.00000000,-0.00200000,-0.00200000,-0.01200000,0.01160000,-0.02430000,0.00080000,-0.02050000,-0.00690000,0.99890000
$GPFPD,2292,527129$GPGGA,02.100,112.2511.00,3960,-0.41125.639795,1.229,354,N,1201.427329337.6517156,120.6274,E,1,17,51689,10.1.0,3.90593,-0.006,M,7.80,1,-0.003,M,,*69
-0.011,0.798,19,17,04*7F
$GTIMU,2292,527129.100,-0.0013,0.0422,0.0019,-0.0205,-0.0054,1.0005,23.2*4C
10:25::11.123,1702664729082,120.62751689,31.42732936,3478524.03414388,559662.17160453,112.96000000,6.00000000,-0.00100000,-0.00300000,-0.01100000,-0.00130000,0.04220000,0.00190000,-0.02050000,-0.00540000,1.00050000
$GPFPD,2292,527129.200,112.959,-0.416,1.228,31.42732936,120.62751689,10.592,0.001,-0.003,-0.013,0.795,19,17,04*57
$GTIMU,2292,527129.200,-0.0167,-0.0169,0.0060,-0.0220,-0.0049,0.9982,23.2*61
10:25::11.223,1702664729182,120.62751689,31.42732936,3478524.03414388,559662.17160453,112.95900000,6.00000000,0.00100000,-0.00300000,-0.01300000,-0.01670000,-0.01690000,0.00600000,-0.02200000,-0.00490000,0.99820000
$GPFPD,2292,527129.300,112.960,-0.414,1.230,31.42732936,120.62751689,10.592,-0.003,-0.002,-0.010,0.798,19,17,04*77
$GTIMU,2292,527129.300,0.0202,0.0155,0.0013,-0.0208,-0.0095,1.0006,23.2*6D
10:25::11.323,1702664729282,120.62751689,31.42732936,3478524.03414388,559662.17160453,112.96000000,6.00000000,-0.00300000,-0.00200000,-0.01000000,0.02020000,0.01550000,0.00130000,-0.02080000,-0.00950000,1.00060000
$GPFPD,2292,527129.400,112.960,-0.414,1.230,31.42732937,120.62751688,10.596,-0.002,-0.003,-0.010,0.798,19,17,04*74
$GTIMU,2292,527129.400,-0.0093,0.0036,0.0014,-0.0207,-0.0056,0.9995,23.2*45
10:25::11.423,1702664729382,120.62751688,31.42732937,3478524.03524725,559662.17064741,112.96000000,6.00000000,-0.00200000,-0.00300000,-0.01000000,-0.00930000,0.00360000,0.00140000,-0.02070000,-0.00560000,0.99950000
$GPFPD,2292,527129.500,112.960,-0.413,1.228,31.42732937,120.62751686,10.599,-0.002,-0.001,-0.009,0.798,19,17,04*70
$GTIMU,2292,527129.500,0.0077,-0.0197,0.0036,-0.0231,-0.0070,1.0003,23.2*4B
10:25::11.523,1702664729482,120.62751686,31.42732937,3478524.03523639,559662.16874584,112.96000000,6.00000000,-0.00200000,-0.00100000,-0.00900000,0.00770000,-0.01970000,0.00360000,-0.02310000,-0.00700000,1.00030000
$GPFPD,2292,527129.600,112.960,-0.413,1.228,31.42732938,120.62751685,10.602,-0.001,-0.004,-0.011,0.798,19,17,04*71
$GTIMU,2292,527129.600,0.0014,-0.0078,-0.0032,-0.0190,-0.0054,0.9979,23.2*66
10:25::11.624,1702664729582,120.62751685,31.42732938,3478524.03633976,559662.16778873,112.96000000,6.00000000,-0.00100000,-0.00400000,-0.01100000,0.00140000,-0.00780000,-0.00320000,-0.01900000,-0.00540000,0.99790000
$GPFPD,2292,527129.700,112.960,-0.408,1.225,31.42732939,120.62751684,10.606,-0.003,-0.001,-0.009,0.798,19,17,04*7D
$GTIMU,2292,527129.700,0.0378,-0.0300,0.0064,-0.0226,-0.0089,1.0015,23.2*49
10:25::11.723,1702664729682,120.62751684,31.42732939,3478524.03744313,559662.16683161,112.96000000,6.00000000,-0.00300000,-0.00100000,-0.00900000,0.03780000,-0.03000000,0.00640000,-0.02260000,-0.00890000,1.00150000
$GPFPD,2292,527129.800,112.961,-0.409,1.228,31.42732939,120.62751682,10.608,-0.003,-0.004,-0.011,0.798,19,17,04*7B
$GTIMU,2292,527129.800,-0.0121,0.0292,-0.0026,-0.0189,-0.0059,0.9970,23.2*60
10:25::11.824,1702664729782,120.62751682,31.42732939,3478524.03743227,559662.16493005,112.96100000,6.00000000,-0.00300000,-0.00400000,-0.01100000,-0.01210000,0.02920000,-0.00260000,-0.01890000,-0.00590000,0.99700000
$GPFPD,2292,527129.900,112.959,-0.408,1.229,31.42732939,120.62751682,10.607,-0.003,-0.002,-0.009,0.799,19,17,04*70
$GTIMU,2292,527129.900,0.0106,0.0087,0.0139,-0.0224,-0.0070,1.0019,23.2*6C
10:25::11.923,1702664729882,120.62751682,31.42732939,3478524.03743227,559662.16493005,112.95900000,6.00000000,-0.00300000,-0.00200000,-0.00900000,0.01060000,0.00870000,0.01390000,-0.02240000,-0.00700000,1.00190000
$GPFPD,2292,527130.000,112.960,-0.410,1.232,31.42732939,120.62751682,10.606,-0.001,-0.004,-0.011,0.799,19,17,04*74
$GTIMU,2292,527130.000,-0.0240,0.0315,-0.0003,-0.0199,-0.0047,0.9979,23.2*6A
10:25::12.024,1702664729982,120.62751682,31.42732939,3478524.03743227,559662.16493005,112.96000000,6.00000000,-0.00100000,-0.00400000,-0.01100000,-0.02400000,0.03150000,-0.00030000,-0.01990000,-0.00470000,0.99790000
$GPGGA,022512.00,3125.6397965,N,12037.6517213,E,1,17,1.0,3.945,M,7.80,M,,*6F
$GPFPD,2292,527130.100,112.959,-0.410,1.233,31.42732938,120.62751682,10.605,-0.003,-0.002,-0.008,0.799,19,17,04*70
$GTIMU,2292,527130.100,-0.0065,0.0093,0.0037,-0.0227,-0.0085,1.0019,23.2*46
10:25::12.123,1702664730082,120.62751682,31.42732938,3478524.03632347,559662.16493638,112.95900000,6.00000000,-0.00300000,-0.00200000,-0.00800000,-0.00650000,0.00930000,0.00370000,-0.02270000,-0.00850000,1.00190000
$GPFPD,2292,527130.200,112.959,-0.414,1.235,31.42732938,120.62751681,10.604,-0.003,-0.003,-0.011,0.800,19,17,04*75
$GTIMU,2292,527130.200,-0.0388,0.0195,0.0089,-0.0199,-0.0071,0.9971,23.2*45
10:25::12.223,1702664730182,120.62751681,31.42732938,3478524.03631804,559662.16398560,112.95900000,6.00000000,-0.00300000,-0.00300000,-0.01100000,-0.03880000,0.01950000,0.00890000,-0.01990000,-0.00710000,0.99710000
$GPFPD,2292,527130.300,112.959,-0.411,1.232,31.42732938,120.62751681,10.605,-0.002,-0.001,-0.006,0.797,19,17,04*73
$GTIMU,2292,527130.300,0.0252,-0.0385,0.0076,-0.0241,-0.0051,1.0005,23.2*47
10:25::12.323,1702664730282,120.62751681,31.42732938,3478524.03631804,559662.16398560,112.95900000,6.00000000,-0.00200000,-0.00100000,-0.00600000,0.02520000,-0.03850000,0.00760000,-0.02410000,-0.00510000,1.00050000
$GPFPD,2292,527130.400,112.960,-0.415,1.234,31.42732938,120.62751680,10.611,-0.003,-0.004,-0.006,0.797,19,17,04*7C
$GTIMU,2292,527130.400,-0.0428,0.0196,-0.0162,-0.0176,-0.0068,0.9995,23.2*67
10:25::12.423,1702664730382,120.62751680,31.42732938,3478524.03631261,559662.16303481,112.96000000,6.00000000,-0.00300000,-0.00400000,-0.00600000,-0.04280000,0.01960000,-0.01620000,-0.01760000,-0.00680000,0.99950000
$GPFPD,2292,527130.500,112.959,-0.411,1.230,31.42732939,120.62751678,10.618,-0.004,-0.001,-0.008,0.802,19,17,04*77
$GTIMU,2292,527130.500,0.0372,-0.0334,0.0161,-0.0244,-0.0084,0.9979,23.2*48
10:25::12.523,1702664730482,120.62751678,31.42732939,3478524.03741055,559662.16112691,112.95900000,6.00000000,-0.00400000,-0.00100000,-0.00800000,0.03720000,-0.03340000,0.01610000,-0.02440000,-0.00840000,0.99790000
$GPFPD,2292,527130.600,112.960,-0.413,1.233,31.42732939,120.62751676,10.624,-0.004,-0.003,-0.005,0.802,19,17,04*71
$GTIMU,2292,527130.600,-0.0212,0.0218,-0.0100,-0.0190,-0.0058,1.0019,23.2*65
10:25::12.623,1702664730582,120.62751676,31.42732939,3478524.03739969,559662.15922535,112.96000000,6.00000000,-0.00400000,-0.00300000,-0.00500000,-0.02120000,0.02180000,-0.01000000,-0.01900000,-0.00580000,1.00190000
$GPFPD,2292,527130.700,112.960,-0.413,1.228,31.42732939,120.62751675,10.630,-0.002,-0.002,-0.006,0.801,19,17,04*7B
$GTIMU,2292,527130.700,-0.0117,-0.0521,0.0099,-0.0228,-0.0060,0.9989,23.2*6D
10:25::12.724,1702664730682,120.62751675,31.42732939,3478524.03739426,559662.15827456,112.96000000,6.00000000,-0.00200000,-0.00200000,-0.00600000,-0.01170000,-0.05210000,0.00990000,-0.02280000,-0.00600000,0.99890000
$GPFPD,2292,527130.800,112.960,-0.414,1.234,31.42732940,120.62751674,10.635,-0.005,-0.004,-0.008,0.801,19,17,04*7B
$GTIMU,2292,527130.800,-0.0047,0.0616,-0.0015,-0.0178,-0.0077,0.9979,23.2*6A
10:25::12.824,1702664730782,120.62751674,31.42732940,3478524.03849763,559662.15731745,112.96000000,6.00000000,-0.00500000,-0.00400000,-0.00800000,-0.00470000,0.06160000,-0.00150000,-0.01780000,-0.00770000,0.99790000
$GPFPD,2292,527130.900,112.960,-0.411,1.230,31.42732939,120.62751673,10.634,-0.004,-0.001,-0.006,0.800,19,17,04*78
$GTIMU,2292,527130.900,0.0275,-0.0391,0.0059,-0.0250,-0.0073,1.0016,23.2*42
10:25::12.923,1702664730882,120.62751673,31.42732939,3478524.03738340,559662.15637299,112.96000000,6.00000000,-0.00400000,-0.00100000,-0.00600000,0.02750000,-0.03910000,0.00590000,-0.02500000,-0.00730000,1.00160000
$GPFPD,2292,527131.000,112.960,-0.413,1.233,31.42732939,120.62751673,10.634,-0.004,-0.003,-0.006,0.800,19,17,04*73
$GTIMU,2292,527131.000,-0.0280,0.0275,-0.0048,-0.0187,-0.0056,0.9993,23.2*64
10:25::13.023,1702664730982,120.62751673,31.42732939,3478524.03738340,559662.15637299,112.96000000,6.00000000,-0.00400000,-0.00300000,-0.00600000,-0.02800000,0.02750000,-0.00480000,-0.01870000,-0.00560000,0.99930000
$GPGGA,022513.00,3125.6397930,N,12037.6517178,E,1,17,1.0,3.952,M,7.80,M,,*66
$GPFPD,2292,527131.100,112.959,-0.413,1.228,31.42732939,120.62751673,10.633,-0.003,-0.002,-0.006,0.800,19,17,04*73
$GTIMU,2292,527131.100,0.0008,-0.0550,0.0111,-0.0232,-0.0068,0.9990,23.2*44
10:25::13.123,1702664731082,120.62751673,31.42732939,3478524.03738340,559662.15637299,112.95900000,6.00000000,-0.00300000,-0.00200000,-0.00600000,0.00080000,-0.05500000,0.01110000,-0.02320000,-0.00680000,0.99900000
$GPFPD,2292,527131.200,112.961,-0.412,1.233,31.42732939,120.62751672,10.632,-0.005,-0.004,-0.007,0.798,19,17,04*7F
$GTIMU,2292,527131.200,-0.0002,0.0514,-0.0095,-0.0180,-0.0072,0.9991,23.2*6D
10:25::13.223,1702664731182,120.62751672,31.42732939,3478524.03737797,559662.15542221,112.96100000,6.00000000,-0.00500000,-0.00400000,-0.00700000,-0.00020000,0.05140000,-0.00950000,-0.01800000,-0.00720000,0.99910000
$GPFPD,2292,527131.300,112.960,-0.411,1.230,31.42732939,120.62751672,10.631,-0.003,-0.000,-0.009,0.800,19,17,04*7E
$GTIMU,2292,527131.300,0.0082,-0.0317,0.0139,-0.0242,-0.0067,1.0009,23.2*42
10:25::13.323,1702664731282,120.62751672,31.42732939,3478524.03737797,559662.15542221,112.96000000,6.00000000,-0.00300000,0.00000000,-0.00900000,0.00820000,-0.03170000,0.01390000,-0.02420000,-0.00670000,1.00090000
$GPFPD,2292,527131.400,112.961,-0.414,1.233,31.42732941,120.62751673,10.626,-0.004,-0.002,-0.010,0.800,19,17,04*7B
$GTIMU,2292,527131.400,-0.0280,0.0281,-0.0060,-0.0190,-0.0063,0.9982,23.2*61
10:25::13.423,1702664731382,120.62751673,31.42732941,3478524.03960100,559662.15636033,112.96100000,6.00000000,-0.00400000,-0.00200000,-0.01000000,-0.02800000,0.02810000,-0.00600000,-0.01900000,-0.00630000,0.99820000
$GPFPD,2292,527131.500,112.960,-0.411,1.229,31.42732943,120.62751674,10.621,-0.003,-0.000,-0.010,0.800,19,17,04*72
$GTIMU,2292,527131.500,0.0190,-0.0453,0.0076,-0.0232,-0.0069,0.9998,23.2*4B
10:25::13.523,1702664731482,120.62751674,31.42732943,3478524.04182402,559662.15729845,112.96000000,6.00000000,-0.00300000,0.00000000,-0.01000000,0.01900000,-0.04530000,0.00760000,-0.02320000,-0.00690000,0.99980000
$GPFPD,2292,527131.600,112.961,-0.413,1.233,31.42732945,120.62751674,10.617,-0.003,-0.003,-0.010,0.800,19,17,04*79
$GTIMU,2292,527131.600,-0.0155,0.0417,-0.0032,-0.0188,-0.0062,0.9997,23.2*6A
10:25::13.623,1702664731582,120.62751674,31.42732945,3478524.04404162,559662.15728579,112.96100000,6.00000000,-0.00300000,-0.00300000,-0.01000000,-0.01550000,0.04170000,-0.00320000,-0.01880000,-0.00620000,0.99970000
$GPFPD,2292,527131.700,112.960,-0.412,1.229,31.42732947,120.62751675,10.612,-0.004,0.000,-0.009,0.801,19,17,04*55
$GTIMU,2292,527131.700,0.0042,-0.0391,0.0076,-0.0237,-0.0083,1.0002,23.2*4D
10:25::13.723,1702664731682,120.62751675,31.42732947,3478524.04626465,559662.15822390,112.96000000,6.00000000,-0.00400000,0.00000000,-0.00900000,0.00420000,-0.03910000,0.00760000,-0.02370000,-0.00830000,1.00020000
$GPFPD,2292,527131.800,112.961,-0.413,1.232,31.42732948,120.62751676,10.608,-0.005,-0.002,-0.010,0.801,19,17,04*71
$GTIMU,2292,527131.800,-0.0127,0.0303,-0.0032,-0.0186,-0.0063,0.9985,23.2*6F
10:25::13.823,1702664731782,120.62751676,31.42732948,3478524.04737888,559662.15916836,112.96100000,6.00000000,-0.00500000,-0.00200000,-0.01000000,-0.01270000,0.03030000,-0.00320000,-0.01860000,-0.00630000,0.99850000
$GPFPD,2292,527131.900,112.960,-0.411,1.228,31.42732948,120.62751675,10.607,-0.002,-0.001,-0.010,0.799,19,17,04*7E
$GTIMU,2292,527131.900,0.0133,-0.0413,0.0093,-0.0233,-0.0047,0.9999,23.2*4D
10:25::13.923,1702664731882,120.62751675,31.42732948,3478524.04737345,559662.15821757,112.96000000,6.00000000,-0.00200000,-0.00100000,-0.01000000,0.01330000,-0.04130000,0.00930000,-0.02330000,-0.00470000,0.99990000
$GPFPD,2292,527132.000,112.961,-0.414,1.234,31.42732948,120.62751675,10.606,-0.003,-0.003,-0.010,0.799,19,17,04*7F
$GTIMU,2292,527132.000,-0.0297,0.0514,-0.0066,-0.0187,-0.0072,1.0000,23.2*60
10:25::14.023,1702664731982,120.62751675,31.42732948,3478524.04737345,559662.15821757,112.96100000,6.00000000,-0.00300000,-0.00300000,-0.01000000,-0.02970000,0.05140000,-0.00660000,-0.01870000,-0.00720000,1.00000000
$GPGGA,022514.00,3125.6397884,N,12037.6517204,E,1,17,1.0,3.971,M,7.80,M,,*66
$GPFPD,2292,527132.100,112.960,-0.411,1.229,31.42732948,120.62751675,10.605,-0.004,0.000,-0.010,0.799,19,17,04*5C
$GTIMU,2292,527132.100,0.0196,-0.0448,0.0110,-0.0237,-0.0090,0.9991,23.2*4B
10:25::14.123,1702664732082,120.62751675,31.42732948,3478524.04737345,559662.15821757,112.96000000,6.00000000,-0.00400000,0.00000000,-0.01000000,0.01960000,-0.04480000,0.01100000,-0.02370000,-0.00900000,0.99910000
$GPFPD,2292,527132.200,112.961,-0.412,1.233,31.42732948,120.62751674,10.604,-0.004,-0.002,-0.010,0.801,19,17,04*77
$GTIMU,2292,527132.200,-0.0093,0.0349,-0.0037,-0.0188,-0.0058,0.9994,23.2*65
10:25::14.223,1702664732182,120.62751674,31.42732948,3478524.04736802,559662.15726679,112.96100000,6.00000000,-0.00400000,-0.00200000,-0.01000000,-0.00930000,0.03490000,-0.00370000,-0.01880000,-0.00580000,0.99940000
$GPFPD,2292,527132.300,112.961,-0.411,1.228,31.42732947,120.62751675,10.602,0.000,-0.001,-0.013,0.801,19,17,04*5E
$GTIMU,2292,527132.300,0.0048,-0.0464,0.0065,-0.0238,-0.0054,1.0002,23.2*4A
10:25::14.323,1702664732282,120.62751675,31.42732947,3478524.04626465,559662.15822390,112.96100000,6.00000000,0.00000000,-0.00100000,-0.01300000,0.00480000,-0.04640000,0.00650000,-0.02380000,-0.00540000,1.00020000
$GPFPD,2292,527132.400,112.961,-0.413,1.232,31.42732946,120.62751680,10.598,-0.001,-0.004,-0.014,0.801,19,17,04*75
$GTIMU,2292,527132.400,-0.0218,0.0326,-0.0054,-0.0183,-0.0070,0.9989,23.2*63
10:25::14.423,1702664732382,120.62751680,31.42732946,3478524.04518300,559662.16298415,112.96100000,6.00000000,-0.00100000,-0.00400000,-0.01400000,-0.02180000,0.03260000,-0.00540000,-0.01830000,-0.00700000,0.99890000
$GPFPD,2292,527132.500,112.961,-0.411,1.228,31.42732945,120.62751684,10.593,-0.002,-0.001,-0.013,0.800,19,17,04*71
$GTIMU,2292,527132.500,0.0236,-0.0345,0.0081,-0.0234,-0.0086,1.0005,23.2*4D
10:25::14.523,1702664732482,120.62751684,31.42732945,3478524.04409592,559662.16679362,112.96100000,6.00000000,-0.00200000,-0.00100000,-0.01300000,0.02360000,-0.03450000,0.00810000,-0.02340000,-0.00860000,1.00050000
$GPFPD,2292,527132.600,112.961,-0.413,1.233,31.42732944,120.62751689,10.589,-0.002,-0.004,-0.013,0.800,19,17,04*78
$GTIMU,2292,527132.600,-0.0297,0.0474,-0.0014,-0.0186,-0.0054,0.9988,23.2*60
10:25::14.623,1702664732582,120.62751689,31.42732944,3478524.04301427,559662.17155387,112.96100000,6.00000000,-0.00200000,-0.00400000,-0.01300000,-0.02970000,0.04740000,-0.00140000,-0.01860000,-0.00540000,0.99880000
$GPFPD,2292,527132.700,112.961,-0.412,1.230,31.42732943,120.62751693,10.584,-0.000,-0.001,-0.013,0.801,19,17,04*7C
$GTIMU,2292,527132.700,0.0111,-0.0379,0.0076,-0.0243,-0.0067,0.9996,23.2*4A
10:25::14.723,1702664732682,120.62751693,31.42732943,3478524.04192719,559662.17536334,112.96100000,6.00000000,0.00000000,-0.00100000,-0.01300000,0.01110000,-0.03790000,0.00760000,-0.02430000,-0.00670000,0.99960000
$GPFPD,2292,527132.800,112.962,-0.413,1.232,31.42732943,120.62751697,10.580,-0.000,-0.004,-0.013,0.801,19,17,04*76
$GTIMU,2292,527132.800,-0.0127,0.0212,-0.0066,-0.0184,-0.0056,0.9996,23.2*6A
10:25::14.823,1702664732782,120.62751697,31.42732943,3478524.04194891,559662.17916647,112.96200000,6.00000000,0.00000000,-0.00400000,-0.01300000,-0.01270000,0.02120000,-0.00660000,-0.01840000,-0.00560000,0.99960000
$GPFPD,2292,527132.900,112.961,-0.412,1.229,31.42732942,120.62751697,10.579,-0.002,-0.002,-0.012,0.801,19,17,04*7D
$GTIMU,2292,527132.900,0.0071,-0.0317,0.0116,-0.0230,-0.0087,1.0008,23.2*40
10:25::14.923,1702664732882,120.62751697,31.42732942,3478524.04084011,559662.17917280,112.96100000,6.00000000,-0.00200000,-0.00200000,-0.01200000,0.00710000,-0.03170000,0.01160000,-0.02300000,-0.00870000,1.00080000
$GPFPD,2292,527133.000,112.961,-0.414,1.235,31.42732942,120.62751697,10.578,-0.002,-0.004,-0.014,0.801,19,17,04*7F
$GTIMU,2292,527133.000,-0.0297,0.0627,-0.0054,-0.0182,-0.0063,0.9979,23.2*69
10:25::15.024,1702664732982,120.62751697,31.42732942,3478524.04084011,559662.17917280,112.96100000,6.00000000,-0.00200000,-0.00400000,-0.01400000,-0.02970000,0.06270000,-0.00540000,-0.01820000,-0.00630000,0.99790000
$GPGGA,022515.00,3125.6397891,N,12037.6517294,E,1,17,1.0,3.990,M,7.80,M,,*65
$GPFPD,2292,527133.100,112.961,-0.413,1.233,31.42732942,120.62751696,10.576,-0.000,-0.001,-0.013,0.801,19,17,04*70
$GTIMU,2292,527133.100,0.0122,-0.0294,0.0099,-0.0250,-0.0064,1.0002,23.2*43
10:25::15.123,1702664733082,120.62751696,31.42732942,3478524.04083468,559662.17822202,112.96100000,6.00000000,0.00000000,-0.00100000,-0.01300000,0.01220000,-0.02940000,0.00990000,-0.02500000,-0.00640000,1.00020000
$GPFPD,2292,527133.200,112.961,-0.413,1.235,31.42732942,120.62751696,10.575,-0.001,-0.004,-0.014,0.802,19,17,04*76
$GTIMU,2292,527133.200,-0.0099,0.0229,-0.0032,-0.0183,-0.0059,0.9990,23.2*62
10:25::15.223,1702664733182,120.62751696,31.42732942,3478524.04083468,559662.17822202,112.96100000,6.00000000,-0.00100000,-0.00400000,-0.01400000,-0.00990000,0.02290000,-0.00320000,-0.01830000,-0.00590000,0.99900000
$GPFPD,2292,527133.300,112.961,-0.412,1.234,31.42732941,120.62751698,10.574,0.003,-0.003,-0.013,0.801,19,17,04*57
$GTIMU,2292,527133.300,0.0094,-0.0084,0.0082,-0.0218,-0.0077,1.0011,23.2*48
10:25::15.323,1702664733282,120.62751698,31.42732941,3478524.03973674,559662.18012992,112.96100000,6.00000000,0.00300000,-0.00300000,-0.01300000,0.00940000,-0.00840000,0.00820000,-0.02180000,-0.00770000,1.00110000
$GPFPD,2292,527133.400,112.962,-0.415,1.243,31.42732941,120.62751705,10.573,0.002,-0.004,-0.014,0.801,19,17,04*57
$GTIMU,2292,527133.400,-0.0296,0.0912,-0.0048,-0.0201,-0.0069,0.9984,23.2*68
10:25::15.423,1702664733382,120.62751705,31.42732941,3478524.03977475,559662.18678540,112.96200000,6.00000000,0.00200000,-0.00400000,-0.01400000,-0.02960000,0.09120000,-0.00480000,-0.02010000,-0.00690000,0.99840000
$GPFPD,2292,527133.500,112.961,-0.413,1.236,31.42732940,120.62751713,10.572,0.004,0.001,-0.015,0.802,19,17,04*7A
$GTIMU,2292,527133.500,0.0178,-0.0772,0.0076,-0.0268,-0.0073,0.9991,23.2*42
10:25::15.523,1702664733482,120.62751713,31.42732940,3478524.03870939,559662.19439800,112.96100000,6.00000000,0.00400000,0.00100000,-0.01500000,0.01780000,-0.07720000,0.00760000,-0.02680000,-0.00730000,0.99910000
$GPFPD,2292,527133.600,112.962,-0.412,1.231,31.42732940,120.62751720,10.570,0.003,-0.002,-0.015,0.802,19,17,04*57
$GTIMU,2292,527133.600,0.0019,-0.0459,-0.0009,-0.0183,-0.0060,0.9995,23.2*68
10:25::15.623,1702664733582,120.62751720,31.42732940,3478524.03874740,559662.20105349,112.96200000,6.00000000,0.00300000,-0.00200000,-0.01500000,0.00190000,-0.04590000,-0.00090000,-0.01830000,-0.00600000,0.99950000
$GPFPD,2292,527133.700,112.960,-0.411,1.226,31.42732940,120.62751728,10.569,0.003,-0.004,-0.013,0.801,19,17,04*52
$GTIMU,2292,527133.700,0.0116,-0.0544,0.0162,-0.0193,-0.0060,1.0011,23.2*47
10:25::15.723,1702664733682,120.62751728,31.42732940,3478524.03879084,559662.20865975,112.96000000,6.00000000,0.00300000,-0.00400000,-0.01300000,0.01160000,-0.05440000,0.01620000,-0.01930000,-0.00600000,1.00110000
$GPFPD,2292,527133.800,112.963,-0.414,1.242,31.42732939,120.62751733,10.568,0.000,-0.008,-0.014,0.801,19,17,04*54
$GTIMU,2292,527133.800,-0.0341,0.1537,-0.0237,-0.0167,-0.0079,0.9986,23.2*6F
10:25::15.823,1702664733782,120.62751733,31.42732939,3478524.03770919,559662.21342000,112.96300000,6.00000000,0.00000000,-0.00800000,-0.01400000,-0.03410000,0.15370000,-0.02370000,-0.01670000,-0.00790000,0.99860000
$GPFPD,2292,527133.900,112.960,-0.413,1.252,31.42732939,120.62751734,10.567,0.003,-0.003,-0.016,0.804,19,17,04*57
$GTIMU,2292,527133.900,0.0074,0.0991,0.0327,-0.0268,-0.0057,0.9976,23.2*65
10:25::15.923,1702664733882,120.62751734,31.42732939,3478524.03771462,559662.21437079,112.96000000,6.00000000,0.00300000,-0.00300000,-0.01600000,0.00740000,0.09910000,0.03270000,-0.02680000,-0.00570000,0.99760000
$GPFPD,2292,527134.000,112.960,-0.412,1.242,31.42732939,120.62751734,10.565,0.005,0.002,-0.014,0.804,19,17,04*73
$GTIMU,2292,527134.000,0.0092,-0.0987,-0.0015,-0.0276,-0.0074,1.0022,23.2*68
10:25::16.023,1702664733982,120.62751734,31.42732939,3478524.03771462,559662.21437079,112.96000000,6.00000000,0.00500000,0.00200000,-0.01400000,0.00920000,-0.09870000,-0.00150000,-0.02760000,-0.00740000,1.00220000
$GPGGA,022516.00,3125.6397901,N,12037.6517327,E,1,17,1.0,3.980,M,7.80,M,,*66
$GPFPD,2292,527134.100,112.963,-0.412,1.230,31.42732939,120.62751734,10.564,0.002,-0.004,-0.014,0.804,19,17,04*59
$GTIMU,2292,527134.100,-0.0045,-0.1237,-0.0260,-0.0145,-0.0069,0.9991,23.2*49
10:25::16.123,1702664734082,120.62751734,31.42732939,3478524.03771462,559662.21437079,112.96300000,6.00000000,0.00200000,-0.00400000,-0.01400000,-0.00450000,-0.12370000,-0.02600000,-0.01450000,-0.00690000,0.99910000
$GPFPD,2292,527134.200,112.961,-0.412,1.239,31.42732938,120.62751735,10.562,0.001,-0.006,-0.014,0.802,19,17,04*50
$GTIMU,2292,527134.200,-0.0045,0.0877,0.0253,-0.0184,-0.0066,0.9993,23.2*45
10:25::16.223,1702664734182,120.62751735,31.42732938,3478524.03661125,559662.21532790,112.96100000,6.00000000,0.00100000,-0.00600000,-0.01400000,-0.00450000,0.08770000,0.02530000,-0.01840000,-0.00660000,0.99930000
$GPFPD,2292,527134.300,112.962,-0.413,1.242,31.42732938,120.62751734,10.562,0.003,-0.003,-0.015,0.803,19,17,04*59
$GTIMU,2292,527134.300,-0.0184,0.0309,-0.0071,-0.0259,-0.0054,0.9987,23.2*62
10:25::16.323,1702664734282,120.62751734,31.42732938,3478524.03660582,559662.21437712,112.96200000,6.00000000,0.00300000,-0.00300000,-0.01500000,-0.01840000,0.03090000,-0.00710000,-0.02590000,-0.00540000,0.99870000
$GPFPD,2292,527134.400,112.962,-0.413,1.241,31.42732938,120.62751732,10.563,0.001,-0.002,-0.014,0.803,19,17,04*58
$GTIMU,2292,527134.400,0.0049,-0.0095,0.0048,-0.0213,-0.0088,1.0002,23.2*47
10:25::16.423,1702664734382,120.62751732,31.42732938,3478524.03659496,559662.21247555,112.96200000,6.00000000,0.00100000,-0.00200000,-0.01400000,0.00490000,-0.00950000,0.00480000,-0.02130000,-0.00880000,1.00020000
$GPFPD,2292,527134.500,112.961,-0.412,1.235,31.42732937,120.62751730,10.564,0.002,-0.003,-0.014,0.801,19,17,04*52
$GTIMU,2292,527134.500,0.0025,-0.0635,0.0111,-0.0212,-0.0055,0.9993,23.2*45
