99.800,112.824,-0.532,1.174,31.42737945,120.62744515,13.585,0.001,-0.010,-0.008,0.802,21,18,04*5A
$GTIMU,2292,545499.800,0.0116,-0.0510,0.0093,-0.0219,-0.0102,0.9989,32.5*44
15:31::21.796,1702683099782,120.62744515,31.42737945,3478529.54916641,559655.31896931,112.82400000,6.00000000,0.00100000,-0.01000000,-0.00800000,0.01160000,-0.05100000,0.00930000,-0.02190000,-0.01020000,0.99890000
$GPFPD,2292,545499.900,112.824,-0.533,1.179,31.42737944,120.62744515,13.584,0.000,-0.012,-0.009,0.803,21,18,04*54
$GTIMU,2292,545499.900,-0.0149,0.0423,-0.0054,-0.0177,-0.0082,0.9990,32.5*62
15:31::21.897,1702683099882,120.62744515,31.42737944,3478529.54805761,559655.31897564,112.82400000,6.00000000,0.00000000,-0.01200000,-0.00900000,-0.01490000,0.04230000,-0.00540000,-0.01770000,-0.00820000,0.99900000
$GPFPD,2292,545500.000,112.824,-0.533,1.181,31.42737943,120.62744515,13.583,0.001,-0.011,-0.008,0.803,21,18,04*58
$GTIMU,2292,545500.000,0.0038,0.0240,0.0082,-0.0222,-0.0089,1.0009,32.5*6C
15:31::21.998,1702683099982,120.62744515,31.42737943,3478529.54694881,559655.31898197,112.82400000,6.00000000,0.00100000,-0.01100000,-0.00800000,0.00380000,0.02400000,0.00820000,-0.02220000,-0.00890000,1.00090000
$GPFPD,2292,545500$GPGGA,07.100,112.3122.00,3824,-0.5125.6428233,1.17505,N,1203,31.427377.6473618942,120.,E,1,18,062744515,.9,6.946,13.583,-0M,7.80,M,.000,-0.009,-0.00,*6F
8,0.803,21,18,04*76
$GTIMU,2292,545500.100,-0.0049,-0.0618,-0.0003,-0.0215,-0.0100,0.9995,32.5*46
15:31::22.097,1702683100082,120.62744515,31.42737942,3478529.54584001,559655.31898831,112.82400000,6.00000000,0.00000000,-0.00900000,-0.00800000,-0.00490000,-0.06180000,-0.00030000,-0.02150000,-0.01000000,0.99950000
$GPFPD,2292,545500.200,112.824,-0.535,1.179,31.42737941,120.62744515,13.582,-0.000,-0.012,-0.009,0.803,21,18,04*76
$GTIMU,2292,545500.200,-0.0223,0.0354,0.0003,-0.0179,-0.0078,0.9981,32.5*44
15:31::22.196,1702683100182,120.62744515,31.42737941,3478529.54473121,559655.31899464,112.82400000,6.00000000,0.00000000,-0.01200000,-0.00900000,-0.02230000,0.03540000,0.00030000,-0.01790000,-0.00780000,0.99810000
$GPFPD,2292,545500.300,112.824,-0.533,1.175,31.42737941,120.62744515,13.581,0.002,-0.008,-0.008,0.801,21,18,04*59
$GTIMU,2292,545500.300,0.0156,-0.0408,0.0013,-0.0235,-0.0072,1.0007,32.5*45
15:31::22.297,1702683100282,120.62744515,31.42737941,3478529.54473121,559655.31899464,112.82400000,6.00000000,0.00200000,-0.00800000,-0.00800000,0.01560000,-0.04080000,0.00130000,-0.02350000,-0.00720000,1.00070000
$GPFPD,2292,545500.400,112.824,-0.535,1.173,31.42737943,120.62744515,13.583,0.001,-0.010,-0.008,0.801,21,18,04*54
$GTIMU,2292,545500.400,-0.0241,-0.0174,-0.0014,-0.0181,-0.0088,0.9992,32.5*4A
15:31::22.397,1702683100382,120.62744515,31.42737943,3478529.54694881,559655.31898197,112.82400000,6.00000000,0.00100000,-0.01000000,-0.00800000,-0.02410000,-0.01740000,-0.00140000,-0.01810000,-0.00880000,0.99920000
$GPFPD,2292,545500.500,112.824,-0.535,1.179,31.42737946,120.62744515,13.584,-0.001,-0.010,-0.009,0.801,21,18,04*71
$GTIMU,2292,545500.500,-0.0007,0.0593,0.0014,-0.0193,-0.0104,0.9990,32.5*42
15:31::22.497,1702683100482,120.62744515,31.42737946,3478529.55027521,559655.31896298,112.82400000,6.00000000,-0.00100000,-0.01000000,-0.00900000,-0.00070000,0.05930000,0.00140000,-0.01930000,-0.01040000,0.99900000
$GPFPD,2292,545500.600,112.824,-0.531,1.175,31.42737948,120.62744514,13.585,-0.000,-0.008,-0.008,0.801,21,18,04*7D
$GTIMU,2292,545500.600,0.0298,-0.0413,0.0093,-0.0228,-0.0094,1.0007,32.5*47
15:31::22.596,1702683100582,120.62744514,31.42737948,3478529.55248738,559655.31799953,112.82400000,6.00000000,0.00000000,-0.00800000,-0.00800000,0.02980000,-0.04130000,0.00930000,-0.02280000,-0.00940000,1.00070000
$GPFPD,2292,545500.700,112.824,-0.534,1.176,31.42737950,120.62744514,13.586,0.001,-0.010,-0.008,0.802,21,18,04*56
$GTIMU,2292,545500.700,-0.0298,0.0081,-0.0014,-0.0192,-0.0068,0.9993,32.5*66
15:31::22.697,1702683100682,120.62744514,31.42737950,3478529.55470497,559655.31798687,112.82400000,6.00000000,0.00100000,-0.01000000,-0.00800000,-0.02980000,0.00810000,-0.00140000,-0.01920000,-0.00680000,0.99930000
$GPFPD,2292,545500.800,112.824,-0.534,1.178,31.42737952,120.62744514,13.587,0.000,-0.010,-0.009,0.802,21,18,04*54
$GTIMU,2292,545500.800,-0.0093,0.0178,0.0020,-0.0204,-0.0093,0.9987,32.5*40
15:31::22.796,1702683100782,120.62744514,31.42737952,3478529.55692257,559655.31797421,112.82400000,6.00000000,0.00000000,-0.01000000,-0.00900000,-0.00930000,0.01780000,0.00200000,-0.02040000,-0.00930000,0.99870000
$GPFPD,2292,545500.900,112.824,-0.532,1.174,31.42737951,120.62744514,13.586,0.001,-0.009,-0.009,0.802,21,18,04*54
$GTIMU,2292,545500.900,0.0167,-0.0413,0.0070,-0.0215,-0.0089,0.9999,32.5*42
15:31::22.896,1702683100882,120.62744514,31.42737951,3478529.55581377,559655.31798054,112.82400000,6.00000000,0.00100000,-0.00900000,-0.00900000,0.01670000,-0.04130000,0.00700000,-0.02150000,-0.00890000,0.99990000
$GPFPD,2292,545501.000,112.824,-0.534,1.179,31.42737950,120.62744514,13.585,0.001,-0.011,-0.008,0.802,21,18,04*5D
$GTIMU,2292,545501.000,-0.0212,0.0491,-0.0060,-0.0185,-0.0077,1.0003,32.5*64
15:31::22.997,1702683100982,120.62744514,31.42737950,3478529.55470497,559655.31798687,112.82400000,6.00000000,0.00100000,-0.01100000,-0.00800000,-0.02120000,0.04910000,-0.00600000,-0.01850000,-0.00770000,1.00030000
$GPFPD,2292,545501$GPGGA,07.100,112.3123.00,3824,-0.53125.642814,1.177,371,N,12031.42737957.64736130,120.627,E,1,18,044514,13..9,6.973,584,-0.00M,7.80,M,0,-0.008,,*63
-0.007,0.802,21,18,04*78
$GTIMU,2292,545501.100,0.0014,-0.0294,0.0093,-0.0223,-0.0107,1.0001,32.5*48
15:31::23.097,1702683101082,120.62744514,31.42737950,3478529.55470497,559655.31798687,112.82400000,6.00000000,0.00000000,-0.00800000,-0.00700000,0.00140000,-0.02940000,0.00930000,-0.02230000,-0.01070000,1.00010000
$GPFPD,2292,545501.200,112.824,-0.533,1.175,31.42737949,120.62744514,13.583,-0.001,-0.009,-0.009,0.801,21,18,04*7C
$GTIMU,2292,545501.200,0.0020,-0.0129,0.0002,-0.0197,-0.0087,0.9982,32.5*4E
15:31::23.197,1702683101182,120.62744514,31.42737949,3478529.55359617,559655.31799320,112.82400000,6.00000000,-0.00100000,-0.00900000,-0.00900000,0.00200000,-0.01290000,0.00020000,-0.01970000,-0.00870000,0.99820000
$GPFPD,2292,545501.300,112.824,-0.533,1.180,31.42737948,120.62744514,13.582,0.002,-0.009,-0.011,0.802,21,18,04*53
$GTIMU,2292,545501.300,-0.0042,0.0451,-0.0032,-0.0194,-0.0077,0.9998,32.5*68
15:31::23.296,1702683101282,120.62744514,31.42737948,3478529.55248738,559655.31799953,112.82400000,6.00000000,0.00200000,-0.00900000,-0.01100000,-0.00420000,0.04510000,-0.00320000,-0.01940000,-0.00770000,0.99980000
$GPFPD,2292,545501.400,112.823,-0.533,1.175,31.42737950,120.62744517,13.579,0.003,-0.007,-0.010,0.802,21,18,04*59
$GTIMU,2292,545501.400,0.0031,-0.0470,0.0116,-0.0227,-0.0086,1.0004,32.5*43
15:31::23.396,1702683101382,120.62744517,31.42737950,3478529.55472126,559655.32083922,112.82300000,6.00000000,0.00300000,-0.00700000,-0.01000000,0.00310000,-0.04700000,0.01160000,-0.02270000,-0.00860000,1.00040000
$GPFPD,2292,545501.500,112.824,-0.534,1.178,31.42737951,120.62744520,13.576,0.003,-0.009,-0.011,0.803,21,18,04*51
$GTIMU,2292,545501.500,-0.0207,0.0229,-0.0032,-0.0184,-0.0079,0.9986,32.5*64
15:31::23.497,1702683101482,120.62744520,31.42737951,3478529.55584635,559655.32368524,112.82400000,6.00000000,0.00300000,-0.00900000,-0.01100000,-0.02070000,0.02290000,-0.00320000,-0.01840000,-0.00790000,0.99860000
$GPFPD,2292,545501.600,112.824,-0.533,1.178,31.42737953,120.62744523,13.573,0.001,-0.008,-0.011,0.803,21,18,04*52
$GTIMU,2292,545501.600,0.0071,-0.0015,0.0002,-0.0211,-0.0102,1.0004,32.5*4E
15:31::23.597,1702683101582,120.62744523,31.42737953,3478529.55808023,559655.32652492,112.82400000,6.00000000,0.00100000,-0.00800000,-0.01100000,0.00710000,-0.00150000,0.00020000,-0.02110000,-0.01020000,1.00040000
$GPFPD,2292,545501.700,112.823,-0.533,1.175,31.42737954,120.62744526,13.569,0.001,-0.008,-0.010,0.803,21,18,04*51
$GTIMU,2292,545501.700,-0.0014,-0.0277,0.0065,-0.0208,-0.0091,1.0000,32.5*61
15:31::23.696,1702683101682,120.62744526,31.42737954,3478529.55920532,559655.32937094,112.82300000,6.00000000,0.00100000,-0.00800000,-0.01000000,-0.00140000,-0.02770000,0.00650000,-0.02080000,-0.00910000,1.00000000
$GPFPD,2292,545501.800,112.824,-0.534,1.181,31.42737955,120.62744528,13.567,0.001,-0.009,-0.011,0.803,21,18,04*54
$GTIMU,2292,545501.800,-0.0132,0.0519,-0.0037,-0.0191,-0.0080,0.9986,32.5*6F
15:31::23.797,1702683101782,120.62744528,31.42737955,3478529.56032498,559655.33126617,112.82400000,6.00000000,0.00100000,-0.00900000,-0.01100000,-0.01320000,0.05190000,-0.00370000,-0.01910000,-0.00800000,0.99860000
$GPFPD,2292,545501.900,112.824,-0.532,1.176,31.42737954,120.62744528,13.566,0.002,-0.007,-0.010,0.803,21,18,04*57
$GTIMU,2292,545501.900,0.0139,-0.0504,0.0047,-0.0228,-0.0087,1.0005,32.5*4F
15:31::23.897,1702683101882,120.62744528,31.42737954,3478529.55921618,559655.33127251,112.82400000,6.00000000,0.00200000,-0.00700000,-0.01000000,0.01390000,-0.05040000,0.00470000,-0.02280000,-0.00870000,1.00050000
$GPFPD,2292,545502.000,112.824,-0.533,1.177,31.42737953,120.62744528,13.565,0.003,-0.010,-0.011,0.803,21,18,04*5F
$GTIMU,2292,545502.000,-0.0133,0.0150,0.0002,-0.0177,-0.0072,0.9985,32.5*41
15:31::23.997,1702683101982,120.62744528,31.42737953,3478529.55810738,559655.33127884,112.82400000,6.00000000,0.00300000,-0.01000000,-0.01100000,-0.01330000,0.01500000,0.00020000,-0.01770000,-0.00720000,0.99850000
$GPGGA,073124.00,3125.6428180,N,12037.6473658,E,1,18,0.9,7.021,M,7.80,M,,*6A
$GPFPD,2292,545502.100,112.824,-0.533,1.178,31.42737952,120.62744528,13.564,0.002,-0.009,-0.011,0.803,21,18,04*58
$GTIMU,2292,545502.100,0.0032,0.0087,0.0013,-0.0216,-0.0102,1.0003,32.5*6B
15:31::24.096,1702683102082,120.62744528,31.42737952,3478529.55699858,559655.33128517,112.82400000,6.00000000,0.00200000,-0.00900000,-0.01100000,0.00320000,0.00870000,0.00130000,-0.02160000,-0.01020000,1.00030000
$GPFPD,2292,545502.200,112.824,-0.532,1.175,31.42737952,120.62744528,13.563,0.001,-0.008,-0.010,0.801,21,18,04*51
$GTIMU,2292,545502.200,0.0076,-0.0385,0.0059,-0.0210,-0.0096,0.9998,32.5*43
15:31::24.196,1702683102182,120.62744528,31.42737952,3478529.55699858,559655.33128517,112.82400000,6.00000000,0.00100000,-0.00800000,-0.01000000,0.00760000,-0.03850000,0.00590000,-0.02100000,-0.00960000,0.99980000
$GPFPD,2292,545502.300,112.824,-0.534,1.180,31.42737951,120.62744529,13.561,0.001,-0.011,-0.015,0.803,22,18,04*50
$GTIMU,2292,545502.300,-0.0257,0.0474,-0.0037,-0.0189,-0.0080,0.9985,32.5*67
15:31::24.297,1702683102282,120.62744529,31.42737951,3478529.55589521,559655.33224228,112.82400000,6.00000000,0.00100000,-0.01100000,-0.01500000,-0.02570000,0.04740000,-0.00370000,-0.01890000,-0.00800000,0.99850000
$GPFPD,2292,545502.400,112.823,-0.532,1.177,31.42737949,120.62744528,13.557,0.001,-0.009,-0.014,0.803,22,18,04*5B
$GTIMU,2292,545502.400,0.0196,-0.0305,0.0082,-0.0224,-0.0093,0.9999,32.5*47
15:31::24.396,1702683102382,120.62744528,31.42737949,3478529.55367218,559655.33130416,112.82300000,6.00000000,0.00100000,-0.00900000,-0.01400000,0.01960000,-0.03050000,0.00820000,-0.02240000,-0.00930000,0.99990000
$GPFPD,2292,545502.500,112.824,-0.532,1.176,31.42737947,120.62744528,13.553,0.003,-0.011,-0.015,0.803,22,18,04*5C
$GTIMU,2292,545502.500,-0.0076,-0.0072,-0.0003,-0.0192,-0.0065,0.9988,32.5*44
15:31::24.497,1702683102482,120.62744528,31.42737947,3478529.55145459,559655.33131683,112.82400000,6.00000000,0.00300000,-0.01100000,-0.01500000,-0.00760000,-0.00720000,-0.00030000,-0.01920000,-0.00650000,0.99880000
$GPFPD,2292,545502.600,112.824,-0.534,1.180,31.42737945,120.62744528,13.549,0.002,-0.011,-0.014,0.803,22,18,04*59
$GTIMU,2292,545502.600,-0.0184,0.0332,-0.0026,-0.0198,-0.0094,1.0009,32.5*6A
15:31::24.597,1702683102582,120.62744528,31.42737945,3478529.54923699,559655.33132949,112.82400000,6.00000000,0.00200000,-0.01100000,-0.01400000,-0.01840000,0.03320000,-0.00260000,-0.01980000,-0.00940000,1.00090000
$GPFPD,2292,545502.700,112.823,-0.532,1.175,31.42737943,120.62744527,13.545,0.001,-0.009,-0.015,0.801,22,18,04*5F
$GTIMU,2292,545502.700,0.0139,-0.0470,0.0150,-0.0223,-0.0110,0.9988,32.5*47
15:31::24.697,1702683102682,120.62744527,31.42737943,3478529.54701396,559655.33039137,112.82300000,6.00000000,0.00100000,-0.00900000,-0.01500000,0.01390000,-0.04700000,0.01500000,-0.02230000,-0.01100000,0.99880000
$GPFPD,2292,545502.800,112.824,-0.532,1.178,31.42737942,120.62744527,13.542,0.002,-0.010,-0.015,0.801,22,18,04*57
$GTIMU,2292,545502.800,-0.0093,0.0332,-0.0077,-0.0191,-0.0068,0.9996,32.5*6A
15:31::24.796,1702683102782,120.62744527,31.42737942,3478529.54590516,559655.33039770,112.82400000,6.00000000,0.00200000,-0.01000000,-0.01500000,-0.00930000,0.03320000,-0.00770000,-0.01910000,-0.00680000,0.99960000
$GPFPD,2292,545502.900,112.824,-0.533,1.178,31.42737941,120.62744527,13.540,0.001,-0.010,-0.013,0.802,22,18,04*50
$GTIMU,2292,545502.900,-0.0082,-0.0032,-0.0009,-0.0205,-0.0095,1.0008,32.5*46
15:31::24.897,1702683102882,120.62744527,31.42737941,3478529.54479636,559655.33040403,112.82400000,6.00000000,0.00100000,-0.01000000,-0.01300000,-0.00820000,-0.00320000,-0.00090000,-0.02050000,-0.00950000,1.00080000
$GPFPD,2292,545503.000,112.823,-0.532,1.175,31.42737940,120.62744527,13.539,0.001,-0.010,-0.014,0.802,22,18,04*5B
$GTIMU,2292,545503.000,0.0088,-0.0385,0.0156,-0.0206,-0.0093,0.9985,32.5*41
15:31::24.997,1702683102982,120.62744527,31.42737940,3478529.54368756,559655.33041036,112.82300000,6.00000000,0.00100000,-0.01000000,-0.01400000,0.00880000,-0.03850000,0.01560000,-0.02060000,-0.00930000,0.99850000
$GPGGA,073125.00,3125.6428254,N,12037.6473642,E,1,18,0.9,7.042,M,7.80,M,,*6F
$GPFPD,2292,545503.100,112.824,-0.532,1.181,31.42737939,120.62744527,13.537,0.002,-0.012,-0.015,0.802,22,18,04*56
$GTIMU,2292,545503.100,-0.0087,0.0644,-0.0072,-0.0186,-0.0068,0.9992,32.5*64
15:31::25.097,1702683103082,120.62744527,31.42737939,3478529.54257877,559655.33041670,112.82400000,6.00000000,0.00200000,-0.01200000,-0.01500000,-0.00870000,0.06440000,-0.00720000,-0.01860000,-0.00680000,0.99920000
$GPFPD,2292,545503.200,112.823,-0.532,1.177,31.42737938,120.62744528,13.536,0.002,-0.009,-0.013,0.800,22,18,04*5A
$GTIMU,2292,545503.200,0.0008,-0.0396,0.0053,-0.0240,-0.0098,1.0015,32.5*4C
15:31::25.196,1702683103182,120.62744528,31.42737938,3478529.54147540,559655.33137381,112.82300000,6.00000000,0.00200000,-0.00900000,-0.01300000,0.00080000,-0.03960000,0.00530000,-0.02400000,-0.00980000,1.00150000
$GPFPD,2292,545503.300,112.823,-0.534,1.177,31.42737937,120.62744527,13.534,-0.001,-0.012,-0.018,0.802,22,18,04*72
$GTIMU,2292,545503.300,-0.0241,-0.0100,0.0026,-0.0183,-0.0086,0.9973,32.5*62
15:31::25.297,1702683103282,120.62744527,31.42737937,3478529.54036117,559655.33042936,112.82300000,6.00000000,-0.00100000,-0.01200000,-0.01800000,-0.02410000,-0.01000000,0.00260000,-0.01830000,-0.00860000,0.99730000
$GPFPD,2292,545503.400,112.824,-0.529,1.176,31.42737934,120.62744523,13.530,-0.001,-0.012,-0.017,0.802,22,18,04*73
$GTIMU,2292,545503.400,0.0412,-0.0078,-0.0050,-0.0212,-0.0090,1.0005,32.5*66
15:31::25.397,1702683103382,120.62744523,31.42737934,3478529.53701305,559655.32664522,112.82400000,6.00000000,-0.00100000,-0.01200000,-0.01700000,0.04120000,-0.00780000,-0.00500000,-0.02120000,-0.00900000,1.00050000
$GPFPD,2292,545503.500,112.824,-0.528,1.177,31.42737931,120.62744520,13.526,0.003,-0.015,-0.019,0.803,22,18,04*54
$GTIMU,2292,545503.500,0.0151,0.0098,-0.0004,-0.0189,-0.0031,0.9982,32.5*43
15:31::25.497,1702683103482,120.62744520,31.42737931,3478529.53367037,559655.32381187,112.82400000,6.00000000,0.00300000,-0.01500000,-0.01900000,0.01510000,0.00980000,-0.00040000,-0.01890000,-0.00310000,0.99820000
$GPFPD,2292,545503.600,112.824,-0.526,1.178,31.42737928,120.62744516,13.523,-0.002,-0.012,-0.018,0.803,22,18,04*74
$GTIMU,2292,545503.600,0.0117,0.0104,0.0082,-0.0218,-0.0150,1.0005,32.5*66
15:31::25.596,1702683103582,120.62744516,31.42737928,3478529.53032226,559655.32002773,112.82400000,6.00000000,-0.00200000,-0.01200000,-0.01800000,0.01170000,0.01040000,0.00820000,-0.02180000,-0.01500000,1.00050000
$GPFPD,2292,545503.700,112.824,-0.521,1.177,31.42737926,120.62744512,13.519,-0.004,-0.011,-0.019,0.804,22,18,04*7D
$GTIMU,2292,545503.700,0.0468,-0.0152,-0.0033,-0.0202,-0.0107,0.9980,32.5*66
15:31::25.697,1702683103682,120.62744512,31.42737926,3478529.52808294,559655.31623726,112.82400000,6.00000000,-0.00400000,-0.01100000,-0.01900000,0.04680000,-0.01520000,-0.00330000,-0.02020000,-0.01070000,0.99800000
$GPFPD,2292,545503.800,112.824,-0.515,1.177,31.42737923,120.62744509,13.515,0.001,-0.013,-0.018,0.804,22,18,04*5D
$GTIMU,2292,545503.800,0.0577,0.0030,0.0029,-0.0206,-0.0027,1.0009,32.5*6F
15:31::25.797,1702683103782,120.62744509,31.42737923,3478529.52474026,559655.31340391,112.82400000,6.00000000,0.00100000,-0.01300000,-0.01800000,0.05770000,0.00300000,0.00290000,-0.02060000,-0.00270000,1.00090000
$GPFPD,2292,545503.900,112.824,-0.514,1.174,31.42737922,120.62744509,13.514,-0.000,-0.012,-0.017,0.800,22,18,04*78
$GTIMU,2292,545503.900,0.0048,-0.0379,0.0008,-0.0208,-0.0104,1.0007,32.5*47
15:31::25.897,1702683103882,120.62744509,31.42737922,3478529.52363146,559655.31341024,112.82400000,6.00000000,0.00000000,-0.01200000,-0.01700000,0.00480000,-0.03790000,0.00080000,-0.02080000,-0.01040000,1.00070000
$GPFPD,2292,545504.000,112.825,-0.514,1.175,31.42737921,120.62744509,13.512,-0.002,-0.012,-0.019,0.800,22,18,04*7F
$GTIMU,2292,545504.000,-0.0031,0.0098,-0.0049,-0.0195,-0.0095,0.9972,32.5*6E
15:31::25.997,1702683103982,120.62744509,31.42737921,3478529.52252266,559655.31341657,112.82500000,6.00000000,-0.00200000,-0.01200000,-0.01900000,-0.00310000,0.00980000,-0.00490000,-0.01950000,-0.00950000,0.99720000
$GPFPD,2292,545504.100,112.825,-0.507,1.174,31.42737920,120.62744509,13.510,-0.001,-0.013,-0.019,0.800,22,18,04*7C
$GTIMU,2292,545504.100,0.0667,-0.0112,0.0086,-0.0205,-0.0071,1.0003,32.5*40
$GPFPD,2292,545504.200,112.825,-0.506,1.174,31.42737919,120.62744509,13.508,-0.001,-0.013,-0.017,0.804,22,18,04*77
$GTIMU,2292,545504.200,0.0049,-0.0027,0.0019,-0.0204,-0.0085,1.0013,32.5*43
$GPFPD,2292,545504.300,112.826,-0.506,1.175,31.42737918,120.62744508,13.506,-0.002,-0.012,-0.021,0.803,21,18,04*79
$GTIMU,2292,545504.300,-0.0065,0.0110,-0.0055,-0.0209,-0.0079,0.9980,32.5*69
$GPFPD,2292,545504.400,112.825,-0.501,1.173,31.42737919,120.62744505,13.502,-0.003,-0.012,-0.021,0.803,21,18,04*75
$GTIMU,2292,545504.400,0.0485,-0.0175,0.0064,-0.0199,-0.0095,1.0000,32.5*49
$GPFPD,2292,545504.500,112.825,-0.501,1.174,31.42737919,120.62744502,13.499,-0.003,-0.013,-0.021,0.802,21,18,04*77
$GTIMU,2292,545504.500,0.0032,0.0019,0.0088,-0.0200,-0.0078,0.9998,32.5*64
$GPFPD,2292,545504.600,112.825,-0.498,1.173,31.42737919,120.62744499,13.495,-0.002,-0.012,-0.023,0.802,21,18,04*7F
$GTIMU,2292,545504.600,0.0264,-0.0072,-0.0055,-0.0216,-0.0070,0.9976,32.5*64
$GPFPD,2292,545504.700,112.825,-0.496,1.172,31.42737919,120.62744496,13.492,-0.005,-0.013,-0.019,0.804,21,18,04*70
$GTIMU,2292,545504.700,0.0122,-0.0118,0.0110,-0.0185,-0.0105,1.0030,32.5*4D
$GPFPD,2292,545504.800,112.824,-0.498,1.176,31.42737919,120.62744494,13.489,-0.003,-0.013,-0.021,0.804,21,18,04*71
$GTIMU,2292,545504.800,-0.0183,0.0366,0.0060,-0.0211,-0.0070,0.9977,32.5*4B
$GPFPD,2292,545504.900,112.825,-0.494,1.173,31.42737918,120.62744493,13.487,-0.002,-0.012,-0.022,0.802,21,18,04*75
$GTIMU,2292,545504.900,0.0320,-0.0322,-0.0084,-0.0216,-0.0072,0.9991,32.5*6B
$GPFPD,2292,545505.000,112.825,-0.496,1.174,31.42737917,120.62744493,13.485,-0.004,-0.013,-0.019,0.802,21,18,04*7A
$GTIMU,2292,545505.000,-0.0212,0.0076,0.0043,-0.0184,-0.0094,1.0022,32.5*4E
$GPGGA,073126.00,3125.6428306,N,12037.6473665,E,1,18,0.9,7.071,M,7.80,M,,*6F
$GPGGA,073127.00,3125.6428399,N,12037.6473674,E,1,18,0.9,7.101,M,7.80,M,,*6E
$GPFPD,2292,545505.100,112.824,-0.494,1.174,31.42737916,120.62744493,13.483,-0.004,-0.012,-0.022,0.802,21,18,04*76
$GTIMU,2292,545505.100,0.0123,0.0036,0.0139,-0.0214,-0.0079,0.9971,32.5*65
15:31::27.097,1702683105082,120.62744493,31.42737916,3478529.51689180,559655.29823570,112.82400000,6.00000000,-0.00400000,-0.01200000,-0.02200000,0.01230000,0.00360000,0.01390000,-0.02140000,-0.00790000,0.99710000
$GPFPD,2292,545505.200,112.826,-0.494,1.176,31.42737915,120.62744492,13.481,-0.003,-0.012,-0.020,0.804,21,18,04*76
$GTIMU,2292,545505.200,-0.0048,0.0161,-0.0220,-0.0205,-0.0078,1.0018,32.5*6D
15:31::27.197,1702683105182,120.62744492,31.42737915,3478529.51577757,559655.29729125,112.82600000,6.00000000,-0.00300000,-0.01200000,-0.02000000,-0.00480000,0.01610000,-0.02200000,-0.02050000,-0.00780000,1.00180000
$GPFPD,2292,545505.300,112.824,-0.496,1.175,31.42737914,120.62744492,13.481,-0.002,-0.011,-0.016,0.803,22,18,04*76
$GTIMU,2292,545505.300,-0.0184,-0.0146,0.0219,-0.0204,-0.0074,0.9977,32.5*67
15:31::27.297,1702683105282,120.62744492,31.42737914,3478529.51466877,559655.29729758,112.82400000,6.00000000,-0.00200000,-0.01100000,-0.01600000,-0.01840000,-0.01460000,0.02190000,-0.02040000,-0.00740000,0.99770000
$GPFPD,2292,545505.400,112.825,-0.495,1.176,31.42737917,120.62744493,13.490,-0.004,-0.011,-0.016,0.803,22,18,04*74
$GTIMU,2292,545505.400,0.0037,0.0104,-0.0055,-0.0196,-0.0099,1.0005,32.5*47
15:31::27.397,1702683105382,120.62744493,31.42737917,3478529.51800059,559655.29822937,112.82500000,6.00000000,-0.00400000,-0.01100000,-0.01600000,0.00370000,0.01040000,-0.00550000,-0.01960000,-0.00990000,1.00050000
$GPFPD,2292,545505.500,112.824,-0.495,1.178,31.42737919,120.62744495,13.500,-0.001,-0.012,-0.016,0.802,22,18,04*7D
$GTIMU,2292,545505.500,-0.0013,0.0201,0.0059,-0.0202,-0.0053,0.9991,32.5*4E
15:31::27.497,1702683105482,120.62744495,31.42737919,3478529.52022905,559655.30011827,112.82400000,6.00000000,-0.00100000,-0.01200000,-0.01600000,-0.00130000,0.02010000,0.00590000,-0.02020000,-0.00530000,0.99910000
$GPFPD,2292,545505.600,112.823,-0.497,1.178,31.42737921,120.62744496,13.509,-0.004,-0.011,-0.015,0.802,22,18,04*7F
$GTIMU,2292,545505.600,-0.0241,0.0024,0.0117,-0.0212,-0.0106,1.0008,32.5*47
15:31::27.597,1702683105582,120.62744496,31.42737921,3478529.52245208,559655.30105639,112.82300000,6.00000000,-0.00400000,-0.01100000,-0.01500000,-0.02410000,0.00240000,0.01170000,-0.02120000,-0.01060000,1.00080000
$GPFPD,2292,545505.700,112.824,-0.497,1.177,31.42737923,120.62744497,13.518,-0.001,-0.011,-0.017,0.802,22,18,04*72
$GTIMU,2292,545505.700,-0.0037,-0.0135,-0.0038,-0.0211,-0.0059,0.9977,32.5*49
15:31::27.697,1702683105682,120.62744497,31.42737923,3478529.52467511,559655.30199451,112.82400000,6.00000000,-0.00100000,-0.01100000,-0.01700000,-0.00370000,-0.01350000,-0.00380000,-0.02110000,-0.00590000,0.99770000
$GPFPD,2292,545505.800,112.825,-0.499,1.175,31.42737925,120.62744498,13.524,-0.003,-0.010,-0.015,0.802,22,18,04*77
$GTIMU,2292,545505.800,-0.0202,-0.0225,-0.0049,-0.0205,-0.0096,1.0018,32.5*48
15:31::27.797,1702683105782,120.62744498,31.42737925,3478529.52689813,559655.30293263,112.82500000,6.00000000,-0.00300000,-0.01000000,-0.01500000,-0.02020000,-0.02250000,-0.00490000,-0.02050000,-0.00960000,1.00180000
$GPFPD,2292,545505.900,112.824,-0.499,1.172,31.42737924,120.62744497,13.523,-0.003,-0.012,-0.017,0.804,22,18,04*7F
$GTIMU,2292,545505.900,-0.0026,-0.0311,0.0099,-0.0193,-0.0076,0.9966,32.5*61
15:31::27.897,1702683105882,120.62744497,31.42737924,3478529.52578390,559655.30198818,112.82400000,6.00000000,-0.00300000,-0.01200000,-0.01700000,-0.00260000,-0.03110000,0.00990000,-0.01930000,-0.00760000,0.99660000
$GPFPD,2292,545506.000,112.824,-0.496,1.174,31.42737923,120.62744497,13.521,-0.004,-0.011,-0.014,0.804,22,18,04*7E
$GTIMU,2292,545506.000,0.0213,0.0166,-0.0010,-0.0204,-0.0094,1.0036,32.5*44
15:31::27.997,1702683105982,120.62744497,31.42737923,3478529.52467511,559655.30199451,112.82400000,6.00000000,-0.00400000,-0.01100000,-0.01400000,0.02130000,0.01660000,-0.00100000,-0.02040000,-0.00940000,1.00360000
$GPFPD,2292,545506$GPGGA,07.100,112.3128.00,3824,-0.50125.642830,1.175,339,N,12031.42737927.64735742,120.627,E,1,18,044497,13..9,7.139,520,-0.00M,7.80,M2,-0.012,,,*63
-0.016,0.804,22,18,04*77
$GTIMU,2292,545506.100,-0.0411,0.0064,0.0020,-0.0206,-0.0060,0.9970,32.5*4B
15:31::28.097,1702683106082,120.62744497,31.42737922,3478529.52356631,559655.30200084,112.82400000,6.00000000,-0.00200000,-0.01200000,-0.01600000,-0.04110000,0.00640000,0.00200000,-0.02060000,-0.00600000,0.99700000
$GPFPD,2292,545506.200,112.824,-0.499,1.172,31.42737921,120.62744496,13.518,-0.004,-0.010,-0.015,0.802,22,18,04*7A
$GTIMU,2292,545506.200,0.0037,-0.0277,0.0042,-0.0213,-0.0110,1.0010,32.5*49
15:31::28.197,1702683106182,120.62744496,31.42737921,3478529.52245208,559655.30105639,112.82400000,6.00000000,-0.00400000,-0.01000000,-0.01500000,0.00370000,-0.02770000,0.00420000,-0.02130000,-0.01100000,1.00100000
$GPFPD,2292,545506.300,112.824,-0.502,1.172,31.42737920,120.62744497,13.519,-0.002,-0.011,-0.011,0.801,21,18,04*7A
$GTIMU,2292,545506.300,-0.0303,0.0008,0.0031,-0.0182,-0.0067,0.9979,32.5*46
15:31::28.297,1702683106282,120.62744497,31.42737920,3478529.52134871,559655.30201351,112.82400000,6.00000000,-0.00200000,-0.01100000,-0.01100000,-0.03030000,0.00080000,0.00310000,-0.01820000,-0.00670000,0.99790000
$GPFPD,2292,545506.400,112.824,-0.498,1.173,31.42737921,120.62744499,13.529,-0.003,-0.009,-0.009,0.801,21,18,04*73
$GTIMU,2292,545506.400,0.0372,0.0053,0.0070,-0.0222,-0.0098,1.0019,32.5*6F
15:31::28.397,1702683106382,120.62744499,31.42737921,3478529.52246837,559655.30390874,112.82400000,6.00000000,-0.00300000,-0.00900000,-0.00900000,0.03720000,0.00530000,0.00700000,-0.02220000,-0.00980000,1.00190000
$GPFPD,2292,545506.500,112.825,-0.508,1.173,31.42737922,120.62744502,13.539,-0.000,-0.011,-0.008,0.802,21,18,04*72
$GTIMU,2292,545506.500,-0.1019,0.0031,-0.0098,-0.0192,-0.0052,1.0006,32.5*63
15:31::28.497,1702683106482,120.62744502,31.42737922,3478529.52359345,559655.30675476,112.82500000,6.00000000,0.00000000,-0.01100000,-0.00800000,-0.10190000,0.00310000,-0.00980000,-0.01920000,-0.00520000,1.00060000
$GPFPD,2292,545506.600,112.822,-0.508,1.170,31.42737923,120.62744504,13.549,-0.003,-0.010,-0.010,0.802,21,18,04*7E
$GTIMU,2292,545506.600,-0.0014,-0.0374,0.0310,-0.0204,-0.0117,0.9976,32.5*67
15:31::28.597,1702683106582,120.62744504,31.42737923,3478529.52471311,559655.30864999,112.82200000,6.00000000,-0.00300000,-0.01000000,-0.01000000,-0.00140000,-0.03740000,0.03100000,-0.02040000,-0.01170000,0.99760000
$GPFPD,2292,545506.700,112.822,-0.513,1.177,31.42737924,120.62744506,13.558,-0.002,-0.014,-0.010,0.801,21,18,04*71
$GTIMU,2292,545506.700,-0.0540,0.0764,0.0026,-0.0177,-0.0053,0.9994,32.5*46
15:31::28.697,1702683106682,120.62744506,31.42737924,3478529.52583277,559655.31054523,112.82200000,6.00000000,-0.00200000,-0.01400000,-0.01000000,-0.05400000,0.07640000,0.00260000,-0.01770000,-0.00530000,0.99940000
$GPFPD,2292,545506.800,112.821,-0.515,1.186,31.42737925,120.62744508,13.565,-0.002,-0.011,-0.008,0.801,21,18,04*78
$GTIMU,2292,545506.800,-0.0222,0.0860,0.0054,-0.0229,-0.0100,1.0024,32.5*41
15:31::28.797,1702683106782,120.62744508,31.42737925,3478529.52695243,559655.31244046,112.82100000,6.00000000,-0.00200000,-0.01100000,-0.00800000,-0.02220000,0.08600000,0.00540000,-0.02290000,-0.01000000,1.00240000
$GPFPD,2292,545506.900,112.822,-0.521,1.182,31.42737924,120.62744508,13.564,-0.000,-0.009,-0.012,0.803,21,18,04*7B
$GTIMU,2292,545506.900,-0.0690,-0.0401,-0.0087,-0.0235,-0.0074,0.9955,32.5*40
15:31::28.897,1702683106882,120.62744508,31.42737924,3478529.52584363,559655.31244679,112.82200000,6.00000000,0.00000000,-0.00900000,-0.01200000,-0.06900000,-0.04010000,-0.00870000,-0.02350000,-0.00740000,0.99550000
$GPFPD,2292,545507.000,112.821,-0.518,1.176,31.42737923,120.62744508,13.563,-0.000,-0.011,-0.008,0.803,21,18,04*73
$GTIMU,2292,545507.000,0.0241,-0.0658,0.0116,-0.0184,-0.0074,1.0029,32.5*44
15:31::28.997,1702683106982,120.62744508,31.42737923,3478529.52473483,559655.31245312,112.82100000,6.00000000,0.00000000,-0.01100000,-0.00800000,0.02410000,-0.06580000,0.01160000,-0.01840000,-0.00740000,1.00290000
$GPGGA,073129.00,3125.6428402,N,12037.6473615,E,1,18,0.9,7.174,M,7.80,M,,*60
$GPFPD,2292,545507.100,112.823,-0.527,1.171,31.42737922,120.62744508,13.563,-0.000,-0.009,-0.010,0.803,21,18,04*7A
$GTIMU,2292,545507.100,-0.0929,-0.0515,-0.0150,-0.0221,-0.0095,0.9983,32.5*4A
15:31::29.097,1702683107082,120.62744508,31.42737922,3478529.52362603,559655.31245946,112.82300000,6.00000000,0.00000000,-0.00900000,-0.01000000,-0.09290000,-0.05150000,-0.01500000,-0.02210000,-0.00950000,0.99830000
$GPFPD,2292,545507.200,112.824,-0.527,1.169,31.42737921,120.62744508,13.561,-0.001,-0.013,-0.012,0.800,21,18,04*7D
$GTIMU,2292,545507.200,0.0025,-0.0231,-0.0083,-0.0165,-0.0080,0.9973,32.5*67
15:31::29.197,1702683107182,120.62744508,31.42737921,3478529.52251723,559655.31246579,112.82400000,6.00000000,-0.00100000,-0.01300000,-0.01200000,0.00250000,-0.02310000,-0.00830000,-0.01650000,-0.00800000,0.99730000
$GPFPD,2292,545507.300,112.822,-0.530,1.169,31.42737922,120.62744508,13.561,-0.002,-0.006,-0.009,0.801,22,18,04*70
$GTIMU,2292,545507.300,-0.0393,0.0047,0.0260,-0.0226,-0.0101,1.0030,32.5*43
15:31::29.297,1702683107282,120.62744508,31.42737922,3478529.52362603,559655.31245946,112.82200000,6.00000000,-0.00200000,-0.00600000,-0.00900000,-0.03930000,0.00470000,0.02600000,-0.02260000,-0.01010000,1.00300000
$GPFPD,2292,545507.400,112.824,-0.534,1.165,31.42737928,120.62744507,13.562,-0.001,-0.006,-0.012,0.801,22,18,04*76
$GTIMU,2292,545507.400,-0.0350,-0.0367,-0.0197,-0.0202,-0.0075,0.9965,32.5*44
15:31::29.397,1702683107382,120.62744507,31.42737928,3478529.53027339,559655.31147068,112.82400000,6.00000000,-0.00100000,-0.00600000,-0.01200000,-0.03500000,-0.03670000,-0.01970000,-0.02020000,-0.00750000,0.99650000
$GPFPD,2292,545507.500,112.823,-0.531,1.170,31.42737934,120.62744507,13.562,-0.003,-0.009,-0.015,0.802,22,18,04*75
$GTIMU,2292,545507.500,0.0214,0.0445,0.0133,-0.0171,-0.0100,0.9969,32.5*68
15:31::29.497,1702683107482,120.62744507,31.42737934,3478529.53692619,559655.31143269,112.82300000,6.00000000,-0.00300000,-0.00900000,-0.01500000,0.02140000,0.04450000,0.01330000,-0.01710000,-0.01000000,0.99690000
$GPFPD,2292,545507.600,112.822,-0.529,1.168,31.42737940,120.62744506,13.563,-0.000,-0.006,-0.008,0.802,22,18,04*74
$GTIMU,2292,545507.600,0.0179,-0.0180,0.0076,-0.0243,-0.0074,1.0066,32.5*4C
15:31::29.597,1702683107582,120.62744506,31.42737940,3478529.54357355,559655.31044392,112.82200000,6.00000000,0.00000000,-0.00600000,-0.00800000,0.01790000,-0.01800000,0.00760000,-0.02430000,-0.00740000,1.00660000
$GPFPD,2292,545507.700,112.824,-0.533,1.170,31.42737946,120.62744506,13.564,-0.002,-0.008,-0.014,0.804,22,18,04*77
$GTIMU,2292,545507.700,-0.0468,0.0184,-0.0179,-0.0175,-0.0096,0.9937,32.5*60
15:31::29.697,1702683107682,120.62744506,31.42737946,3478529.55022634,559655.31040593,112.82400000,6.00000000,-0.00200000,-0.00800000,-0.01400000,-0.04680000,0.01840000,-0.01790000,-0.01750000,-0.00960000,0.99370000
$GPFPD,2292,545507.800,112.823,-0.527,1.170,31.42737950,120.62744505,13.563,-0.002,-0.006,-0.011,0.804,22,18,04*72
$GTIMU,2292,545507.800,0.0594,-0.0073,0.0183,-0.0222,-0.0091,1.0023,32.5*4E
15:31::29.797,1702683107782,120.62744505,31.42737950,3478529.55465611,559655.30942982,112.82300000,6.00000000,-0.00200000,-0.00600000,-0.01100000,0.05940000,-0.00730000,0.01830000,-0.02220000,-0.00910000,1.00230000
$GPFPD,2292,545507.900,112.824,-0.531,1.168,31.42737950,120.62744505,13.563,-0.000,-0.007,-0.009,0.801,22,18,04*75
$GTIMU,2292,545507.900,-0.0435,-0.0208,-0.0139,-0.0202,-0.0070,1.0024,32.5*40
15:31::29.897,1702683107882,120.62744505,31.42737950,3478529.55465611,559655.30942982,112.82400000,6.00000000,0.00000000,-0.00700000,-0.00900000,-0.04350000,-0.02080000,-0.01390000,-0.02020000,-0.00700000,1.00240000
$GPFPD,2292,545508.000,112.823,-0.531,1.171,31.42737949,120.62744505,13.561,-0.003,-0.009,-0.016,0.801,22,18,04*75
$GTIMU,2292,545508.000,-0.0064,0.0331,0.0145,-0.0176,-0.0100,0.9915,32.5*43
15:31::29.997,1702683107982,120.62744505,31.42737949,3478529.55354731,559655.30943616,112.82300000,6.00000000,-0.00300000,-0.00900000,-0.01600000,-0.00640000,0.03310000,0.01450000,-0.01760000,-0.01000000,0.99150000
$GPFPD,2292,5455$GPGGA,008.100,1173130.00,2.823,-0.3125.6428529,1.171391,N,1203,31.427377.6473647948,120.62,E,1,18,0744505,13.9,7.211,.560,-0.0M,7.80,M,02,-0.005,*62
,-0.010,0.801,22,18,04*76
$GTIMU,2292,545508.100,0.0230,-0.0055,0.0030,-0.0238,-0.0094,1.0059,32.5*4F
15:31::30.097,1702683108082,120.62744505,31.42737948,3478529.55243851,559655.30944249,112.82300000,6.00000000,-0.00200000,-0.00500000,-0.01000000,0.02300000,-0.00550000,0.00300000,-0.02380000,-0.00940000,1.00590000
$GPFPD,2292,545508.200,112.824,-0.529,1.169,31.42737948,120.62744505,13.559,-0.000,-0.007,-0.013,0.801,22,18,04*72
$GTIMU,2292,545508.200,-0.0048,-0.0169,-0.0078,-0.0193,-0.0063,0.9971,32.5*42
15:31::30.197,1702683108182,120.62744505,31.42737948,3478529.55243851,559655.30944249,112.82400000,6.00000000,0.00000000,-0.00700000,-0.01300000,-0.00480000,-0.01690000,-0.00780000,-0.01930000,-0.00630000,0.99710000
$GPFPD,2292,545508.300,112.823,-0.532,1.170,31.42737947,120.62744505,13.560,-0.003,-0.007,-0.009,0.801,21,18,04*78
$GTIMU,2292,545508.300,-0.0348,0.0059,0.0089,-0.0192,-0.0104,1.0008,32.5*42
15:31::30.297,1702683108282,120.62744505,31.42737947,3478529.55132971,559655.30944882,112.82300000,6.00000000,-0.00300000,-0.00700000,-0.00900000,-0.03480000,0.00590000,0.00890000,-0.01920000,-0.01040000,1.00080000
$GPFPD,2292,545508.400,112.823,-0.529,1.167,31.42737948,120.62744504,13.566,-0.001,-0.006,-0.009,0.801,21,18,04*78
$GTIMU,2292,545508.400,0.0275,-0.0294,0.0053,-0.0221,-0.0083,0.9995,32.5*4E
15:31::30.397,1702683108382,120.62744504,31.42737948,3478529.55243308,559655.30849170,112.82300000,6.00000000,-0.00100000,-0.00600000,-0.00900000,0.02750000,-0.02940000,0.00530000,-0.02210000,-0.00830000,0.99950000
$GPFPD,2292,545508.500,112.824,-0.532,1.173,31.42737949,120.62744504,13.573,-0.002,-0.009,-0.010,0.801,21,18,04*70
$GTIMU,2292,545508.500,-0.0342,0.0565,-0.0088,-0.0175,-0.0083,0.9982,32.5*6C
15:31::30.497,1702683108482,120.62744504,31.42737949,3478529.55354188,559655.30848537,112.82400000,6.00000000,-0.00200000,-0.00900000,-0.01000000,-0.03420000,0.05650000,-0.00880000,-0.01750000,-0.00830000,0.99820000
$GPFPD,2292,545508.600,112.822,-0.529,1.170,31.42737949,120.62744503,13.580,-0.002,-0.005,-0.009,0.801,21,18,04*73
$GTIMU,2292,545508.600,0.0298,-0.0277,0.0212,-0.0235,-0.0096,1.0010,32.5*48
15:31::30.597,1702683108582,120.62744503,31.42737949,3478529.55353645,559655.30753459,112.82200000,6.00000000,-0.00200000,-0.00500000,-0.00900000,0.02980000,-0.02770000,0.02120000,-0.02350000,-0.00960000,1.00100000
$GPFPD,2292,545508.700,112.824,-0.531,1.173,31.42737950,120.62744503,13.587,-0.002,-0.008,-0.010,0.799,21,18,04*7A
$GTIMU,2292,545508.700,-0.0303,0.0190,-0.0162,-0.0178,-0.0077,0.9987,32.5*63
15:31::30.697,1702683108682,120.62744503,31.42737950,3478529.55464525,559655.30752826,112.82400000,6.00000000,-0.00200000,-0.00800000,-0.01000000,-0.03030000,0.01900000,-0.01620000,-0.01780000,-0.00770000,0.99870000
$GPFPD,2292,545508.800,112.822,-0.531,1.173,31.42737950,120.62744503,13.592,-0.002,-0.006,-0.009,0.799,21,18,04*71
$GTIMU,2292,545508.800,-0.0013,0.0007,0.0173,-0.0222,-0.0097,1.0003,32.5*43
15:31::30.797,1702683108782,120.62744503,31.42737950,3478529.55464525,559655.30752826,112.82200000,6.00000000,-0.00200000,-0.00600000,-0.00900000,-0.00130000,0.00070000,0.01730000,-0.02220000,-0.00970000,1.00030000
$GPFPD,2292,545508.900,112.823,-0.532,1.171,31.42737950,120.62744502,13.591,-0.001,-0.007,-0.010,0.800,21,18,04*77
$GTIMU,2292,545508.900,-0.0134,-0.0237,-0.0043,-0.0203,-0.0073,0.9979,32.5*40
15:31::30.897,1702683108882,120.62744502,31.42737950,3478529.55463982,559655.30657747,112.82300000,6.00000000,-0.00100000,-0.00700000,-0.01000000,-0.01340000,-0.02370000,-0.00430000,-0.02030000,-0.00730000,0.99790000
$GPFPD,2292,545509.000,112.823,-0.531,1.170,31.42737949,120.62744502,13.590,-0.003,-0.007,-0.008,0.800,21,18,04*7F
$GTIMU,2292,545509.000,0.0099,-0.0072,-0.0044,-0.0197,-0.0103,1.0026,32.5*64
15:31::30.997,1702683108982,120.62744502,31.42737949,3478529.55353102,559655.30658381,112.82300000,6.00000000,-0.00300000,-0.00700000,-0.00800000,0.00990000,-0.00720000,-0.00440000,-0.01970000,-0.01030000,1.00260000
$GPGGA,073131.00,3125.6428530,N,12037.6473523,E,1,18,0.9,7.149,M,7.80,M,,*61
$GPFPD,2292,545509.100,112.822,-0.531,1.171,31.42737948,120.62744502,13.589,-0.003,-0.008,-0.011,0.800,21,18,04*70
$GTIMU,2292,545509.100,-0.0059,0.0138,0.0139,-0.0192,-0.0084,0.9960,32.5*48
15:31::31.097,1702683109082,120.62744502,31.42737948,3478529.55242223,559655.30659014,112.82200000,6.00000000,-0.00300000,-0.00800000,-0.01100000,-0.00590000,0.01380000,0.01390000,-0.01920000,-0.00840000,0.99600000
$GPFPD,2292,545509.200,112.824,-0.527,1.172,31.42737948,120.62744502,13.588,0.000,-0.007,-0.010,0.801,21,18,04*51
$GTIMU,2292,545509.200,0.0389,0.0047,-0.0101,-0.0228,-0.0062,1.0003,32.5*49
15:31::31.197,1702683109182,120.62744502,31.42737948,3478529.55242223,559655.30659014,112.82400000,6.00000000,0.00000000,-0.00700000,-0.01000000,0.03890000,0.00470000,-0.01010000,-0.02280000,-0.00620000,1.00030000
$GPFPD,2292,545509.300,112.824,-0.514,1.171,31.42737947,120.62744501,13.589,0.007,-0.013,-0.015,0.802,21,18,04*5A
$GTIMU,2292,545509.300,0.1240,-0.0130,-0.0012,-0.0182,0.0030,0.9903,32.5*4A
15:31::31.297,1702683109282,120.62744501,31.42737947,3478529.55130800,559655.30564569,112.82400000,6.00000000,0.00700000,-0.01300000,-0.01500000,0.12400000,-0.01300000,-0.00120000,-0.01820000,0.00300000,0.99030000
$GPFPD,2292,545509.400,112.823,-0.481,1.172,31.42737946,120.62744498,13.597,0.009,-0.014,-0.027,0.802,21,18,04*53
$GTIMU,2292,545509.400,0.3216,0.0074,0.0171,-0.0200,-0.0063,0.9870,32.5*6E
15:31::31.397,1702683109382,120.62744498,31.42737946,3478529.55018291,559655.30279967,112.82300000,6.00000000,0.00900000,-0.01400000,-0.02700000,0.32160000,0.00740000,0.01710000,-0.02000000,-0.00630000,0.98700000
$GPFPD,2292,545509.500,112.826,-0.428,1.179,31.42737946,120.62744494,13.604,0.011,-0.015,-0.038,0.801,21,18,04*5F
$GTIMU,2292,545509.500,0.5266,0.0647,-0.0119,-0.0204,-0.0045,0.9888,32.5*4C
15:31::31.497,1702683109482,120.62744494,31.42737946,3478529.55016119,559655.29899654,112.82600000,6.00000000,0.01100000,-0.01500000,-0.03800000,0.52660000,0.06470000,-0.01190000,-0.02040000,-0.00450000,0.98880000
$GPFPD,2292,545509.600,112.826,-0.378,1.180,31.42737945,120.62744491,13.610,0.004,-0.010,-0.028,0.801,21,18,04*5B
$GTIMU,2292,545509.600,0.4981,0.0130,0.0081,-0.0218,-0.0154,1.0097,32.5*64
15:31::31.597,1702683109582,120.62744491,31.42737945,3478529.54903611,559655.29615052,112.82600000,6.00000000,0.00400000,-0.01000000,-0.02800000,0.49810000,0.01300000,0.00810000,-0.02180000,-0.01540000,1.00970000
$GPFPD,2292,545509.700,112.826,-0.352,1.177,31.42737945,120.62744486,13.619,-0.001,-0.008,-0.012,0.804,21,18,04*78
$GTIMU,2292,545509.700,0.2602,-0.0295,0.0047,-0.0217,-0.0111,1.0160,32.5*4B
15:31::31.697,1702683109682,120.62744486,31.42737945,3478529.54900896,559655.29139660,112.82600000,6.00000000,-0.00100000,-0.00800000,-0.01200000,0.26020000,-0.02950000,0.00470000,-0.02170000,-0.01110000,1.01600000
$GPFPD,2292,545509.800,112.829,-0.344,1.174,31.42737945,120.62744483,13.625,-0.004,-0.008,-0.006,0.804,21,18,04*76
$GTIMU,2292,545509.800,0.0785,-0.0311,-0.0194,-0.0187,-0.0079,1.0051,32.5*61
15:31::31.797,1702683109782,120.62744483,31.42737945,3478529.54899267,559655.28854426,112.82900000,6.00000000,-0.00400000,-0.00800000,-0.00600000,0.07850000,-0.03110000,-0.01940000,-0.01870000,-0.00790000,1.00510000
$GPFPD,2292,545509.900,112.829,-0.334,1.176,31.42737944,120.62744483,13.625,0.003,-0.011,-0.010,0.799,21,18,04*5D
$GTIMU,2292,545509.900,0.0985,0.0132,0.0057,-0.0205,0.0023,0.9962,32.5*49
15:31::31.897,1702683109882,120.62744483,31.42737944,3478529.54788387,559655.28855059,112.82900000,6.00000000,0.00300000,-0.01100000,-0.01000000,0.09850000,0.01320000,0.00570000,-0.02050000,0.00230000,0.99620000
$GPFPD,2292,545510.000,112.828,-0.323,1.178,31.42737943,120.62744483,13.623,0.000,-0.010,-0.015,0.799,21,18,04*53
$GTIMU,2292,545510.000,0.1054,0.0263,0.0085,-0.0202,-0.0082,0.9940,32.5*65
15:31::31.997,1702683109982,120.62744483,31.42737943,3478529.54677508,559655.28855692,112.82800000,6.00000000,0.00000000,-0.01000000,-0.01500000,0.10540000,0.02630000,0.00850000,-0.02020000,-0.00820000,0.99400000
$GPGGA,073132.00,3125.6428644,N,12037.6473516,E,1,18,0.9,7.110,M,7.80,M,,*68
$GPFPD,2292,545510.100,112.827,-0.310,1.177,31.42737942,120.62744483,13.622,-0.007,-0.008,-0.009,0.799,21,18,04*7C
$GTIMU,2292,545510.100,0.1275,-0.0113,0.0170,-0.0202,-0.0129,1.0058,32.5*4F
15:31::32.097,1702683110082,120.62744483,31.42737942,3478529.54566628,559655.28856325,112.82700000,6.00000000,-0.00700000,-0.00800000,-0.00900000,0.12750000,-0.01130000,0.01700000,-0.02020000,-0.01290000,1.00580000
$GPFPD,2292,545510.200,112.828,-0.306,1.178,31.42737941,120.62744482,13.621,-0.008,-0.005,-0.009,0.800,21,18,04*74
$GTIMU,2292,545510.200,0.0366,0.0070,-0.0067,-0.0219,-0.0069,0.9997,32.5*40
15:31::32.197,1702683110182,120.62744482,31.42737941,3478529.54455205,559655.28761880,112.82800000,6.00000000,-0.00800000,-0.00500000,-0.00900000,0.03660000,0.00700000,-0.00670000,-0.02190000,-0.00690000,0.99970000
$GPFPD,2292,545510.300,112.830,-0.299,1.175,31.42737942,120.62744481,13.623,-0.002,-0.006,0.002,0.801,21,18,04*5A
$GTIMU,2292,545510.300,0.0592,-0.0322,-0.0193,-0.0207,0.0018,1.0068,32.5*4A
15:31::32.297,1702683110282,120.62744481,31.42737942,3478529.54565542,559655.28666169,112.83000000,6.00000000,-0.00200000,-0.00600000,0.00200000,0.05920000,-0.03220000,-0.01930000,-0.02070000,0.00180000,1.00680000
$GPFPD,2292,545510.400,112.827,-0.307,1.173,31.42737945,120.62744481,13.631,-0.005,-0.007,-0.001,0.801,21,18,04*77
$GTIMU,2292,545510.400,-0.0848,-0.0260,0.0295,-0.0180,-0.0068,0.9967,32.5*6D
15:31::32.397,1702683110382,120.62744481,31.42737945,3478529.54898182,559655.28664269,112.82700000,6.00000000,-0.00500000,-0.00700000,-0.00100000,-0.08480000,-0.02600000,0.02950000,-0.01800000,-0.00680000,0.99670000
$GPFPD,2292,545510.500,112.829,-0.305,1.176,31.42737948,120.62744481,13.639,-0.006,-0.005,-0.004,0.800,21,18,04*7F
$GTIMU,2292,545510.500,0.0253,0.0286,-0.0147,-0.0220,-0.0071,0.9962,32.5*41
15:31::32.497,1702683110482,120.62744481,31.42737948,3478529.55230821,559655.28662370,112.82900000,6.00000000,-0.00600000,-0.00500000,-0.00400000,0.02530000,0.02860000,-0.01470000,-0.02200000,-0.00710000,0.99620000
$GPFPD,2292,545510.600,112.829,-0.302,1.174,31.42737951,120.62744481,13.647,-0.005,-0.006,0.001,0.800,21,18,04*50
$GTIMU,2292,545510.600,0.0235,-0.0203,-0.0016,-0.0199,-0.0028,1.0053,32.5*69
15:31::32.597,1702683110582,120.62744481,31.42737951,3478529.55563461,559655.28660470,112.82900000,6.00000000,-0.00500000,-0.00600000,0.00100000,0.02350000,-0.02030000,-0.00160000,-0.01990000,-0.00280000,1.00530000
$GPFPD,2292,545510.700,112.828,-0.308,1.175,31.42737954,120.62744480,13.654,-0.005,-0.006,-0.001,0.801,21,18,04*71
$GTIMU,2292,545510.700,-0.0660,0.0104,0.0124,-0.0201,-0.0045,0.9967,32.5*4A
15:31::32.697,1702683110682,120.62744480,31.42737954,3478529.55895558,559655.28563492,112.82800000,6.00000000,-0.00500000,-0.00600000,-0.00100000,-0.06600000,0.01040000,0.01240000,-0.02010000,-0.00450000,0.99670000
$GPFPD,2292,545510.800,112.829,-0.307,1.172,31.42737957,120.62744480,13.660,-0.007,-0.005,-0.003,0.801,21,18,04*70
$GTIMU,2292,545510.800,0.0070,-0.0334,-0.0044,-0.0210,-0.0074,0.9984,32.5*66
15:31::32.797,1702683110782,120.62744480,31.42737957,3478529.56228197,559655.28561593,112.82900000,6.00000000,-0.00700000,-0.00500000,-0.00300000,0.00700000,-0.03340000,-0.00440000,-0.02100000,-0.00740000,0.99840000
$GPFPD,2292,545510.900,112.829,-0.307,1.175,31.42737956,120.62744479,13.660,-0.007,-0.007,-0.001,0.803,21,18,04*73
$GTIMU,2292,545510.900,-0.0030,0.0326,0.0019,-0.0186,-0.0039,1.0016,32.5*4A
15:31::32.897,1702683110882,120.62744479,31.42737956,3478529.56116775,559655.28467148,112.82900000,6.00000000,-0.00700000,-0.00700000,-0.00100000,-0.00300000,0.03260000,0.00190000,-0.01860000,-0.00390000,1.00160000
$GPFPD,2292,545511.000,112.828,-0.308,1.174,31.42737955,120.62744479,13.660,-0.004,-0.006,-0.000,0.803,21,18,04*74
$GTIMU,2292,545511.000,-0.0144,-0.0084,0.0065,-0.0222,-0.0027,0.9998,32.5*68
15:31::32.997,1702683110982,120.62744479,31.42737955,3478529.56005895,559655.28467781,112.82800000,6.00000000,-0.00400000,-0.00600000,0.00000000,-0.01440000,-0.00840000,0.00650000,-0.02220000,-0.00270000,0.99980000
$GPGGA,073133.00,3125.6428710,N,12037.6473553,E,1,18,0.9,7.128,M,7.80,M,,*63
$GPFPD,2292,545511.100,112.829,-0.312,1.175,31.42737955,120.62744478,13.660,-0.006,-0.007,-0.001,0.803,21,18,04*7D
$GTIMU,2292,545511.100,-0.0406,0.0082,-0.0060,-0.0190,-0.0058,0.9991,32.5*62
15:31::33.097,1702683111082,120.62744478,31.42737955,3478529.56005352,559655.28372703,112.82900000,6.00000000,-0.00600000,-0.00700000,-0.00100000,-0.04060000,0.00820000,-0.00600000,-0.01900000,-0.00580000,0.99910000
$GPFPD,2292,545511.200,112.829,-0.310,1.174,31.42737954,120.62744477,13.660,-0.006,-0.005,-0.002,0.802,21,18,04*73
$GTIMU,2292,545511.200,0.0185,-0.0146,0.0093,-0.0215,-0.0063,0.9987,32.5*46
15:31::33.197,1702683111182,120.62744477,31.42737954,3478529.55893929,559655.28278257,112.82900000,6.00000000,-0.00600000,-0.00500000,-0.00200000,0.01850000,-0.01460000,0.00930000,-0.02150000,-0.00630000,0.99870000
$GPFPD,2292,545511.300,112.829,-0.310,1.175,31.42737953,120.62744477,13.659,-0.005,-0.009,-0.004,0.802,21,18,04*77
$GTIMU,2292,545511.300,-0.0014,0.0076,-0.0009,-0.0197,-0.0037,1.0009,32.5*6D
15:31::33.298,1702683111282,120.62744477,31.42737953,3478529.55783049,559655.28278891,112.82900000,6.00000000,-0.00500000,-0.00900000,-0.00400000,-0.00140000,0.00760000,-0.00090000,-0.01970000,-0.00370000,1.00090000
$GPFPD,2292,545511.400,112.829,-0.311,1.175,31.42737950,120.62744478,13.656,-0.004,-0.010,-0.004,0.802,21,18,04*7B
$GTIMU,2292,545511.400,-0.0178,-0.0015,0.0060,-0.0202,-0.0036,0.9993,32.5*67
15:31::33.397,1702683111382,120.62744478,31.42737950,3478529.55450952,559655.28375868,112.82900000,6.00000000,-0.00400000,-0.01000000,-0.00400000,-0.01780000,-0.00150000,0.00600000,-0.02020000,-0.00360000,0.99930000
$GPFPD,2292,545511.500,112.829,-0.311,1.176,31.42737946,120.62744479,13.653,-0.006,-0.009,-0.004,0.802,21,18,04*70
$GTIMU,2292,545511.500,-0.0019,0.0098,-0.0003,-0.0210,-0.0073,0.9998,32.5*69
15:31::33.497,1702683111482,120.62744479,31.42737946,3478529.55007976,559655.28473479,112.82900000,6.00000000,-0.00600000,-0.00900000,-0.00400000,-0.00190000,0.00980000,-0.00030000,-0.02100000,-0.00730000,0.99980000
$GPFPD,2292,545511.600,112.829,-0.311,1.176,31.42737943,120.62744480,13.649,-0.005,-0.010,-0.005,0.802,21,18,04*71
$GTIMU,2292,545511.600,-0.0002,-0.0027,0.0048,-0.0198,-0.0035,0.9984,32.5*67
15:31::33.597,1702683111582,120.62744480,31.42737943,3478529.54675879,559655.28570457,112.82900000,6.00000000,-0.00500000,-0.01000000,-0.00500000,-0.00020000,-0.00270000,0.00480000,-0.01980000,-0.00350000,0.99840000
$GPFPD,2292,545511.700,112.829,-0.310,1.175,31.42737939,120.62744481,13.646,-0.005,-0.008,-0.004,0.800,21,18,04*7B
$GTIMU,2292,545511.700,0.0014,-0.0123,0.0065,-0.0217,-0.0053,1.0012,32.5*4C
15:31::33.697,1702683111682,120.62744481,31.42737939,3478529.54232902,559655.28668068,112.82900000,6.00000000,-0.00500000,-0.00800000,-0.00400000,0.00140000,-0.01230000,0.00650000,-0.02170000,-0.00530000,1.00120000
$GPFPD,2292,545511.800,112.830,-0.312,1.173,31.42737936,120.62744482,13.644,-0.004,-0.009,-0.005,0.800,21,18,04*77
$GTIMU,2292,545511.800,-0.0247,-0.0242,-0.0100,-0.0199,-0.0035,0.9986,32.5*48
15:31::33.797,1702683111782,120.62744482,31.42737936,3478529.53900805,559655.28765046,112.83000000,6.00000000,-0.00400000,-0.00900000,-0.00500000,-0.02470000,-0.02420000,-0.01000000,-0.01990000,-0.00350000,0.99860000
$GPFPD,2292,545511.900,112.829,-0.312,1.172,31.42737935,120.62744481,13.643,-0.006,-0.010,-0.004,0.801,21,18,04*72
$GTIMU,2292,545511.900,0.0003,-0.0118,0.0111,-0.0190,-0.0072,1.0004,32.5*46
15:31::33.897,1702683111882,120.62744481,31.42737935,3478529.53789383,559655.28670601,112.82900000,6.00000000,-0.00600000,-0.01000000,-0.00400000,0.00030000,-0.01180000,0.01110000,-0.01900000,-0.00720000,1.00040000
$GPFPD,2292,545512.000,112.829,-0.313,1.176,31.42737934,120.62744481,13.643,-0.005,-0.011,-0.006,0.801,21,18,04*7C
$GTIMU,2292,545512.000,-0.0155,0.0411,0.0020,-0.0201,-0.0032,0.9977,32.5*4B
15:31::33.997,1702683111982,120.62744481,31.42737934,3478529.53678503,559655.28671234,112.82900000,6.00000000,-0.00500000,-0.01100000,-0.00600000,-0.01550000,0.04110000,0.00200000,-0.02010000,-0.00320000,0.99770000
$GPGGA,073134.00,3125.6428761,N,12037.6473615,E,1,18,0.9,7.143,M,7.80,M,,*6E
$GPFPD,2292,545512.100,112.828,-0.312,1.173,31.42737934,120.62744480,13.643,-0.005,-0.008,-0.004,0.801,21,18,04*73
$GTIMU,2292,545512.100,0.0111,-0.0283,0.0082,-0.0225,-0.0057,1.0017,32.5*4D
15:31::34.097,1702683112082,120.62744480,31.42737934,3478529.53677960,559655.28576155,112.82800000,6.00000000,-0.00500000,-0.00800000,-0.00400000,0.01110000,-0.02830000,0.00820000,-0.02250000,-0.00570000,1.00170000
$GPFPD,2292,545512.200,112.828,-0.315,1.173,31.42737933,120.62744480,13.642,-0.005,-0.010,-0.005,0.801,21,18,04*79
$GTIMU,2292,545512.200,-0.0320,-0.0004,0.0003,-0.0192,-0.0040,0.9986,32.5*67
15:31::34.198,1702683112182,120.62744480,31.42737933,3478529.53567080,559655.28576789,112.82800000,6.00000000,-0.00500000,-0.01000000,-0.00500000,-0.03200000,-0.00040000,0.00030000,-0.01920000,-0.00400000,0.99860000
$GPFPD,2292,545512.300,112.828,-0.313,1.169,31.42737933,120.62744479,13.643,-0.006,-0.006,-0.004,0.801,20,18,04*76
$GTIMU,2292,545512.300,0.0150,-0.0487,0.0042,-0.0214,-0.0066,0.9998,32.5*42
15:31::34.297,1702683112282,120.62744479,31.42737933,3478529.53566537,559655.28481710,112.82800000,6.00000000,-0.00600000,-0.00600000,-0.00400000,0.01500000,-0.04870000,0.00420000,-0.02140000,-0.00660000,0.99980000
$GPFPD,2292,545512.400,112.829,-0.314,1.172,31.42737936,120.62744478,13.646,-0.005,-0.009,-0.005,0.801,20,18,04*71
$GTIMU,2292,545512.400,-0.0172,0.0303,-0.0054,-0.0179,-0.0030,0.9983,32.5*65
15:31::34.398,1702683112382,120.62744478,31.42737936,3478529.53898634,559655.28384733,112.82900000,6.00000000,-0.00500000,-0.00900000,-0.00500000,-0.01720000,0.03030000,-0.00540000,-0.01790000,-0.00300000,0.99830000
$GPFPD,2292,545512.500,112.828,-0.313,1.171,31.42737939,120.62744478,13.649,-0.006,-0.008,-0.003,0.800,20,18,04*70
$GTIMU,2292,545512.500,0.0094,-0.0095,0.0116,-0.0216,-0.0063,1.0014,32.5*48
15:31::34.497,1702683112482,120.62744478,31.42737939,3478529.54231273,559655.28382833,112.82800000,6.00000000,-0.00600000,-0.00800000,-0.00300000,0.00940000,-0.00950000,0.01160000,-0.02160000,-0.00630000,1.00140000
$GPFPD,2292,545512.600,112.829,-0.315,1.175,31.42737943,120.62744477,13.653,-0.005,-0.009,-0.004,0.800,20,18,04*7C
$GTIMU,2292,545512.600,-0.0218,0.0423,-0.0043,-0.0195,-0.0039,0.9988,32.5*6B
15:31::34.597,1702683112582,120.62744477,31.42737943,3478529.54674250,559655.28285222,112.82900000,6.00000000,-0.00500000,-0.00900000,-0.00400000,-0.02180000,0.04230000,-0.00430000,-0.01950000,-0.00390000,0.99880000
$GPFPD,2292,545512.700,112.828,-0.313,1.173,31.42737946,120.62744476,13.656,-0.005,-0.007,-0.004,0.802,20,18,04*71
$GTIMU,2292,545512.700,0.0105,-0.0260,0.0105,-0.0223,-0.0058,0.9998,32.5*42
15:31::34.698,1702683112682,120.62744476,31.42737946,3478529.55006347,559655.28188244,112.82800000,6.00000000,-0.00500000,-0.00700000,-0.00400000,0.01050000,-0.02600000,0.01050000,-0.02230000,-0.00580000,0.99980000
$GPFPD,2292,545512.800,112.829,-0.314,1.174,31.42737948,120.62744476,13.658,-0.005,-0.008,-0.004,0.802,20,18,04*70
$GTIMU,2292,545512.800,-0.0150,0.0127,-0.0106,-0.0188,-0.0040,0.9988,32.5*69
15:31::34.798,1702683112782,120.62744476,31.42737948,3478529.55228107,559655.28186978,112.82900000,6.00000000,-0.00500000,-0.00800000,-0.00400000,-0.01500000,0.01270000,-0.01060000,-0.01880000,-0.00400000,0.99880000
$GPFPD,2292,545512.900,112.828,-0.313,1.172,31.42737947,120.62744475,13.658,-0.005,-0.008,-0.003,0.803,20,18,04*7B
$GTIMU,2292,545512.900,0.0105,-0.0203,0.0127,-0.0211,-0.0054,1.0005,32.5*41
15:31::34.897,1702683112882,120.62744475,31.42737947,3478529.55116684,559655.28092533,112.82800000,6.00000000,-0.00500000,-0.00800000,-0.00300000,0.01050000,-0.02030000,0.01270000,-0.02110000,-0.00540000,1.00050000
$GPFPD,2292,545513.000,112.829,-0.315,1.175,31.42737947,120.62744475,13.658,-0.006,-0.008,-0.003,0.803,20,18,04*70
$GTIMU,2292,545513.000,-0.0195,0.0246,-0.0049,-0.0198,-0.0051,0.9997,32.5*68
15:31::34.997,1702683112982,120.62744475,31.42737947,3478529.55116684,559655.28092533,112.82900000,6.00000000,-0.00600000,-0.00800000,-0.00300000,-0.01950000,0.02460000,-0.00490000,-0.01980000,-0.00510000,0.99970000
$GPGGA,073135.00,3125.6428711,N,12037.6473592,E,1,18,0.9,7.169,M,7.80,M,,*6C
$GPFPD,2292,545513.100,112.829,-0.313,1.172,31.42737946,120.62744474,13.657,-0.006,-0.008,-0.004,0.803,20,18,04*78
$GTIMU,2292,545513.100,0.0116,-0.0294,0.0053,-0.0209,-0.0047,0.9989,32.5*48
15:31::35.097,1702683113082,120.62744474,31.42737946,3478529.55005261,559655.27998088,112.82900000,6.00000000,-0.00600000,-0.00800000,-0.00400000,0.01160000,-0.02940000,0.00530000,-0.02090000,-0.00470000,0.99890000
$GPFPD,2292,545513.200,112.829,-0.314,1.174,31.42737945,120.62744473,13.657,-0.006,-0.008,-0.004,0.801,20,18,04*7C
$GTIMU,2292,545513.200,-0.0127,0.0167,0.0014,-0.0199,-0.0048,0.9998,32.5*40
15:31::35.197,1702683113182,120.62744473,31.42737945,3478529.54893838,559655.27903643,112.82900000,6.00000000,-0.00600000,-0.00800000,-0.00400000,-0.01270000,0.01670000,0.00140000,-0.01990000,-0.00480000,0.99980000
$GPFPD,2292,545513.300,112.829,-0.314,1.171,31.42737945,120.62744473,13.659,-0.006,-0.006,0.001,0.803,22,18,04*50
$GTIMU,2292,545513.300,-0.0014,-0.0294,-0.0009,-0.0211,-0.0044,0.9999,32.5*4D
15:31::35.297,1702683113282,120.62744473,31.42737945,3478529.54893838,559655.27903643,112.82900000,6.00000000,-0.00600000,-0.00600000,0.00100000,-0.00140000,-0.02940000,-0.00090000,-0.02110000,-0.00440000,0.99990000
$GPFPD,2292,545513.400,112.829,-0.315,1.173,31.42737949,120.62744471,13.669,-0.007,-0.006,0.001,0.803,22,18,04*58
$GTIMU,2292,545513.400,-0.0104,0.0155,0.0008,-0.0190,-0.0059,0.9995,32.5*4F
15:31::35.397,1702683113382,120.62744471,31.42737949,3478529.55336272,559655.27710954,112.82900000,6.00000000,-0.00700000,-0.00600000,0.00100000,-0.01040000,0.01550000,0.00080000,-0.01900000,-0.00590000,0.99950000
$GPFPD,2292,545513.500,112.829,-0.315,1.172,31.42737952,120.62744469,13.678,-0.006,-0.007,0.001,0.802,22,18,04*5A
$GTIMU,2292,545513.500,-0.0059,-0.0055,0.0076,-0.0206,-0.0036,0.9994,32.5*66
15:31::35.498,1702683113482,120.62744469,31.42737952,3478529.55667826,559655.27518897,112.82900000,6.00000000,-0.00600000,-0.00700000,0.00100000,-0.00590000,-0.00550000,0.00760000,-0.02060000,-0.00360000,0.99940000
$GPFPD,2292,545513.600,112.829,-0.316,1.175,31.42737956,120.62744467,13.688,-0.007,-0.006,0.001,0.802,22,18,04*58
$GTIMU,2292,545513.600,-0.0110,0.0297,-0.0003,-0.0204,-0.0060,0.9997,32.5*65
15:31::35.598,1702683113582,120.62744467,31.42737956,3478529.56110260,559655.27326208,112.82900000,6.00000000,-0.00700000,-0.00600000,0.00100000,-0.01100000,0.02970000,-0.00030000,-0.02040000,-0.00600000,0.99970000
$GPFPD,2292,545513.700,112.829,-0.315,1.174,31.42737959,120.62744466,13.698,-0.006,-0.006,0.001,0.803,22,18,04*54
$GTIMU,2292,545513.700,-0.0020,-0.0203,0.0059,-0.0211,-0.0046,0.9994,32.5*67
15:31::35.697,1702683113682,120.62744466,31.42737959,3478529.56442356,559655.27229230,112.82900000,6.00000000,-0.00600000,-0.00600000,0.00100000,-0.00200000,-0.02030000,0.00590000,-0.02110000,-0.00460000,0.99940000
$GPFPD,2292,545513.800,112.829,-0.315,1.175,31.42737962,120.62744464,13.705,-0.007,-0.006,0.001,0.803,22,18,04*54
$GTIMU,2292,545513.800,0.0026,0.0098,0.0008,-0.0202,-0.0053,0.9995,32.5*6D
15:31::35.797,1702683113782,120.62744464,31.42737962,3478529.56773910,559655.27037174,112.82900000,6.00000000,-0.00700000,-0.00600000,0.00100000,0.00260000,0.00980000,0.00080000,-0.02020000,-0.00530000,0.99950000
$GPFPD,2292,545513.900,112.830,-0.316,1.172,31.42737961,120.62744463,13.705,-0.006,-0.006,0.001,0.803,22,18,04*5C
$GTIMU,2292,545513.900,-0.0111,-0.0282,-0.0066,-0.0209,-0.0043,0.9999,32.5*43
15:31::35.898,1702683113882,120.62744463,31.42737961,3478529.56662487,559655.26942729,112.83000000,6.00000000,-0.00600000,-0.00600000,0.00100000,-0.01110000,-0.02820000,-0.00660000,-0.02090000,-0.00430000,0.99990000
$GPFPD,2292,545514.000,112.829,-0.315,1.173,31.42737961,120.62744463,13.705,-0.007,-0.007,0.001,0.803,22,18,04*58
$GTIMU,2292,545514.000,-0.0002,0.0053,0.0099,-0.0190,-0.0054,1.0000,32.5*44
15:31::35.998,1702683113982,120.62744463,31.42737961,3478529.56662487,559655.26942729,112.82900000,6.00000000,-0.00700000,-0.00700000,0.00100000,-0.00020000,0.00530000,0.00990000,-0.01900000,-0.00540000,1.00000000
$GPFPD,2292,5455$GPGGA,0714.100,13136.00,12.829,-3125.6420.316,1.8726,N,1173,31.42037.647362737960,56,E,1,18120.6274,0.9,7.184462,13.705,-0.08,M,7.80,06,-0.00M,,*6F
6,0.000,0.803,22,18,04*5B
$GTIMU,2292,545514.100,-0.0144,0.0019,-0.0003,-0.0211,-0.0039,0.9987,32.5*69
15:31::36.097,1702683114082,120.62744462,31.42737960,3478529.56551064,559655.26848284,112.82900000,6.00000000,-0.00600000,-0.00600000,0.00000000,-0.01440000,0.00190000,-0.00030000,-0.02110000,-0.00390000,0.99870000
$GPFPD,2292,545514.200,112.830,-0.315,1.174,31.42737960,120.62744461,13.705,-0.008,-0.005,0.001,0.804,22,18,04*5C
$GTIMU,2292,545514.200,0.0083,0.0036,-0.0009,-0.0204,-0.0072,1.0005,32.5*4A
15:31::36.198,1702683114182,120.62744461,31.42737960,3478529.56550521,559655.26753206,112.83000000,6.00000000,-0.00800000,-0.00500000,0.00100000,0.00830000,0.00360000,-0.00090000,-0.02040000,-0.00720000,1.00050000
$GPFPD,2292,545514.300,112.830,-0.316,1.173,31.42737959,120.62744462,13.707,-0.004,-0.007,0.004,0.803,22,18,04*5E
$GTIMU,2292,545514.300,-0.0099,-0.0049,0.0059,-0.0203,-0.0030,0.9989,32.5*64
15:31::36.298,1702683114282,120.62744462,31.42737959,3478529.56440185,559655.26848917,112.83000000,6.00000000,-0.00400000,-0.00700000,0.00400000,-0.00990000,-0.00490000,0.00590000,-0.02030000,-0.00300000,0.99890000
$GPFPD,2292,545514.400,112.830,-0.316,1.172,31.42737958,120.62744465,13.715,-0.004,-0.007,0.004,0.803,22,18,04*5D
$GTIMU,2292,545514.400,0.0026,-0.0175,0.0014,-0.0207,-0.0059,0.9998,32.5*46
15:31::36.397,1702683114382,120.62744465,31.42737958,3478529.56330933,559655.27134785,112.83000000,6.00000000,-0.00400000,-0.00700000,0.00400000,0.00260000,-0.01750000,0.00140000,-0.02070000,-0.00590000,0.99980000
$GPFPD,2292,545514.500,112.830,-0.316,1.173,31.42737957,120.62744469,13.723,-0.004,-0.008,0.004,0.803,22,18,04*54
$GTIMU,2292,545514.500,-0.0122,0.0087,-0.0049,-0.0193,-0.0039,0.9996,32.5*6D
15:31::36.497,1702683114482,120.62744469,31.42737957,3478529.56222225,559655.27515732,112.83000000,6.00000000,-0.00400000,-0.00800000,0.00400000,-0.01220000,0.00870000,-0.00490000,-0.01930000,-0.00390000,0.99960000
$GPFPD,2292,545514.600,112.830,-0.316,1.172,31.42737956,120.62744473,13.731,-0.005,-0.007,0.005,0.803,22,18,04*50
$GTIMU,2292,545514.600,0.0032,-0.0055,0.0071,-0.0210,-0.0065,1.0004,32.5*4C
15:31::36.598,1702683114582,120.62744473,31.42737956,3478529.56113517,559655.27896678,112.83000000,6.00000000,-0.00500000,-0.00700000,0.00500000,0.00320000,-0.00550000,0.00710000,-0.02100000,-0.00650000,1.00040000
$GPFPD,2292,545514.700,112.830,-0.316,1.173,31.42737955,120.62744477,13.739,-0.004,-0.008,0.003,0.804,22,18,04*50
$GTIMU,2292,545514.700,-0.0088,0.0087,0.0002,-0.0198,-0.0033,0.9974,32.5*41
15:31::36.698,1702683114682,120.62744477,31.42737955,3478529.56004809,559655.28277624,112.83000000,6.00000000,-0.00400000,-0.00800000,0.00300000,-0.00880000,0.00870000,0.00020000,-0.01980000,-0.00330000,0.99740000
